log_time_ns,header.frame_id,header.stamp.nanosec,header.stamp.sec,motor_a_1,motor_a_2,motor_b_1,motor_b_2,motor_c_1,motor_c_2
1697621295810844632,body,810780400,1697621295,0.03,0.09022583067417145,0.06278170645236969,0.03,0.03,0.03
1697621295820950393,body,820846386,1697621295,0.03,0.08716592192649841,0.07565358281135559,0.03,0.03,0.03
1697621295830864216,body,830795341,1697621295,0.03,0.07654239237308502,0.07844486087560654,0.03,0.03,0.03
1697621295840845335,body,840765377,1697621295,0.03,0.08738011121749878,0.07929055392742157,0.03,0.03,0.03
1697621295850823210,body,850763434,1697621295,0.03,0.10796637088060379,0.06501135975122452,0.03,0.03,0.03
1697621296186734229,body,860823222,1697621295,0.03,0.11455540359020233,0.0542798712849617,0.03,0.03,0.03
1697621296187084240,body,186824821,1697621296,0.4297448992729187,0.03,0.03,0.11470744758844376,0.47450706362724304,0.03
1697621296190859130,body,190779540,1697621296,0.3950161337852478,0.03,0.03,0.09553516656160355,0.48775357007980347,0.03
1697621296200927455,body,200809912,1697621296,0.3970711827278137,0.03,0.03,0.10130102187395096,0.49106940627098083,0.03
1697621296210893169,body,210792628,1697621296,0.42405757308006287,0.03,0.03,0.1030498743057251,0.46529799699783325,0.03
1697621296220847916,body,220754748,1697621296,0.3934471607208252,0.03,0.03,0.17664174735546112,0.473691463470459,0.03
1697621296230857643,body,230784744,1697621296,0.37523722648620605,0.03,0.03,0.11756749451160431,0.4943004548549652,0.03
1697621296241141090,body,240883582,1697621296,0.3781741261482239,0.03,0.03,0.09656596183776855,0.4784413278102875,0.03
1697621296251018732,body,250804428,1697621296,0.3926723897457123,0.03,0.03,0.08203522861003876,0.44294261932373047,0.03
1697621296260899134,body,260787194,1697621296,0.40190696716308594,0.03,0.03,0.09061428904533386,0.4372313618659973,0.03
1697621296270867958,body,270775485,1697621296,0.40045249462127686,0.03,0.03,0.10120025277137756,0.45375707745552063,0.03
1697621296280903836,body,280794704,1697621296,0.4077323079109192,0.03,0.03,0.10134715586900711,0.4503345191478729,0.03
1697621296290892644,body,290798552,1697621296,0.40316933393478394,0.03,0.03,0.08895894140005112,0.44825929403305054,0.03
1697621296300916073,body,300794660,1697621296,0.39631035923957825,0.03,0.03,0.0815431997179985,0.4587637782096863,0.03
1697621296310881492,body,310793039,1697621296,0.39259469509124756,0.03,0.03,0.07896585762500763,0.46530666947364807,0.03
1697621296320845786,body,320780525,1697621296,0.3912482261657715,0.03,0.03,0.07763997465372086,0.46843791007995605,0.03
1697621296330922959,body,330828182,1697621296,0.38732874393463135,0.03,0.03,0.07749222218990326,0.47500860691070557,0.03
1697621296340860785,body,340774411,1697621296,0.37985217571258545,0.03,0.03,0.07654592394828796,0.4822819232940674,0.03
1697621296350895912,body,350785593,1697621296,0.37740999460220337,0.03,0.03,0.08977752178907394,0.4936043620109558,0.03
1697621296361033027,body,360959437,1697621296,0.38521653413772583,0.03,0.03,0.09518031775951385,0.49403804540634155,0.03
1697621296370826889,body,370775759,1697621296,0.39827343821525574,0.03,0.03,0.07288479059934616,0.47267767786979675,0.03
1697621296380877927,body,380790659,1697621296,0.3920023441314697,0.03,0.03,0.06167811155319214,0.4490094780921936,0.03
1697621296390891220,body,390828525,1697621296,0.33137187361717224,0.03,0.7626363635063171,0.03,0.03,0.4914054572582245
1697621296400861020,body,400771753,1697621296,0.3271749019622803,0.03,0.7587408423423767,0.03,0.03,0.48845213651657104
1697621296410839444,body,410780202,1697621296,0.31590700149536133,0.03,0.7545287609100342,0.03,0.03,0.4691656231880188
1697621296420888186,body,420813974,1697621296,0.2964475452899933,0.03,0.7603824734687805,0.03,0.03,0.44885969161987305
1697621296430905087,body,430802824,1697621296,0.30584651231765747,0.03,0.7440767884254456,0.03,0.03,0.4375663101673126
1697621296440880500,body,440795357,1697621296,0.3177998661994934,0.03,0.7462583184242249,0.03,0.03,0.4864441752433777
1697621296450862259,body,450792905,1697621296,0.3160005807876587,0.03,0.7675307393074036,0.03,0.03,0.4694332778453827
1697621296460818142,body,460734308,1697621296,0.31088870763778687,0.03,0.7551159262657166,0.03,0.03,0.4676826000213623
1697621296470875548,body,470811477,1697621296,0.3227616548538208,0.03,0.7585362195968628,0.03,0.03,0.4587140679359436
1697621296480828776,body,480770703,1697621296,0.29503029584884644,0.03,0.7590833306312561,0.03,0.03,0.43235722184181213
1697621296490880928,body,490802217,1697621296,0.2695578336715698,0.03,0.7506728172302246,0.03,0.03,0.39840269088745117
1697621296500841970,body,500771739,1697621296,0.27076858282089233,0.03,0.746374785900116,0.03,0.03,0.36529818177223206
1697621296510907552,body,510810497,1697621296,0.26060718297958374,0.03,0.735001266002655,0.03,0.03,0.33830368518829346
1697621296520848188,body,520780478,1697621296,0.24241136014461517,0.03,0.668416440486908,0.03,0.03,0.3166654407978058
1697621296530853355,body,530786098,1697621296,0.2181573212146759,0.03,0.5425631403923035,0.03,0.03,0.25984320044517517
1697621296540864835,body,540782036,1697621296,0.18957296013832092,0.03,0.5148043632507324,0.03,0.03,0.24161142110824585
1697621296550887130,body,550806861,1697621296,0.16266775131225586,0.03,0.5098704099655151,0.03,0.03,0.25039657950401306
1697621296560853060,body,560775481,1697621296,0.1380656659603119,0.03,0.44227445125579834,0.03,0.03,0.22674018144607544
1697621296570778633,body,570703975,1697621296,0.12150245904922485,0.03,0.3542846739292145,0.03,0.03,0.18642866611480713
1697621296580928910,body,580826801,1697621296,0.09613892436027527,0.03,0.3135334551334381,0.03,0.03,0.17602211236953735
1697621296590845722,body,590772812,1697621296,0.06621819734573364,0.03,0.2865179777145386,0.03,0.03,0.1735149323940277
1697621296600846144,body,600751866,1697621296,0.03,0.7061949968338013,0.03,0.03,0.03,0.03
1697621296610939546,body,610845767,1697621296,0.03,0.7351428866386414,0.03,0.05867999792098999,0.03,0.03
1697621296620800351,body,620735764,1697621296,0.03,0.7474443316459656,0.03,0.03206321597099304,0.03,0.03
1697621296630917781,body,630833776,1697621296,0.03,0.7802656888961792,0.03,0.03,0.03,0.03
1697621296640787134,body,640728150,1697621296,0.03,0.803206205368042,0.03,0.03,0.03,0.03772252798080444
1697621296650883526,body,650797708,1697621296,0.03,0.815943717956543,0.03,0.03,0.03,0.05336683988571167
1697621296660895597,body,660800175,1697621296,0.03,0.8224592208862305,0.03,0.03,0.03,0.04790043830871582
1697621296670865688,body,670775158,1697621296,0.03,0.8268305063247681,0.03,0.03,0.03,0.03858354687690735
1697621296680880708,body,680787048,1697621296,0.03,0.7965484857559204,0.03,0.03,0.03,0.03677213191986084
1697621296690896828,body,690785706,1697621296,0.03,0.795056939125061,0.03,0.03,0.03,0.03702971339225769
1697621296700866821,body,700786720,1697621296,0.03,0.770388126373291,0.03,0.03,0.03,0.03
1697621296710866821,body,710786498,1697621296,0.03,0.7180137038230896,0.03,0.03,0.03,0.03
1697621296720833657,body,720757682,1697621296,0.03,0.684806227684021,0.05501815676689148,0.03,0.03,0.03
1697621296730826630,body,730755755,1697621296,0.03,0.6309295892715454,0.08964952826499939,0.03,0.03,0.03
1697621296740862444,body,740784063,1697621296,0.03,0.5430296659469604,0.13570722937583923,0.03,0.03,0.03
1697621296750847879,body,750780872,1697621296,0.03,0.457871675491333,0.13757821917533875,0.03,0.03,0.03
1697621296760860931,body,760776127,1697621296,0.03,0.30375680327415466,0.15141567587852478,0.03,0.03,0.03
1697621296770858872,body,770785805,1697621296,0.03,0.09921841323375702,0.16966864466667175,0.03,0.04139101505279541,0.03
1697621296780839754,body,780765433,1697621296,0.03,0.03,0.18733318150043488,0.03,0.05350106954574585,0.03
1697621296790858318,body,790781492,1697621296,0.044071704149246216,0.03,0.20334136486053467,0.03,0.059069305658340454,0.03
1697621296800842721,body,800783404,1697621296,0.4500431418418884,0.03,0.03,0.2561997175216675,0.6265481114387512,0.03
1697621296810840849,body,810778430,1697621296,0.4809679090976715,0.03,0.03,0.25190970301628113,0.6225863695144653,0.03
1697621296820912212,body,820813319,1697621296,0.5121579170227051,0.03,0.03,0.24624398350715637,0.626859188079834,0.03
1697621296830807110,body,830731787,1697621296,0.5193694233894348,0.03,0.03,0.25945621728897095,0.6223350167274475,0.03
1697621296840897363,body,840803263,1697621296,0.5211237072944641,0.03,0.03,0.2620244026184082,0.6122934222221375,0.03
1697621296850833174,body,850780953,1697621296,0.5186899900436401,0.03,0.03,0.2430812120437622,0.5977938175201416,0.03
1697621296860890723,body,860784734,1697621296,0.5186834335327148,0.03,0.03,0.25663018226623535,0.575667142868042,0.03
1697621296870917664,body,870810662,1697621296,0.5267899036407471,0.03,0.03,0.2725914716720581,0.5616955757141113,0.03
1697621296880841767,body,880779362,1697621296,0.5307375192642212,0.03,0.03,0.283044695854187,0.5209084749221802,0.03
1697621296890797790,body,890742158,1697621296,0.5424575805664062,0.03,0.03,0.32191795110702515,0.48001158237457275,0.03
1697621296900935006,body,900805623,1697621296,0.5063166618347168,0.03,0.03,0.32024872303009033,0.4546765685081482,0.03
1697621296910897602,body,910782604,1697621296,0.46235817670822144,0.03,0.03,0.31474798917770386,0.3976619839668274,0.03
1697621296920882960,body,920801964,1697621296,0.4346523582935333,0.03,0.03,0.3234463930130005,0.3412700295448303,0.03
1697621296930867459,body,930784577,1697621296,0.39555785059928894,0.03,0.03,0.3678596615791321,0.2866421341896057,0.03
1697621296940871183,body,940789221,1697621296,0.35891517996788025,0.03,0.03,0.3936806917190552,0.20241162180900574,0.03
1697621296950888973,body,950795422,1697621296,0.3230513334274292,0.03,0.03,0.4083166718482971,0.11343885958194733,0.03
1697621296960850641,body,960784554,1697621296,0.2570883631706238,0.03,0.03,0.4434674382209778,0.09873209148645401,0.03
1697621296970875973,body,970789104,1697621296,0.171456441283226,0.03,0.03,0.4429490566253662,0.04423004388809204,0.03
1697621296980876201,body,980778860,1697621296,0.03782124072313309,0.03,0.03,0.4487442374229431,0.03,0.03
1697621296990833209,body,990769901,1697621296,0.03,0.04572993516921997,0.03,0.47088122367858887,0.03,0.03
1697621297000868626,body,789357,1697621297,0.03,0.3769189715385437,0.03,0.3870594799518585,0.4935319125652313,0.03
1697621297010829158,body,10766818,1697621297,0.03,0.41831445693969727,0.03,0.3884204626083374,0.4809839427471161,0.03
1697621297020846486,body,20778796,1697621297,0.03,0.44077903032302856,0.03,0.3700960576534271,0.46861767768859863,0.03
1697621297030816181,body,30742363,1697621297,0.03,0.4317748546600342,0.03,0.36810189485549927,0.48985573649406433,0.03
1697621297040841225,body,40775980,1697621297,0.03,0.4685938358306885,0.03,0.39905884861946106,0.5342639684677124,0.03
1697621297050817210,body,50763447,1697621297,0.03,0.47144538164138794,0.03,0.3991357684135437,0.5684603452682495,0.03
1697621297060970833,body,60880305,1697621297,0.03,0.4421621561050415,0.03,0.3561227023601532,0.5213342905044556,0.03
1697621297070858474,body,70779499,1697621297,0.03,0.4142497777938843,0.03,0.31247374415397644,0.46463796496391296,0.03
1697621297080836134,body,80764921,1697621297,0.03,0.35234129428863525,0.03,0.27125436067581177,0.42084944248199463,0.03
1697621297090812573,body,90733226,1697621297,0.03,0.2836654782295227,0.03,0.25542473793029785,0.39758536219596863,0.03
1697621297100860528,body,100780692,1697621297,0.03,0.15654650330543518,0.03,0.25423482060432434,0.38139498233795166,0.03
1697621297110896426,body,110807702,1697621297,0.03,0.07005433738231659,0.03,0.251596599817276,0.3612419068813324,0.03
1697621297120856049,body,120773868,1697621297,0.03,0.03,0.03,0.23509123921394348,0.33598238229751587,0.03
1697621297131137591,body,130880582,1697621297,0.03,0.03,0.03,0.23206311464309692,0.3260078430175781,0.03
1697621297140804654,body,140745152,1697621297,0.03,0.03,0.03,0.2308545708656311,0.31025248765945435,0.03
1697621297150841822,body,150780375,1697621297,0.03384150564670563,0.03,0.03,0.22108031809329987,0.28637540340423584,0.03
1697621297160855566,body,160785109,1697621297,0.06625713407993317,0.03,0.03,0.20648649334907532,0.2612308859825134,0.03
1697621297170827837,body,170763253,1697621297,0.06829680502414703,0.03,0.03,0.21509531140327454,0.2444010078907013,0.03
1697621297180844881,body,180784401,1697621297,0.07142244279384613,0.03,0.03,0.23622143268585205,0.23778456449508667,0.03
1697621297190891665,body,190814643,1697621297,0.08935116231441498,0.03,0.03,0.218439519405365,0.21151083707809448,0.03
1697621297200898730,body,200787983,1697621297,0.10704280436038971,0.03,0.03,0.22836166620254517,0.19673389196395874,0.03
1697621297210856325,body,210755169,1697621297,0.9945992231369019,0.03,0.03,0.03,0.03,0.19493794441223145
1697621297220979768,body,220786895,1697621297,1.0,0.03,0.03,0.03,0.03,0.2155548334121704
1697621297230863276,body,230800469,1697621297,1.0,0.03,0.03,0.05551442503929138,0.03,0.20835906267166138
1697621297240795295,body,240729378,1697621297,1.0,0.03,0.03,0.08837413787841797,0.03,0.20589172840118408
1697621297250892048,body,250784257,1697621297,1.0,0.03,0.03,0.12613657116889954,0.03,0.19374746084213257
1697621297260845965,body,260784060,1697621297,1.0,0.03,0.03,0.11431944370269775,0.03,0.21230125427246094
1697621297270865022,body,270801944,1697621297,1.0,0.03,0.03,0.09951525926589966,0.03,0.22113192081451416
1697621297280864505,body,280779278,1697621297,0.9811339974403381,0.03,0.03,0.10885536670684814,0.03,0.247353196144104
1697621297290875907,body,290767849,1697621297,0.9319634437561035,0.03,0.03,0.15356138348579407,0.03,0.25151896476745605
1697621297300857468,body,300779872,1697621297,0.809352695941925,0.03,0.03,0.20503774285316467,0.03,0.2272455096244812
1697621297310819947,body,310760649,1697621297,0.5542716979980469,0.03,0.03,0.23707041144371033,0.03,0.20604687929153442
1697621297320918323,body,320814361,1697621297,0.41398221254348755,0.03,0.03,0.2707846760749817,0.03,0.19646388292312622
1697621297330826465,body,330770404,1697621297,0.3306501805782318,0.03,0.03,0.31338977813720703,0.03,0.1836613416671753
1697621297340880301,body,340807658,1697621297,0.2552870810031891,0.03,0.03,0.34479665756225586,0.03,0.1640157699584961
1697621297350948470,body,350819675,1697621297,0.18651685118675232,0.03,0.03,0.3715131878852844,0.03,0.17933547496795654
1697621297360860809,body,360784120,1697621297,0.14019840955734253,0.03,0.03,0.39608365297317505,0.03,0.19351667165756226
1697621297370927067,body,370819103,1697621297,0.11740940809249878,0.03,0.03,0.4279148578643799,0.03,0.20353299379348755
1697621297380857087,body,380783346,1697621297,0.06095767021179199,0.03,0.03,0.4147849678993225,0.03,0.17974579334259033
1697621297390818895,body,390767597,1697621297,0.03373521566390991,0.03,0.03,0.4422542452812195,0.03,0.16475433111190796
1697621297400860487,body,400784278,1697621297,0.03,0.03,0.03,0.4483446478843689,0.03,0.1729203462600708
1697621297410840408,body,410775253,1697621297,0.03,1.0,0.03,0.49618518352508545,0.03,1.0
1697621297420874242,body,420788546,1697621297,0.03,1.0,0.03,0.5078437328338623,0.03,1.0
1697621297430848329,body,430786055,1697621297,0.03,1.0,0.03,0.3324621915817261,0.03,1.0
1697621297440840971,body,440770355,1697621297,0.03,1.0,0.03,0.3197859227657318,0.03,1.0
1697621297450864233,body,450795763,1697621297,0.03,0.9906550645828247,0.03,0.30680856108665466,0.03,1.0
1697621297460818335,body,460771182,1697621297,0.03,0.9176138639450073,0.03,0.29256030917167664,0.03,1.0
1697621297470835955,body,470772724,1697621297,0.03,0.8824225664138794,0.03,0.30241742730140686,0.03,1.0
1697621297480923882,body,480811748,1697621297,0.03,0.8964496850967407,0.03,0.30225956439971924,0.03,0.8407577872276306
1697621297490811970,body,490752834,1697621297,0.03,0.8776981830596924,0.03,0.2308346927165985,0.03,0.7572495937347412
1697621297500933172,body,500815242,1697621297,0.03,0.8159565329551697,0.03,0.1447056531906128,0.03,0.7317805886268616
1697621297510968606,body,510882713,1697621297,0.03,0.6548494696617126,0.03,0.0342877060174942,0.03,0.6731350421905518
1697621297520816949,body,520738526,1697621297,0.03,0.40736109018325806,0.053845591843128204,0.03,0.03,0.5869910717010498
1697621297530847484,body,530778232,1697621297,0.03,0.28480467200279236,0.1849699318408966,0.03,0.03,0.4945300817489624
1697621297540883946,body,540798591,1697621297,0.03,0.17167237401008606,0.29420599341392517,0.03,0.03,0.40488043427467346
1697621297550805473,body,550737914,1697621297,0.03,0.08473089337348938,0.36713194847106934,0.03,0.03,0.3457286059856415
1697621297560847385,body,560765676,1697621297,0.03,0.03,0.42840585112571716,0.03,0.03,0.2969713509082794
1697621297570851152,body,570779706,1697621297,0.07077819108963013,0.03,0.4774344861507416,0.03,0.03,0.26443785429000854
1697621297580832784,body,580771143,1697621297,0.13012802600860596,0.03,0.5157860517501831,0.03,0.03,0.25395625829696655
1697621297590913898,body,590795826,1697621297,0.17349302768707275,0.03,0.5725499391555786,0.03,0.03,0.2515642046928406
1697621297600860771,body,600784464,1697621297,0.18438923358917236,0.03,0.5848067998886108,0.03,0.03,0.2585430145263672
1697621297610921557,body,610794851,1697621297,0.22238507866859436,0.03,0.03,0.3660954236984253,0.8808917999267578,0.03
1697621297620884694,body,620820664,1697621297,0.24501833319664001,0.03,0.03,0.39079177379608154,0.8782123327255249,0.03
1697621297630952253,body,630830561,1697621297,0.23548254370689392,0.03,0.03,0.438959538936615,0.8535694479942322,0.03
1697621297640886053,body,640787008,1697621297,0.24144116044044495,0.03,0.03,0.4458049535751343,0.8348468542098999,0.03
1697621297650846703,body,650788136,1697621297,0.2517416179180145,0.03,0.03,0.49465739727020264,0.8016127347946167,0.03
1697621297660833839,body,660769481,1697621297,0.27201804518699646,0.03,0.03,0.5432121753692627,0.7271727323532104,0.03
1697621297670925296,body,670832239,1697621297,0.2938176691532135,0.03,0.03,0.5072146654129028,0.6519843935966492,0.03
1697621297680878371,body,680784373,1697621297,0.31020215153694153,0.03,0.03,0.47549569606781006,0.5111742615699768,0.03
1697621297690844879,body,690764472,1697621297,0.3209649622440338,0.03,0.03,0.4587966501712799,0.3559368848800659,0.03
1697621297700844238,body,700773649,1697621297,0.3294220268726349,0.03,0.03,0.41536080837249756,0.25435131788253784,0.03
1697621297710839158,body,710736752,1697621297,0.2963516414165497,0.03,0.03,0.388702929019928,0.1865251064300537,0.03
1697621297720838011,body,720771834,1697621297,0.25870481133461,0.03,0.03,0.3494400382041931,0.15816277265548706,0.03
1697621297730858752,body,730776581,1697621297,0.21898213028907776,0.03,0.03,0.3303563892841339,0.12432435154914856,0.03
1697621297740837689,body,740766895,1697621297,0.23159542679786682,0.03,0.03,0.35208702087402344,0.03599551320075989,0.03
1697621297750848879,body,750783396,1697621297,0.2585892379283905,0.03,0.03,0.3077123165130615,0.03,0.03
1697621297760836517,body,760780187,1697621297,0.25176092982292175,0.03,0.03,0.17893272638320923,0.03,0.1167013943195343
1697621297770861608,body,770785517,1697621297,0.18503960967063904,0.03,0.03,0.10425332188606262,0.03,0.14309993386268616
1697621297780866263,body,780795624,1697621297,0.11711916327476501,0.03,0.03,0.07903218269348145,0.03,0.09912940859794617
1697621297790828986,body,790766726,1697621297,0.08479657769203186,0.03,0.03,0.08113804459571838,0.03,0.08375516533851624
1697621297800819327,body,800726436,1697621297,0.06427571177482605,0.03,0.03,0.07338911294937134,0.03,0.0588516891002655
1697621297810852254,body,810790684,1697621297,0.056893497705459595,0.03,0.03,0.06323951482772827,0.03,0.053152769804000854
1697621297820865051,body,820780366,1697621297,0.03,0.11193615198135376,0.39169371128082275,0.03,0.03,1.0
1697621297830847096,body,830769285,1697621297,0.03,0.14770326018333435,0.4248620271682739,0.03,0.03,1.0
1697621297840877079,body,840792664,1697621297,0.03,0.18736481666564941,0.4560704231262207,0.03,0.03,1.0
1697621297850955981,body,850813329,1697621297,0.03,0.22238090634346008,0.4866265654563904,0.03,0.03,1.0
1697621297860928764,body,860804639,1697621297,0.03,0.2615763545036316,0.5062984824180603,0.03,0.03,1.0
1697621297870852654,body,870789655,1697621297,0.03,0.2932365834712982,0.5229783654212952,0.03,0.03,1.0
1697621297880842082,body,880777784,1697621297,0.03,0.3392575979232788,0.5471732020378113,0.03,0.03,1.0
1697621297890788197,body,890722537,1697621297,0.03,0.4127081334590912,0.5513939261436462,0.03,0.03,0.9324333071708679
1697621297900871603,body,900790729,1697621297,0.03,0.5231567025184631,0.5600022077560425,0.03,0.03,0.8086617588996887
1697621297910860922,body,910775326,1697621297,0.03,0.6063807606697083,0.5753808617591858,0.03,0.03,0.6618887782096863
1697621297920798370,body,920729967,1697621297,0.03,0.653229832649231,0.5884128212928772,0.03,0.03,0.43054983019828796
1697621297930861512,body,930800181,1697621297,0.03,0.6328186392784119,0.5737378001213074,0.03,0.03,0.27855560183525085
1697621297940849803,body,940779406,1697621297,0.03,0.5541910529136658,0.5307351350784302,0.03,0.03,0.16045278310775757
1697621297950819351,body,950765397,1697621297,0.03,0.47336435317993164,0.49035167694091797,0.03,0.03,0.07147735357284546
1697621297960850470,body,960784041,1697621297,0.03,0.5440807342529297,0.5145577788352966,0.03,0.0436362624168396,0.03
1697621297970822561,body,970766096,1697621297,0.03,0.563227117061615,0.5309106111526489,0.03,0.12282121181488037,0.03
1697621297980833624,body,980774959,1697621297,0.03,0.4844547212123871,0.5427476167678833,0.03,0.15652590990066528,0.03
1697621297990862051,body,990805103,1697621297,0.03,0.3382342457771301,0.523591160774231,0.03,0.18172615766525269,0.03
1697621298000794459,body,730940,1697621298,0.03,0.2293594777584076,0.46363967657089233,0.03,0.1956925392150879,0.03
1697621298010830723,body,10779441,1697621298,0.03,0.13406291604042053,0.37613874673843384,0.03,0.20923370122909546,0.03
1697621298020901702,body,20789038,1697621298,0.03,0.11945265531539917,1.0,0.03,0.34032949805259705,0.03
1697621298030835438,body,30776120,1697621298,0.03,0.058949947357177734,1.0,0.03,0.3137229382991791,0.03
1697621298040842648,body,40772427,1697621298,0.03,0.03,1.0,0.03,0.3043353259563446,0.03
1697621298050892311,body,50797267,1697621298,0.03,0.03,1.0,0.03,0.2894149720668793,0.03
1697621298060983098,body,60843881,1697621298,0.03922677040100098,0.03,1.0,0.03,0.24726775288581848,0.03
1697621298070863012,body,70767258,1697621298,0.07637810707092285,0.03,1.0,0.03,0.23028603196144104,0.03
1697621298080840602,body,80779576,1697621298,0.10181373357772827,0.03,0.9609755277633667,0.03,0.18323013186454773,0.03
1697621298090861031,body,90800902,1697621298,0.1390811800956726,0.03,0.7453619837760925,0.03,0.0804203450679779,0.03
1697621298100886809,body,100790275,1697621298,0.19889169931411743,0.03,0.6676825881004333,0.03,0.03,0.03
1697621298110835505,body,110771685,1697621298,0.21868830919265747,0.03,0.5215335488319397,0.03,0.03,0.04659038782119751
1697621298120871680,body,120797622,1697621298,0.21759963035583496,0.03,0.42985913157463074,0.03,0.03,0.06874370574951172
1697621298130841852,body,130779811,1697621298,0.2125040888786316,0.03,0.354799747467041,0.03,0.03,0.09733846783638
1697621298140863632,body,140787559,1697621298,0.1803739070892334,0.03,0.26683950424194336,0.03,0.03,0.0598163902759552
1697621298150883233,body,150794832,1697621298,0.19381648302078247,0.03,0.20132046937942505,0.03,0.03,0.03763964772224426
1697621298160808208,body,160740727,1697621298,0.19392609596252441,0.03,0.14423632621765137,0.03,0.03,0.04427057504653931
1697621298170843498,body,170779753,1697621298,0.18872743844985962,0.03,0.12618178129196167,0.03,0.03,0.15662264823913574
1697621298180988874,body,180865146,1697621298,0.1914176344871521,0.03,0.13379299640655518,0.03,0.03,0.2482929527759552
1697621298190853441,body,190777998,1697621298,0.18412506580352783,0.03,0.12460452318191528,0.03,0.03,0.2915177345275879
1697621298200855661,body,200782668,1697621298,0.18508672714233398,0.03,0.12514454126358032,0.03,0.03,0.27348148822784424
1697621298210823394,body,210751007,1697621298,0.181271493434906,0.03,0.09012347459793091,0.03,0.03,0.32832610607147217
1697621298220865047,body,220800927,1697621298,0.845594584941864,0.03,0.03,0.15999937057495117,0.25281012058258057,0.03
1697621298230881559,body,230806120,1697621298,0.8589807748794556,0.03,0.03,0.17829203605651855,0.31945401430130005,0.03
1697621298240827971,body,240778361,1697621298,0.8648556470870972,0.03,0.03,0.18393558263778687,0.3166419267654419,0.03
1697621298250868451,body,250787189,1697621298,0.8669009208679199,0.03,0.03,0.18124032020568848,0.2937011122703552,0.03
1697621298260874989,body,260776732,1697621298,0.8786978125572205,0.03,0.03,0.17731547355651855,0.26761120557785034,0.03
1697621298270876236,body,270781395,1697621298,0.8745270371437073,0.03,0.03,0.20283478498458862,0.2689830958843231,0.03
1697621298280947228,body,280846868,1697621298,0.8508661985397339,0.03,0.03,0.21183764934539795,0.3005974292755127,0.03
1697621298290879222,body,290781913,1697621298,0.8279231786727905,0.03,0.03,0.22722411155700684,0.3332594633102417,0.03
1697621298300848874,body,300779981,1697621298,0.7852617502212524,0.03,0.03,0.2615664601325989,0.31366902589797974,0.03
1697621298310953467,body,310815931,1697621298,0.7232517600059509,0.03,0.03,0.2726339101791382,0.39814233779907227,0.03
1697621298320862594,body,320776821,1697621298,0.6846749186515808,0.03,0.03,0.2880258560180664,0.43880271911621094,0.03
1697621298330888460,body,330808987,1697621298,0.5593034029006958,0.03,0.03,0.3160923719406128,0.505008339881897,0.03
1697621298340897002,body,340801155,1697621298,0.46351003646850586,0.03,0.03,0.3272863030433655,0.5029631853103638,0.03
1697621298350837214,body,350789721,1697621298,0.36548370122909546,0.03,0.03,0.3447861075401306,0.5484436750411987,0.03
1697621298360788001,body,360729107,1697621298,0.31115394830703735,0.03,0.03,0.36747080087661743,0.5640778541564941,0.03
1697621298370890627,body,370803407,1697621298,0.03,0.03937964513897896,0.03,0.41189873218536377,0.6541433334350586,0.03
1697621298380900577,body,380805274,1697621298,0.03,0.26806339621543884,0.03,0.42373186349868774,0.7173024415969849,0.03
1697621298390815849,body,390756271,1697621298,0.03,0.3646145761013031,0.03,0.427420437335968,0.5469051599502563,0.03
1697621298400833894,body,400761872,1697621298,0.03,0.4988926947116852,0.03,0.427420437335968,0.5559411644935608,0.03
1697621298410817842,body,410756384,1697621298,0.03,0.6245805621147156,0.03,0.4184170365333557,0.779382586479187,0.03
1697621298420881580,body,420809558,1697621298,0.03,1.0,0.03,0.712734580039978,0.6424947381019592,0.03
1697621298430925032,body,430822590,1697621298,0.03,1.0,0.03,0.6664115190505981,0.6169861555099487,0.03
1697621298440866095,body,440784851,1697621298,0.03,1.0,0.03,0.6292266845703125,0.59185391664505,0.03
1697621298450843437,body,450767932,1697621298,0.03,1.0,0.03,0.5761016607284546,0.544154167175293,0.03
1697621298460853027,body,460788845,1697621298,0.03,1.0,0.03,0.453445702791214,0.2954423129558563,0.03
1697621298470862873,body,470734588,1697621298,0.03,1.0,0.03,0.4246995151042938,0.22620950639247894,0.03
1697621298480811425,body,480725923,1697621298,0.03,1.0,0.03,0.367326945066452,0.19051848351955414,0.03
1697621298490859775,body,490786709,1697621298,0.03,1.0,0.03,0.35329559445381165,0.1586766242980957,0.03
1697621298500987197,body,500811575,1697621298,0.03,1.0,0.03,0.31167367100715637,0.26840901374816895,0.03
1697621298510875327,body,510783206,1697621298,0.03,1.0,0.03,0.21040073037147522,0.11590693891048431,0.03
1697621298520854059,body,520782621,1697621298,0.03,1.0,0.03,0.10317215323448181,0.03,0.10504920780658722
1697621298530859564,body,530777114,1697621298,0.03,1.0,0.03,0.03,0.03,0.18119001388549805
1697621298540867208,body,540791001,1697621298,0.03,0.9932147264480591,0.03,0.03,0.03,0.154707670211792
1697621298550905737,body,550822027,1697621298,0.03,0.9005564451217651,0.12092674523591995,0.03,0.03,0.1644333302974701
1697621298560790480,body,560715163,1697621298,0.03,0.8200680613517761,0.312435507774353,0.03,0.03,0.17824584245681763
1697621298570896254,body,570813397,1697621298,0.03,0.762092649936676,0.3837549686431885,0.03,0.03,0.1111341267824173
1697621298580868693,body,580797662,1697621298,0.03,0.6971113681793213,0.38864052295684814,0.03,0.03,0.03827035054564476
1697621298590867455,body,590799134,1697621298,0.03,0.6125268936157227,0.36152875423431396,0.03,0.07019534707069397,0.03
1697621298601046204,body,600918493,1697621298,0.03,0.46792712807655334,0.3824382424354553,0.03,0.1409735530614853,0.03
1697621298610774261,body,610722843,1697621298,0.03,0.21903730928897858,0.4597097635269165,0.03,0.09733454883098602,0.03
1697621298620803378,body,620741495,1697621298,0.03,0.10963311791419983,0.5173619389533997,0.03,0.06301946938037872,0.03
1697621298631024355,body,630833547,1697621298,0.27926456928253174,0.03,1.0,0.03,0.03,0.3306748867034912
1697621298640883177,body,640791138,1697621298,0.33452412486076355,0.03,1.0,0.03,0.03,0.3178011476993561
1697621298650850639,body,650783361,1697621298,0.3787779211997986,0.03,1.0,0.03,0.03,0.2994897961616516
1697621298660929473,body,660820578,1697621298,0.37071412801742554,0.03,1.0,0.03,0.03,0.2992623448371887
1697621298670866981,body,670792397,1697621298,0.3941320478916168,0.03,1.0,0.03,0.03,0.2816809415817261
1697621298680869077,body,680787348,1697621298,0.41011950373649597,0.03,1.0,0.03,0.03,0.32735350728034973
1697621298690876488,body,690783733,1697621298,0.4254482090473175,0.03,1.0,0.03,0.03,0.36937451362609863
1697621298700899116,body,700783699,1697621298,0.43886515498161316,0.03,0.9670500755310059,0.03,0.03,0.37734177708625793
1697621298710845210,body,710777477,1697621298,0.4238956570625305,0.03,0.9122302532196045,0.03,0.03,0.4380052089691162
1697621298720870025,body,720787907,1697621298,0.4199184477329254,0.03,0.8096137642860413,0.03,0.03,0.47812026739120483
1697621298730833989,body,730770864,1697621298,0.41820427775382996,0.03,0.6371797919273376,0.03,0.03,0.4788707494735718
1697621298740829200,body,740753874,1697621298,0.4120277464389801,0.03,0.512799859046936,0.03,0.03,0.49057847261428833
1697621298751003216,body,750816802,1697621298,0.38851118087768555,0.03,0.40793663263320923,0.03,0.03,0.47029876708984375
1697621298760922609,body,760815325,1697621298,0.37466633319854736,0.03,0.33995115756988525,0.03,0.03,0.45788413286209106
1697621298770806532,body,770727811,1697621298,0.3348443806171417,0.03,0.241405189037323,0.03,0.03,0.40693771839141846
1697621298780822570,body,780730206,1697621298,0.27584344148635864,0.03,0.1583757996559143,0.03,0.03,0.34305670857429504
1697621298790859004,body,790789589,1697621298,0.22206807136535645,0.03,0.09744477272033691,0.03,0.03,0.25030410289764404
1697621298800788617,body,800727021,1697621298,0.16300618648529053,0.03,0.0708056092262268,0.03,0.03,0.24683591723442078
1697621298810839219,body,810778091,1697621298,0.04541818052530289,0.03,0.07725691795349121,0.03,0.03,0.2812526226043701
1697621298820865372,body,820785068,1697621298,0.03,0.22412532567977905,0.03,0.03,0.03,0.10069368779659271
1697621298830871081,body,830783677,1697621298,0.03,0.3284667134284973,0.03,0.09734004735946655,0.033627092838287354,0.03
1697621298840805640,body,840718740,1697621298,0.03612139821052551,0.03,0.03,0.8360788822174072,0.8656353950500488,0.03
1697621298850845889,body,850776700,1697621298,0.03,0.03,0.03,0.8444015979766846,0.9038500189781189,0.03
1697621298860875642,body,860796278,1697621298,0.03,0.04618057608604431,0.03,0.8305532932281494,0.9133864641189575,0.03
1697621298870862597,body,870792593,1697621298,0.03,0.08978399634361267,0.03,0.8265582323074341,0.9378833770751953,0.03
1697621298880853315,body,880766192,1697621298,0.03,0.1123267114162445,0.03,0.8074667453765869,0.9627962112426758,0.03
1697621298890847554,body,890782834,1697621298,0.03,0.15218237042427063,0.03,0.7997686266899109,0.9911564588546753,0.03
1697621298900891883,body,900771193,1697621298,0.03,0.19203242659568787,0.03,0.7784512639045715,1.0,0.03
1697621298910879151,body,910799910,1697621298,0.03,0.23207345604896545,0.03,0.755506694316864,1.0,0.03
1697621298920855972,body,920791891,1697621298,0.03,0.2695220410823822,0.03,0.7281892895698547,1.0,0.03
1697621298930819095,body,930756401,1697621298,0.03,0.3046015799045563,0.03,0.6891541481018066,1.0,0.03
1697621298940874293,body,940793001,1697621298,0.03,0.34120407700538635,0.03,0.6476354598999023,0.9999279975891113,0.03
1697621298950861541,body,950797122,1697621298,0.03,0.3756893575191498,0.03,0.6021089553833008,0.9551050662994385,0.03
1697621298960901638,body,960794880,1697621298,0.03,0.39623913168907166,0.03,0.5516411066055298,0.8797153234481812,0.03
1697621298970845616,body,970778475,1697621298,0.03,0.4231472909450531,0.03,0.5090336203575134,0.8104839324951172,0.03
1697621298980990858,body,980885549,1697621298,0.03,0.43936237692832947,0.03,0.46359097957611084,0.6928168535232544,0.03
1697621298990911268,body,990801396,1697621298,0.03,0.44332221150398254,0.03,0.4148291349411011,0.5328845977783203,0.03
1697621299000851845,body,789199,1697621299,0.03,0.4725085198879242,0.03,0.36483168601989746,0.296031653881073,0.03
1697621299010860057,body,10790862,1697621299,0.03,0.46549031138420105,0.03,0.32053542137145996,0.15008994936943054,0.03
1697621299020831452,body,20769105,1697621299,0.03,0.44750651717185974,0.03,0.29533565044403076,0.04679623246192932,0.03
1697621299030802647,body,30737600,1697621299,0.03,0.4187670052051544,0.03,0.28721871972084045,0.03,0.03
1697621299040873584,body,40775892,1697621299,0.03,0.9814857244491577,0.3257084786891937,0.03,0.03,0.8839361667633057
1697621299050859488,body,50799599,1697621299,0.03,0.9668440818786621,0.3471875786781311,0.03,0.03,0.9658386707305908
1697621299060852466,body,60761380,1697621299,0.03,0.93723464012146,0.42964309453964233,0.03,0.03,1.0
1697621299070876674,body,70771156,1697621299,0.03,0.8916594982147217,0.4549197554588318,0.03,0.03,1.0
1697621299080984582,body,80855561,1697621299,0.03,0.640998899936676,0.8935294151306152,0.03,0.03,0.98780357837677
1697621299090867427,body,90780876,1697621299,0.03,0.5617148876190186,0.8692798614501953,0.03,0.03,0.9978810548782349
1697621299100850376,body,100772248,1697621299,0.03,0.46236029267311096,0.8840994238853455,0.03,0.03,0.9981160163879395
1697621299110955847,body,110850549,1697621299,0.03,0.3344983756542206,0.8974024057388306,0.03,0.03,0.9989824295043945
1697621299120836740,body,120766475,1697621299,0.03,0.24250850081443787,0.9234614372253418,0.03,0.03,0.9834716320037842
1697621299130850855,body,130782900,1697621299,0.03,0.04077564924955368,0.9373060464859009,0.03,0.03,0.9244019985198975
1697621299140970884,body,140810253,1697621299,0.04154345393180847,0.03,0.928740382194519,0.03,0.03,0.8549164533615112
1697621299150850538,body,150764438,1697621299,0.09800872206687927,0.03,0.9215823411941528,0.03,0.03,0.7878783345222473
1697621299160824661,body,160755281,1697621299,0.13951808214187622,0.03,0.9097081422805786,0.03,0.03,0.7253223657608032
1697621299170842343,body,170780954,1697621299,0.16372427344322205,0.03,0.8868131637573242,0.03,0.03,0.6513875126838684
1697621299180851399,body,180772824,1697621299,0.18310397863388062,0.03,0.8518372774124146,0.03,0.03,0.5646568536758423
1697621299190790749,body,190711871,1697621299,0.2059311866760254,0.03,0.8270350098609924,0.03,0.03,0.460655152797699
1697621299200850751,body,200792687,1697621299,0.21297350525856018,0.03,0.7568777799606323,0.03,0.03,0.35476595163345337
1697621299210875720,body,210800870,1697621299,0.21134883165359497,0.03,0.6463449597358704,0.03,0.03,0.23208028078079224
1697621299220898544,body,220799143,1697621299,0.20774835348129272,0.03,0.5321053266525269,0.03,0.03,0.15646405518054962
1697621299230836128,body,230758926,1697621299,0.1892947256565094,0.03,0.4486141800880432,0.03,0.03,0.1154833436012268
1697621299240831140,body,240750523,1697621299,0.17600449919700623,0.03,0.38434460759162903,0.03,0.03,0.06912904977798462
1697621299250881690,body,250807624,1697621299,0.08203044533729553,0.03,0.1940116584300995,0.03,0.9804277420043945,0.03
1697621299260880019,body,260800494,1697621299,0.050363510847091675,0.03,0.1327921450138092,0.03,0.999721348285675,0.03
1697621299270842756,body,270770375,1697621299,0.03,0.03,0.08555835485458374,0.03,1.0,0.03
1697621299280902221,body,280796783,1697621299,0.03,0.03,0.04592040181159973,0.03,1.0,0.03
1697621299290853500,body,290776771,1697621299,0.03,0.07434403896331787,0.03,0.03,1.0,0.03
1697621299301027071,body,300879927,1697621299,0.03,0.13359495997428894,0.03,0.03,1.0,0.03
1697621299310895396,body,310793784,1697621299,0.03,0.23878823220729828,0.03,0.03516882658004761,1.0,0.03
1697621299320846270,body,320766592,1697621299,0.03,0.3615800142288208,0.03,0.052166104316711426,1.0,0.03
1697621299330926111,body,330809434,1697621299,0.03,0.4284430146217346,0.03,0.062026798725128174,1.0,0.03
1697621299340876530,body,340799023,1697621299,0.03,0.4880931079387665,0.03,0.08047658205032349,1.0,0.03
1697621299350869655,body,350790970,1697621299,0.03,0.5457921028137207,0.03,0.10109037160873413,1.0,0.03
1697621299360792717,body,360731856,1697621299,0.03,0.599834680557251,0.03,0.11669790744781494,0.9682570099830627,0.03
1697621299370850979,body,370791227,1697621299,0.03,0.6301578283309937,0.03,0.13105356693267822,0.9061691761016846,0.03
1697621299380888447,body,380831967,1697621299,0.03,0.6344994306564331,0.03,0.16012150049209595,0.5913795232772827,0.03
1697621299390869341,body,390780256,1697621299,0.03,0.6399064064025879,0.03,0.17825675010681152,0.5026256442070007,0.03
1697621299400913035,body,400817602,1697621299,0.03,0.7296935319900513,0.03,0.18254941701889038,0.6830492615699768,0.03
1697621299410848180,body,410782453,1697621299,0.03,0.7690267562866211,0.03,0.20420318841934204,0.634204089641571,0.03
1697621299420842381,body,420769710,1697621299,0.03,0.7843053340911865,0.03,0.20892006158828735,0.5284576416015625,0.03
1697621299431035077,body,430894111,1697621299,0.03,0.7707175612449646,0.03,0.24054956436157227,0.4088113307952881,0.03
1697621299440870965,body,440782399,1697621299,0.03,0.7694087028503418,0.03,0.2607482671737671,0.3890508711338043,0.03
1697621299450818542,body,450744598,1697621299,0.03,0.7730298042297363,0.03,0.2834639549255371,0.3670072555541992,0.03
1697621299461027284,body,460926411,1697621299,0.03,1.0,0.03,0.041330814361572266,0.03,0.23846131563186646
1697621299470831565,body,470749883,1697621299,0.03,1.0,0.03,0.031473755836486816,0.03,0.2182292938232422
1697621299480860756,body,480794038,1697621299,0.03,1.0,0.03,0.03,0.03,0.22115761041641235
1697621299490806991,body,490722244,1697621299,0.03,1.0,0.052396178245544434,0.03,0.03,0.22001254558563232
1697621299500814007,body,500754577,1697621299,0.03,1.0,0.08352464437484741,0.03,0.03,0.23813486099243164
1697621299510836738,body,510766540,1697621299,0.03,1.0,0.08762586116790771,0.03,0.03,0.23481282591819763
1697621299520825292,body,520730325,1697621299,0.03,1.0,0.09814441204071045,0.03,0.03,0.2243574857711792
1697621299531042524,body,530926374,1697621299,0.03,1.0,0.09595292806625366,0.03,0.03,0.18223005533218384
1697621299540856004,body,540756530,1697621299,0.03,0.965386152267456,0.09765523672103882,0.03,0.03,0.1110934391617775
1697621299550904858,body,550792222,1697621299,0.03,0.8826972842216492,0.10528677701950073,0.03,0.03,0.03299122303724289
1697621299560864350,body,560789086,1697621299,0.03,0.7372353672981262,0.11339020729064941,0.03,0.11022380739450455,0.03
1697621299570874049,body,570796748,1697621299,0.03,0.49019095301628113,0.1283038854598999,0.03,0.15712270140647888,0.03
1697621299580857478,body,580783753,1697621299,0.03,0.3786679208278656,0.15472263097763062,0.03,0.18691101670265198,0.03
1697621299590882108,body,590783643,1697621299,0.03,0.2977529764175415,0.1738893985748291,0.03,0.20710286498069763,0.03
1697621299600850284,body,600732141,1697621299,0.03,0.2273140549659729,0.19752180576324463,0.03,0.20684486627578735,0.03
1697621299610815287,body,610720800,1697621299,0.03,0.17151731252670288,0.22084292769432068,0.03,0.20248740911483765,0.03
1697621299620905915,body,620791106,1697621299,0.03,0.11752253770828247,0.2369435429573059,0.03,0.2066357433795929,0.03
1697621299630897923,body,630781446,1697621299,0.03,0.09337329864501953,0.25632765889167786,0.03,0.2010393738746643,0.03
1697621299640824287,body,640732241,1697621299,0.03,0.06977272033691406,0.255981981754303,0.03,0.20731917023658752,0.03
1697621299650875375,body,650794953,1697621299,0.03,0.047749102115631104,0.2499483823776245,0.03,0.2139313519001007,0.03
1697621299660822846,body,660733835,1697621299,0.03,0.03685671091079712,0.2353171408176422,0.03,0.19951876997947693,0.03
1697621299670876137,body,670807248,1697621299,0.03,0.03,0.03,0.9719833135604858,0.3969653248786926,0.03
1697621299680832139,body,680784059,1697621299,0.03,0.03,0.03,0.9632542133331299,0.3605959415435791,0.03
1697621299690862337,body,690790261,1697621299,0.03,0.03,0.03,0.9908175468444824,0.31970739364624023,0.03
1697621299700856064,body,700786094,1697621299,0.03,0.03,0.03,1.0,0.337119996547699,0.03
1697621299710863418,body,710777704,1697621299,0.03,0.03,0.03,1.0,0.3152417242527008,0.03
1697621299720874385,body,720791017,1697621299,0.03,0.03,0.03,1.0,0.25409024953842163,0.03
1697621299730830835,body,730763481,1697621299,0.03,0.03,0.03,1.0,0.19332164525985718,0.03
1697621299740873602,body,740789646,1697621299,0.03,0.03,0.03,1.0,0.13389235734939575,0.03
1697621299750881276,body,750803414,1697621299,0.03,0.03,0.03,1.0,0.09368100762367249,0.03
1697621299760874978,body,760783564,1697621299,0.03,0.03,0.03,0.9974620342254639,0.04705218970775604,0.03
1697621299770881650,body,770792104,1697621299,0.03952169418334961,0.03,0.03,0.9582257866859436,0.03,0.03
1697621299780872175,body,780784682,1697621299,0.058356642723083496,0.03,0.03,0.8811362981796265,0.03,0.04048341512680054
1697621299790924735,body,790815784,1697621299,0.07374650239944458,0.03,0.03,0.7970524430274963,0.03,0.07969912886619568
1697621299800916352,body,800829998,1697621299,0.08097207546234131,0.03,0.03,0.6310403347015381,0.03,0.11335092782974243
1697621299810920390,body,810807351,1697621299,0.094821035861969,0.03,0.03,0.4088936150074005,0.03,0.14080414175987244
1697621299820854757,body,820786279,1697621299,0.10647618770599365,0.03,0.03,0.24065807461738586,0.03,0.16391265392303467
1697621299830896690,body,830801313,1697621299,0.1198035478591919,0.03,0.03,0.11308500170707703,0.03,0.18213704228401184
1697621299840811719,body,840734046,1697621299,0.11928564310073853,0.03,0.03,0.03,0.03,0.1970059871673584
1697621299850847876,body,850757280,1697621299,0.11573910713195801,0.03,0.06689980626106262,0.03,0.03,0.2131950855255127
1697621299860873084,body,860791756,1697621299,0.10724788904190063,0.03,0.1457582414150238,0.03,0.03,0.22745463252067566
1697621299870840332,body,870770143,1697621299,0.07695877552032471,0.03,0.2233475148677826,0.03,0.03,0.22232353687286377
1697621299880803324,body,880736012,1697621299,1.0,0.03,0.5288299322128296,0.03,0.03,1.0
1697621299890865380,body,890776475,1697621299,1.0,0.03,0.5758755207061768,0.03,0.03,1.0
1697621299900849242,body,900780721,1697621299,1.0,0.03,0.6061012744903564,0.03,0.03,1.0
1697621299910960499,body,910866563,1697621299,1.0,0.03,0.6267975568771362,0.03,0.03,1.0
1697621299920854785,body,920777758,1697621299,1.0,0.03,0.6887589693069458,0.03,0.03,1.0
1697621299930854545,body,930742361,1697621299,1.0,0.03,0.7226115465164185,0.03,0.03,1.0
1697621299940875306,body,940789957,1697621299,0.9342143535614014,0.03,0.7188549041748047,0.03,0.03,0.8484429717063904
1697621299950878080,body,950789064,1697621299,0.7903972268104553,0.03,0.7071002721786499,0.03,0.03,0.6735357046127319
1697621299960853204,body,960772639,1697621299,0.5871697068214417,0.03,0.6992310285568237,0.03,0.03,0.4965915083885193
1697621299970837267,body,970769628,1697621299,0.3866627812385559,0.03,0.6895397901535034,0.03,0.03,0.41175538301467896
1697621299980857475,body,980774350,1697621299,0.2651502192020416,0.03,0.6494141817092896,0.03,0.03,0.24629229307174683
1697621299990910594,body,990807490,1697621299,0.1657983660697937,0.03,0.58756422996521,0.03,0.03,0.1852157711982727
1697621300000864393,body,788087,1697621300,0.10103321075439453,0.03,0.5248626470565796,0.03,0.03,0.1085745096206665
1697621300010929846,body,10806143,1697621300,0.05912494659423828,0.03,0.44834139943122864,0.03,0.03,0.036540985107421875
1697621300020833563,body,20728559,1697621300,0.03,0.03,0.37183740735054016,0.03,0.03,0.03
1697621300030902955,body,30803361,1697621300,0.03,0.03,0.31920453906059265,0.03,0.03,0.03
1697621300040909836,body,40801657,1697621300,0.03,0.03540205955505371,0.28147223591804504,0.03,0.03,0.03
1697621300050859159,body,50795993,1697621300,0.03,0.06257307529449463,0.2400604784488678,0.03,0.03,0.03
1697621300060861092,body,60790344,1697621300,0.03,0.09057420492172241,0.21046414971351624,0.03,0.03,0.03
1697621300070907444,body,70786507,1697621300,0.03,0.11563646793365479,0.1672278642654419,0.03,0.03,0.03
1697621300080870252,body,80779418,1697621300,0.03,1.0,0.2952580153942108,0.03,0.03489410877227783,0.03
1697621300090848034,body,90786771,1697621300,0.03,1.0,0.24301132559776306,0.03,0.08773338794708252,0.03
1697621300100907541,body,100814600,1697621300,0.03,1.0,0.19121569395065308,0.03,0.13069915771484375,0.03
1697621300110802611,body,110744798,1697621300,0.03,1.0,0.18510809540748596,0.03,0.11632782220840454,0.03
1697621300120857949,body,120780151,1697621300,0.03,1.0,0.18759790062904358,0.03,0.14637768268585205,0.03
1697621300130849352,body,130778034,1697621300,0.03,1.0,0.19763624668121338,0.03,0.12662911415100098,0.03
1697621300140859133,body,140783949,1697621300,0.03,1.0,0.19782409071922302,0.03,0.1495422124862671,0.03
1697621300150845906,body,150770135,1697621300,0.03,1.0,0.17589515447616577,0.03,0.16033583879470825,0.03
1697621300160811973,body,160721235,1697621300,0.03,1.0,0.15297120809555054,0.03,0.17695468664169312,0.03
1697621300170875951,body,170800010,1697621300,0.03,1.0,0.1347358226776123,0.03,0.19444477558135986,0.03
1697621300180864156,body,180788321,1697621300,0.03,1.0,0.11720723658800125,0.03,0.2176702618598938,0.03
1697621300190851589,body,190788960,1697621300,0.03,1.0,0.08777707070112228,0.03,0.22887665033340454,0.03
1697621300200856777,body,200755248,1697621300,0.03,1.0,0.0524168461561203,0.03,0.23991495370864868,0.03
1697621300210878259,body,210811641,1697621300,0.03,0.7970162034034729,0.03,0.03,0.2704594135284424,0.03
1697621300220815310,body,220724828,1697621300,0.03,0.7091243863105774,0.03,0.21615758538246155,0.27095335721969604,0.03
1697621300230952174,body,230818166,1697621300,0.03,0.5967907905578613,0.03,0.23362016677856445,0.2709529995918274,0.03
1697621300240858386,body,240789332,1697621300,0.03,0.46705004572868347,0.03,0.24814686179161072,0.27095335721969604,0.03
1697621300250853906,body,250792741,1697621300,0.03,0.09938591718673706,0.03,0.20645645260810852,0.2532474994659424,0.03
1697621300261024726,body,260859741,1697621300,0.03,0.03,0.03,0.20750805735588074,0.1943386197090149,0.03
1697621300270858119,body,270793074,1697621300,0.12697440385818481,0.03,0.03,0.18852737545967102,0.11051827669143677,0.03
1697621300280871807,body,280782090,1697621300,0.42965513467788696,0.03,0.4005346894264221,0.03,1.0,0.03
1697621300290891336,body,290809997,1697621300,0.4997404217720032,0.03,0.4210510551929474,0.03,1.0,0.03
1697621300300873073,body,300792210,1697621300,0.5512437224388123,0.03,0.6059765815734863,0.03,1.0,0.03
1697621300310851594,body,310771773,1697621300,0.5512479543685913,0.03,0.642417311668396,0.03,1.0,0.03
1697621300320876025,body,320772023,1697621300,0.5512479543685913,0.03,0.68907630443573,0.03,0.9872222542762756,0.03
1697621300330853058,body,330772347,1697621300,0.5512479543685913,0.03,0.7430693507194519,0.03,0.8506348133087158,0.03
1697621300340806458,body,340727828,1697621300,0.5512479543685913,0.03,0.8108396530151367,0.03,0.5253504514694214,0.03
1697621300350846056,body,350785886,1697621300,0.5512479543685913,0.03,0.8465335965156555,0.03,0.33120420575141907,0.03
1697621300360896079,body,360801282,1697621300,0.5512479543685913,0.03,0.8630751371383667,0.03,0.20213308930397034,0.03
1697621300370789161,body,370718932,1697621300,0.5512479543685913,0.03,0.8192638754844666,0.03,0.10397922992706299,0.03
1697621300380812898,body,380748745,1697621300,0.5512479543685913,0.03,0.789162814617157,0.03,0.03,0.03
1697621300390883950,body,390819534,1697621300,0.5512479543685913,0.03,0.7065197229385376,0.03,0.03,0.06873750686645508
1697621300400865862,body,400791190,1697621300,0.5512450933456421,0.03,0.6501554846763611,0.03,0.03,0.1557890772819519
1697621300410846815,body,410791851,1697621300,0.5512312650680542,0.03,0.44838905334472656,0.03,0.03,0.23602080345153809
1697621300420909137,body,420814438,1697621300,0.5198773145675659,0.03,0.29895374178886414,0.03,0.03,0.2628995180130005
1697621300430997547,body,430869074,1697621300,0.48301517963409424,0.03,0.21259230375289917,0.03,0.03,0.27281731367111206
1697621300440827456,body,440765305,1697621300,0.4516065716743469,0.03,0.13324540853500366,0.03,0.03,0.2700732350349426
1697621300450849527,body,450785016,1697621300,0.41380465030670166,0.03,0.0517694354057312,0.03,0.03,0.25521576404571533
1697621300460882885,body,460799594,1697621300,0.3923495411872864,0.03,0.03,0.03,0.03,0.22863280773162842
1697621300470818100,body,470769636,1697621300,0.3644753098487854,0.03,0.03,0.106509268283844,0.03,0.18186259269714355
1697621300480900059,body,480845129,1697621300,1.0,0.03,0.03,1.0,0.03,0.7172547578811646
1697621300490859232,body,490790617,1697621300,1.0,0.03,0.03,1.0,0.03,0.6492530107498169
1697621300500846733,body,500778834,1697621300,1.0,0.03,0.03,1.0,0.03,0.5538408756256104
1697621300510843639,body,510761456,1697621300,1.0,0.03,0.03,1.0,0.03,0.45643356442451477
1697621300520851638,body,520775921,1697621300,1.0,0.03,0.03,1.0,0.03,0.3729512393474579
1697621300531012830,body,530873657,1697621300,0.9931307435035706,0.03,0.03,1.0,0.03,0.2876316010951996
1697621300540858869,body,540784871,1697621300,0.9465174674987793,0.03,0.03,1.0,0.03,0.23622584342956543
1697621300550914226,body,550773458,1697621300,0.8369808793067932,0.03,0.03,1.0,0.03,0.1340174525976181
1697621300560858441,body,560782685,1697621300,0.704582929611206,0.03,0.03,1.0,0.07256782799959183,0.03
1697621300570855881,body,570786675,1697621300,0.5614716410636902,0.03,0.03,1.0,0.15458491444587708,0.03
1697621300580882326,body,580814173,1697621300,0.5614716410636902,0.03,0.03,1.0,0.34999051690101624,0.03
1697621300590840768,body,590781241,1697621300,0.25276556611061096,0.03,0.03,1.0,0.43644100427627563,0.03
1697621300600859687,body,600788074,1697621300,0.06120634078979492,0.03,0.03,1.0,0.5253880023956299,0.03
1697621300610876435,body,610805285,1697621300,0.03,0.11552566289901733,0.03,1.0,0.6129970550537109,0.03
1697621300620848514,body,620797496,1697621300,0.03,0.3002656102180481,0.03,1.0,0.8514399528503418,0.03
1697621300630858046,body,630780309,1697621300,0.03,0.4062122702598572,0.03,1.0,0.852092981338501,0.03
1697621300640860837,body,640754241,1697621300,0.03,0.4085283875465393,0.03,1.0,0.575326681137085,0.03
1697621300650810522,body,650748758,1697621300,0.03,0.4085283875465393,0.03,0.9964712858200073,0.47247952222824097,0.03
1697621300660916053,body,660791259,1697621300,0.03,0.4085283875465393,0.03,0.8940006494522095,0.4100464880466461,0.03
1697621300670860157,body,670776023,1697621300,0.03,0.4085283875465393,0.03,0.7968888282775879,0.33871713280677795,0.03
1697621300680930159,body,680813304,1697621300,0.03,0.4085283875465393,0.03,0.6831855773925781,0.26349782943725586,0.03
1697621300690849210,body,690762944,1697621300,0.03,1.0,0.2761616110801697,0.03,0.14882931113243103,0.03
1697621300700795089,body,700716778,1697621300,0.03,1.0,0.5604085326194763,0.03,0.06069163978099823,0.03
1697621300710914122,body,710808779,1697621300,0.03,1.0,0.704091489315033,0.03,0.03,0.03
1697621300720868306,body,720785999,1697621300,0.03,1.0,0.8001418113708496,0.03,0.03,0.03201419487595558
1697621300730852658,body,730778380,1697621300,0.03,1.0,0.8674566745758057,0.03,0.03,0.05217558890581131
1697621300740890914,body,740807480,1697621300,0.03,1.0,0.9522553086280823,0.03,0.03,0.08892270177602768
1697621300750790852,body,750725011,1697621300,0.03,1.0,1.0,0.03,0.03,0.1314302384853363
1697621300760836279,body,760762889,1697621300,0.03,1.0,1.0,0.03,0.03,0.3443346619606018
1697621300770849168,body,770785052,1697621300,0.03,1.0,1.0,0.03,0.03,0.40050461888313293
1697621300780859229,body,780776050,1697621300,0.03,0.9376081228256226,1.0,0.03,0.03,0.4302314817905426
1697621300790928349,body,790830420,1697621300,0.03,0.8637633323669434,1.0,0.03,0.03,0.4617266356945038
1697621300800842078,body,800766936,1697621300,0.03,0.7860938906669617,1.0,0.03,0.03,0.48178693652153015
1697621300810950695,body,810840127,1697621300,0.03,0.696659505367279,1.0,0.03,0.03,0.4952485263347626
1697621300820901768,body,820785779,1697621300,0.03,0.6034379601478577,0.927503228187561,0.03,0.03,0.4933978021144867
1697621300830878070,body,830789527,1697621300,0.03,0.5157843232154846,0.8566079139709473,0.03,0.03,0.48804834485054016
1697621300840818933,body,840754461,1697621300,0.03,0.43308424949645996,0.7999014854431152,0.03,0.03,0.4842807948589325
1697621300850846662,body,850783218,1697621300,0.03,0.3332624137401581,0.7562112808227539,0.03,0.03,0.48152026534080505
1697621300860830692,body,860764666,1697621300,0.03,0.18845807015895844,0.724938154220581,0.03,0.03,0.4889248311519623
1697621300870848542,body,870781671,1697621300,0.03,0.05283518135547638,0.6695517301559448,0.03,0.03,0.4868139922618866
1697621300880887076,body,880774646,1697621300,0.03,0.03,0.6087589263916016,0.03,0.03,0.48624733090400696
1697621300890860581,body,890773351,1697621300,0.5275536775588989,0.03,0.1331813633441925,0.03,0.03,1.0
1697621300900949296,body,900843507,1697621300,0.5827903747558594,0.03,0.03,0.03377892076969147,0.03,1.0
1697621300910913689,body,910830848,1697621300,0.5884788036346436,0.03,0.03,0.13555379211902618,0.03,1.0
1697621300920869476,body,920799691,1697621300,0.5886155366897583,0.03,0.03,0.19445082545280457,0.03,1.0
1697621300930887947,body,930791292,1697621300,0.5888509750366211,0.03,0.03,0.22916613519191742,0.03,1.0
1697621300940835073,body,940774531,1697621300,0.5814831256866455,0.03,0.03,0.2554057240486145,0.03,1.0
1697621300950935790,body,950833197,1697621300,0.5810167789459229,0.03,0.03,0.26718491315841675,0.03,1.0
1697621300960847068,body,960778991,1697621300,0.5793411135673523,0.03,0.03,0.2749165892601013,0.03,0.95781010389328
1697621300970841967,body,970778074,1697621300,0.5766724348068237,0.03,0.03,0.2817158102989197,0.03,0.8637825846672058
1697621300980895248,body,980789378,1697621300,0.5794744491577148,0.03,0.03,0.2672688364982605,0.03,0.6903894543647766
1697621300990833688,body,990773049,1697621300,0.5773615837097168,0.03,0.03,0.2557443380355835,0.03,0.5628400444984436
1697621301000908337,body,787625,1697621301,0.573764443397522,0.03,0.03,0.23347358405590057,0.03,0.4754604995250702
1697621301010843594,body,10772265,1697621301,0.5721810460090637,0.03,0.03,0.2186117023229599,0.03,0.4032934904098511
1697621301020868957,body,20786751,1697621301,0.5685751438140869,0.03,0.03,0.20582030713558197,0.03,0.3399657607078552
1697621301030915111,body,30832371,1697621301,0.5722002387046814,0.03,0.03,0.19103869795799255,0.03,0.2871459424495697
1697621301040850204,body,40794297,1697621301,0.5725495219230652,0.03,0.03,0.1913134753704071,0.03,0.2396034300327301
1697621301050843436,body,50789225,1697621301,0.5791806578636169,0.03,0.03,0.18290214240550995,0.03,0.2017107605934143
1697621301060926363,body,60813395,1697621301,0.5665232539176941,0.03,0.03,0.1920972317457199,0.03,0.1811428666114807
1697621301070883435,body,70812787,1697621301,0.5553473234176636,0.03,0.03,0.19297535717487335,0.03,0.15762507915496826
1697621301080868208,body,80798633,1697621301,0.5469790697097778,0.03,0.03,0.20082809031009674,0.03,0.1408160924911499
1697621301090881344,body,90799387,1697621301,0.15419551730155945,0.03,0.41875386238098145,0.03,1.0,0.03
1697621301100861020,body,100787053,1697621301,0.1287020742893219,0.03,0.4030715227127075,0.03,1.0,0.03
1697621301110958030,body,110841055,1697621301,0.08580240607261658,0.03,0.37740767002105713,0.03,1.0,0.03
1697621301120812300,body,120742120,1697621301,0.047739043831825256,0.03,0.36140361428260803,0.03,1.0,0.03
1697621301130889470,body,130813458,1697621301,0.03,0.03,0.3399694859981537,0.03,1.0,0.03
1697621301140864932,body,140758676,1697621301,0.03,0.05486093461513519,0.31921249628067017,0.03,1.0,0.03
1697621301150841510,body,150769233,1697621301,0.03,0.1024584025144577,0.29255640506744385,0.03,1.0,0.03
1697621301160948652,body,160817040,1697621301,0.03,0.10336295515298843,0.2605154812335968,0.03,1.0,0.03
1697621301170905487,body,170817117,1697621301,0.03,0.14929595589637756,0.23347973823547363,0.03,1.0,0.03
1697621301180843184,body,180782150,1697621301,0.03,0.16758865118026733,0.20147457718849182,0.03,1.0,0.03
1697621301190919924,body,190819514,1697621301,0.03,0.1723087728023529,0.1846821904182434,0.03,1.0,0.03
1697621301200880230,body,200790395,1697621301,0.03,0.2681867480278015,0.15783852338790894,0.03,1.0,0.03
1697621301210844580,body,210779632,1697621301,0.03,0.36089348793029785,0.1320708990097046,0.03,1.0,0.03
1697621301221041749,body,220892729,1697621301,0.03,0.4272228479385376,0.09346383810043335,0.03,1.0,0.03
1697621301230865788,body,230796516,1697621301,0.03,0.46576955914497375,0.04326331615447998,0.03,1.0,0.03
1697621301240840095,body,240768170,1697621301,0.03,0.5056498050689697,0.03,0.03,1.0,0.03
1697621301250864092,body,250793975,1697621301,0.03,0.5601018667221069,0.03,0.03,0.9671746492385864,0.03
1697621301260901308,body,260827556,1697621301,0.03,0.6189106106758118,0.03,0.04237842559814453,0.9004472494125366,0.03
1697621301270927087,body,270836628,1697621301,0.03,0.6501328945159912,0.03,0.06375283002853394,0.8210248351097107,0.03
1697621301280807101,body,280744533,1697621301,0.03,0.6990255117416382,0.03,0.08607441186904907,0.7272406816482544,0.03
1697621301290850086,body,290781436,1697621301,0.03,0.7422562837600708,0.03,0.09885925054550171,0.6255394220352173,0.03
1697621301300902944,body,300784690,1697621301,0.03,0.31397244334220886,0.03,1.0,0.24448950588703156,0.03
1697621301310837500,body,310769055,1697621301,0.03,0.32577255368232727,0.03,1.0,0.16915425658226013,0.03
1697621301320872282,body,320792759,1697621301,0.03,0.33340969681739807,0.03,1.0,0.10761189460754395,0.03
1697621301330797099,body,330736629,1697621301,0.03,0.3777365982532501,0.03,1.0,0.14870011806488037,0.03
1697621301340869288,body,340767816,1697621301,0.03,0.40643301606178284,0.03,1.0,0.1817980259656906,0.03
1697621301350858960,body,350789463,1697621301,0.03,0.4164573848247528,0.03,1.0,0.16555339097976685,0.03
1697621301360850666,body,360768606,1697621301,0.03,0.39608481526374817,0.03,1.0,0.10954549908638,0.03
1697621301370821679,body,370770108,1697621301,0.03,0.38368579745292664,0.03,1.0,0.07541337609291077,0.03
1697621301380832425,body,380773406,1697621301,0.03,0.36319366097450256,0.03,0.9887023568153381,0.05493974685668945,0.03
1697621301390849972,body,390774001,1697621301,0.03,0.3471243679523468,0.03,0.9292841553688049,0.0315643846988678,0.03
1697621301400864634,body,400785797,1697621301,0.03,0.32159551978111267,0.03,0.839771568775177,0.03,0.03
1697621301410864401,body,410781593,1697621301,0.03,0.29684683680534363,0.03,0.7548004388809204,0.03,0.03
1697621301420883357,body,420794796,1697621301,0.03,0.27101579308509827,0.03,0.6822823882102966,0.03,0.03
1697621301430859086,body,430789380,1697621301,0.03,0.22940924763679504,0.03,0.5372881889343262,0.03,0.03
1697621301440828534,body,440765503,1697621301,0.03,0.19482091069221497,0.03,0.37968382239341736,0.03,0.03
1697621301450893112,body,450803848,1697621301,0.03,0.1664145290851593,0.03,0.17584525048732758,0.03,0.03
1697621301460860684,body,460783660,1697621301,0.03,0.1353168487548828,0.03,0.059400200843811035,0.03,0.03
1697621301470879114,body,470799913,1697621301,0.03,0.10788273811340332,0.03,0.03,0.03,0.03
