log_time_ns,header.frame_id,header.stamp.nanosec,header.stamp.sec,motor_a_1,motor_a_2,motor_b_1,motor_b_2,motor_c_1,motor_c_2
1701784585318974697,body,318875025,1701784585,0.039452985022396476,0.0380534174122487,0.04621951404218553,0.04909865746735755,0.05404721393208601,0.030276898994122805
1701784585328980914,body,328871542,1701784585,0.03489447641296077,0.04479649914853748,0.042986837607904775,0.05294555963218356,0.05870298196137208,0.030181706859394534
1701784585338991447,body,338898127,1701784585,0.03718932111583522,0.040799433872933784,0.04880803186963878,0.04660091157738115,0.047331437950491446,0.03080749920720392
1701784585348976193,body,348865632,1701784585,0.04292262416937807,0.03524084868094746,0.03843277797266572,0.06057436672573441,0.05619939944591037,0.0302052459969178
1701784585358941448,body,358837227,1701784585,0.032245849378620794,0.05317464939905932,0.05310083173247961,0.04303293142285973,0.07035575947903679,0.03026357751684275
1701784585368954175,body,368867933,1701784585,0.03646624198737636,0.04188431254507945,0.03855733094689946,0.06041932001980325,0.047313180229825585,0.03080164072824725
1701784585378942622,body,378862692,1701784585,0.045625313883497436,0.033820199196618835,0.04321578647862643,0.05265980577824337,0.05013380591900828,0.03049478006613566
1701784585388914501,body,388837347,1701784585,0.032086697533429936,0.05414711650250588,0.05711962587034201,0.040554322370077486,0.05150623846948586,0.03039299336412895
1701784585398953157,body,398863371,1701784585,0.03598452629752389,0.042727153751575785,0.05505313905911214,0.04185241819278643,0.04377566811186679,0.03146119571392896
1701784585408925234,body,408844833,1701784585,0.03988750453553725,0.03760841891550548,0.04564361129916222,0.04969943353144521,0.05902060618390751,0.030183330333340128
1701784585418928369,body,418848036,1701784585,0.036912142102293426,0.041237472592440004,0.04452925612048694,0.05108475561594834,0.03842193937336621,0.03347174790823675
1701784585429038673,body,428859427,1701784585,0.032976430988090125,0.05018445593387945,0.050377402021525214,0.04517551318492767,0.06026931785489788,0.030178388947179054
1701784585438958173,body,438852218,1701784585,0.03426053144893461,0.04629805584635429,0.03940408389385184,0.05866212822801733,0.05502777452619349,0.03023713585251747
1701784585448968752,body,448858360,1701784585,0.0432489991093597,0.03508009152052004,0.03771856408053825,0.06231509396371708,0.03281103619553895,0.03926878002527154
1701784585459005710,body,458862329,1701784585,0.03762366002783484,0.040140656797354464,0.038662192498274094,0.060113214955483475,0.05679550194976148,0.030198550240426388
1701784585468953862,body,468856968,1701784585,0.033891872413664786,0.047357858119027645,0.04424938379268698,0.051394118276448776,0.04563318112660224,0.03107271747716895
1701784585478966736,body,478850606,1701784585,0.038720858370922276,0.03883442019535519,0.034051158220962566,0.07464000905830226,0.035469298212083146,0.0356048862787751
1701784585488995789,body,488891391,1701784585,0.03991987723730622,0.03763364578986646,0.039600500817198916,0.058408897120214964,0.03870988565957694,0.03329713922981324
1701784585499060162,body,498921033,1701784585,0.03350150665104844,0.048500417715394525,0.03850295676983247,0.06055595051169521,0.04204706057183434,0.03192106974305358
1701784585508987297,body,508870071,1701784585,0.035805304611829666,0.043075688945131634,0.04470376498123771,0.050905889696721635,0.035405319234408796,0.03571439895692984
1701784585518992191,body,518879912,1701784585,0.03453229809102408,0.045555704858090115,0.032771469700557644,0.08287584108382878,0.05018102623977748,0.030465609561108144
1701784585528993302,body,528850612,1701784585,0.03678613085498827,0.04134943070809801,0.03465776545523578,0.0717423285269052,0.045812313026449045,0.0310186453331563
1701784585538997276,body,538884761,1701784585,0.03702372918624751,0.04104178936083369,0.04230011706880452,0.053986821191937234,0.04520044984251363,0.031152523169319588
1701784585549052366,body,548915187,1701784585,0.034047539491508544,0.04696048515858188,0.043594573790894146,0.05226873462555169,0.038990868810698055,0.03315795200281693
1701784585558967866,body,558858541,1701784585,0.039367782872449235,0.03814597240412568,0.03722467900846311,0.06348789869399211,0.04552055051875525,0.031081796569630102
1701784585568947424,body,568852195,1701784585,0.03259860619549592,0.05179069199634844,0.043692059383168086,0.05209950225773448,0.045531302452015684,0.031085646202570528
1701784585578995061,body,578861620,1701784585,0.03453973289195972,0.045643781221207706,0.03879347605584141,0.059932186423656796,0.04897810380251572,0.030602847359723434
1701784585588987963,body,588868685,1701784585,0.03678737203432212,0.041339336871151315,0.037646158324886964,0.06239961900706326,0.05409542214478343,0.030263460064611867
1701784585598968299,body,598850587,1701784585,0.0324789854159067,0.05217404894782409,0.04537488832957785,0.05000313223725087,0.06119758977911752,0.030177008104123864
1701784585608946617,body,608847774,1701784585,0.03259375219235259,0.05170764572199286,0.04200890697488159,0.05432201346569031,0.05602882552980134,0.030211240793718824
1701784585619027510,body,618909340,1701784585,0.03606536196611872,0.04249546720028866,0.043410857098293426,0.05237448950392093,0.06216827664577051,0.030184847504723937
1701784585628958047,body,628849151,1701784585,0.038996435534931546,0.03858336688912543,0.04520814576050645,0.05028990686939096,0.03930974791479729,0.033005611410373684
1701784585638942883,body,638852067,1701784585,0.03446380749241948,0.045846256178726334,0.05422856633188823,0.04236650916879365,0.04907354515355719,0.030600840288013995
1701784585648962063,body,648857204,1701784585,0.035004000883704936,0.044633512564273406,0.041982914959297964,0.05446814298819008,0.044278628159229345,0.03134226168751566
1701784585659015988,body,658892860,1701784585,0.036031141134946536,0.04262411836843997,0.05341884666090643,0.042903032364839465,0.04846272315060424,0.030665506540078106
1701784585668950290,body,668851302,1701784585,0.03912823117148873,0.038392468714651365,0.03899323134747058,0.05951913597524867,0.048796738818263415,0.03062196202993424
1701784585678951124,body,678855216,1701784585,0.038166637235943955,0.03950067497042448,0.04974670392369275,0.04576634638201139,0.04917510756030974,0.030590832525250668
1701784585688946766,body,688841096,1701784585,0.03194459465326442,0.054909012972676884,0.038766769092018,0.05991232457288693,0.05006852766225627,0.030492106388651512
1701784585698944595,body,698847674,1701784585,0.03629060112525753,0.04221620227424774,0.04736230217208156,0.04799598256344776,0.041652044740536256,0.032060235153037075
1701784585708976118,body,708870924,1701784585,0.046061740536547637,0.03363003760085955,0.03627226190814005,0.06603946095475936,0.04174739277032455,0.032005433667507494
1701784585718961943,body,718854681,1701784585,0.033129213376452166,0.04967259957443871,0.04103108842237768,0.05584553612914842,0.05392492052340419,0.030272880233798927
1701784585728987974,body,728880719,1701784585,0.0317765820375377,0.055958829883896055,0.040969156693550335,0.0559764036195601,0.049556485780783914,0.03054123861434334
1701784585739018939,body,738884807,1701784585,0.03320509868369648,0.04951051779745611,0.042748977335195434,0.05337860422993276,0.04018099248602497,0.032608223807334594
1701784585749076791,body,748920616,1701784585,0.036184955469403285,0.04233883820611759,0.042335686584475354,0.05390347470964848,0.051843228205245555,0.030378591763437164
1701784585759127255,body,758946317,1701784585,0.03236645528146058,0.05273370849516993,0.04850637044758725,0.04681208314591249,0.055701910544422126,0.030222694243032207
1701784585769146969,body,768969494,1701784585,0.03776153766386789,0.04004143365946307,0.040451273797347496,0.05693284150760639,0.03705342964717204,0.034314007026827395
1701784585779018193,body,778851403,1701784585,0.034823352301040666,0.04503631874294323,0.03879776274936772,0.05996257621091263,0.04049056164499517,0.032474964271356405
1701784585789090072,body,788924282,1701784585,0.044016108734586896,0.03461212319117902,0.035289053562322974,0.06922840480512583,0.043908466225174685,0.031404783982899635
1701784585799106705,body,798964770,1701784585,0.03447492533883271,0.04573100529173808,0.047195262359984745,0.04802732034922381,0.06389390301541752,0.030197819463739853
1701784585809182730,body,808971332,1701784585,0.03176840577805049,0.05583489343324539,0.04572281824726537,0.04954738344995541,0.06763418685097423,0.03022987592804146
1701784585819218433,body,818983340,1701784585,0.03638404779243126,0.0420445387551087,0.040721485357817576,0.056443088150284766,0.042927076784173665,0.031670941512591755
1701784585829053739,body,828901893,1701784585,0.037534477603965936,0.04033635971639239,0.047813316660524706,0.047553250718167864,0.04304568475192509,0.031640566607523055
1701784585839087238,body,838915055,1701784585,0.036933177275969925,0.04113949002214597,0.041137983632053454,0.05569744730692552,0.05296342646225248,0.030316047021640702
1701784585849315314,body,848953923,1701784585,0.03421537186956996,0.0463930242636982,0.0476653280762246,0.04760267891412458,0.06151981618567041,0.03018295043877068
1701784585859086246,body,858912934,1701784585,0.037233556858055614,0.04073470435550281,0.03577432135022342,0.06768368318004583,0.03593864177914067,0.035188561936036825
1701784585868999885,body,868855002,1701784585,0.04225887128151251,0.03573690015324173,0.040464611455440606,0.05687493232046455,0.03356029221304201,0.03797183884138909
1701784585879054430,body,878883198,1701784585,0.03252962545943851,0.05195287131684297,0.048212577055540835,0.04705460338472015,0.06155268506742903,0.030178883368492313
1701784585889026555,body,888857801,1701784585,0.035688434245607754,0.04326704809933625,0.03779042626108963,0.062182337842845714,0.036718185089377534,0.034562941901166544
1701784585899087147,body,898900470,1701784585,0.03399950257828978,0.046909324358154265,0.036821131695584,0.06434184829322667,0.06195687227319653,0.03017288088786545
1701784585909160888,body,908959059,1701784585,0.03129659164013949,0.05931548108644277,0.04064633239070442,0.05636218750954113,0.06348428055775338,0.030180129310708147
1701784585919055522,body,918899988,1701784585,0.04334874061597293,0.034982948622355334,0.03340094346923611,0.07827558008623689,0.032865406715313995,0.03910324766568226
1701784585929040157,body,928909859,1701784585,0.04144261030395948,0.036340201560940796,0.041418932216952344,0.05534317939700009,0.03581249937490045,0.035315987354511184
1701784585939013552,body,938870750,1701784585,0.0324118033173759,0.052474411120032656,0.04927249837219426,0.04608016095961594,0.061751709182866134,0.030180115580369957
1701784585948989656,body,948877142,1701784585,0.032312827202305223,0.05297915071488952,0.04316052195557283,0.05270869729203986,0.05541960758324435,0.0302256527126629
1701784585959073900,body,958925363,1701784585,0.032386007240768865,0.05269416425958535,0.042713385427293166,0.0534020248738517,0.048500827311214245,0.03065288235782199
1701784585969014543,body,968873319,1701784585,0.039916119106953495,0.037640926364007996,0.04078843324360806,0.05634496590712811,0.03674465872651257,0.034547065016179185
1701784585979055477,body,978887322,1701784585,0.03714999255128795,0.04086427933963218,0.038156093356318255,0.0613502067643451,0.04027856971768947,0.03256202425264221
1701784585988996697,body,988870615,1701784585,0.04190145728207915,0.035961153622934776,0.03761959800024747,0.06250272198577642,0.0460198005593943,0.03099235651268554
1701784585999008028,body,998866938,1701784585,0.032397698360573775,0.052555019805658604,0.04376616594847532,0.051894890081915994,0.058577933301479826,0.03017961170127002
1701784586009053509,body,8911737,1701784586,0.03323576270035424,0.04932595948061077,0.03968372717831713,0.05819202434482355,0.04977207084802179,0.0305253588363448
1701784586019034824,body,18897810,1701784586,0.03525554223419925,0.0440843098400242,0.038715651425488634,0.060101575223398034,0.04588194113015981,0.031022176756804958
1701784586029025211,body,28869178,1701784586,0.033164163235140806,0.049476746711411945,0.04769037566826111,0.047539224684498435,0.06486523665940161,0.03020366263676175
1701784586038998655,body,38874244,1701784586,0.033119534406704454,0.04961992005891448,0.03395848516694069,0.0748064566785851,0.051716714493525835,0.03036056392324216
1701784586049122396,body,48911892,1701784586,0.03282798216236283,0.05089483621177455,0.05382007393234495,0.04266795375323954,0.03899649406234158,0.03315075463761466
1701784586059136680,body,58968070,1701784586,0.03641216108016575,0.0419084435659577,0.04309634865852644,0.052793798088173784,0.06330350262448164,0.030193357832318676
1701784586069077283,body,68940707,1701784586,0.03509905476596837,0.04434399548227911,0.040208261736270984,0.05718448830927169,0.059563540474010405,0.030176425657541264
1701784586079009721,body,78882557,1701784586,0.034199104222887855,0.04647132525329383,0.04768177488876365,0.04761658899931373,0.05552200987729739,0.03022958458035002
1701784586089044761,body,88905129,1701784586,0.047147033240729434,0.03318008835117622,0.03768043592650996,0.06225057847482706,0.03050257924545281,0.048401742799608564
1701784586099035509,body,98901083,1701784586,0.036848089926269624,0.04131164452970352,0.048434334856499846,0.04695325985416389,0.04614218960683594,0.030987167905423375
1701784586109075890,body,108920865,1701784586,0.03249204671226764,0.05210447428053315,0.040382467939890324,0.05684216346330516,0.06010144770158231,0.030169402533579012
1701784586119021250,body,118870399,1701784586,0.03432749444818466,0.04617059936819112,0.03917233337947653,0.05916149706597564,0.04857477883636673,0.03064621211604578
1701784586129095617,body,128950591,1701784586,0.031231923524974264,0.05997127940715233,0.04624851207384481,0.04898463530802274,0.06315772532140466,0.030181511603153653
1701784586139037734,body,138901401,1701784586,0.03675784271193919,0.04143373084883631,0.0382627993302548,0.06108008684887496,0.04474719341690456,0.03123524405158569
1701784586149043592,body,148905957,1701784586,0.04009915106861751,0.037476330494062064,0.04886147186552729,0.04657200567495931,0.04062417089820079,0.032431692487119745
1701784586159071919,body,158931485,1701784586,0.035499806159299756,0.04358484979269389,0.03724572214308939,0.06342940857534872,0.04734905829569199,0.03079305155552008
1701784586169039665,body,168901303,1701784586,0.03344474836741138,0.04867467946997709,0.04223878721986841,0.054068125841221136,0.04792315892960342,0.03072604330915328
1701784586179009366,body,178893541,1701784586,0.03618484575975849,0.04231672042480281,0.04218096383400314,0.05409038659209281,0.056219242140021185,0.030214079220186436
1701784586189000691,body,188865935,1701784586,0.037246829119263136,0.04073245880927573,0.04296355367227571,0.05308244257380684,0.0436431639944442,0.031490809770962414
1701784586199033418,body,198883530,1701784586,0.03646264943508972,0.04191011880570644,0.03832534098235651,0.06094833971389095,0.04238496403853186,0.03182051541875713
1701784586209121655,body,208988083,1701784586,0.04364940646095155,0.03484271110112382,0.0370400701193337,0.06395903554031121,0.0337845538183339,0.03761718474440038
1701784586218963719,body,218866574,1701784586,0.032892792969770865,0.05048400334737999,0.04463217299523775,0.05083327520655383,0.06142954384148316,0.03017740226654329
1701784586229169676,body,229025391,1701784586,0.03492441581487909,0.044764069012105306,0.03556313429055773,0.06831196349593617,0.043787910431343245,0.031436521396541774
1701784586239037900,body,238890982,1701784586,0.032308272861056975,0.053093992523456444,0.045070471544180486,0.05039739911957383,0.04673417717642466,0.030885343338573575
1701784586249012176,body,248862416,1701784586,0.03293894722960437,0.050307277848506166,0.03836538213319454,0.06070432870988008,0.05689256016966431,0.030192443155193274
1701784586259014008,body,258876484,1701784586,0.03381348183603356,0.047539120139812256,0.03925132830655937,0.0590279673998885,0.048683432468369384,0.030636403079809672
1701784586268994925,body,268871646,1701784586,0.04066702862770941,0.03695341082201731,0.04024439153932059,0.05724068454550937,0.04367155842469913,0.03147866835518407
1701784586279001048,body,278857618,1701784586,0.03739867403948528,0.04049999338251953,0.048284072109366284,0.04706154198608002,0.048859424541923734,0.03062477470679997
1701784586289026826,body,288891418,1701784586,0.03505687225244646,0.044450764700824784,0.04722790327141525,0.04804991857447395,0.059132725001208905,0.030185594822341785
1701784586299018518,body,298880409,1701784586,0.04140893165262241,0.03630704514094035,0.03485847384233357,0.07083539013693267,0.04651322162060187,0.030903609316830623
1701784586309112145,body,308913589,1701784586,0.0457877693014847,0.033769919635750385,0.03876202179844718,0.05999776430408119,0.034705833544221694,0.03643041118322109
1701784586318985323,body,318863828,1701784586,0.041719025102133316,0.03606353886349989,0.038348428518252105,0.06078678380182851,0.055701378713234974,0.030216614306181524
1701784586329024519,body,328890435,1701784586,0.037067684510221834,0.040976617572797934,0.03775539900581575,0.062247441598018406,0.041440790056123555,0.03212006554714183
1701784586338992215,body,338866598,1701784586,0.03209102015527995,0.05413686240224724,0.04567288268283369,0.049702227037652924,0.05138643546634773,0.030402487959821076
1701784586348989542,body,348864544,1701784586,0.03253595079063537,0.05195491808072855,0.036936312353619105,0.06412822911145413,0.0507663289344581,0.030435838470782132
1701784586359029935,body,358883499,1701784586,0.03278325182735194,0.05088651125111607,0.0352027945630236,0.06943444100519228,0.05214855993435714,0.030339900086445683
1701784586369005018,body,368870519,1701784586,0.033414116560474445,0.04861111124939754,0.04132328429253242,0.05527734803437754,0.069415852704749,0.030252631839027315
1701784586378997712,body,378863311,1701784586,0.034974823443233695,0.0446115192048484,0.03539015474754951,0.06883954837009656,0.050557580231463596,0.030451616864038532
1701784586389121172,body,388927762,1701784586,0.03698735139705059,0.041081885715167174,0.04657294092788648,0.04874279548792255,0.04988880809114227,0.030524333344890606
1701784586399143171,body,398956041,1701784586,0.035299546274175655,0.043944028491961135,0.044650990192644055,0.050845511792574884,0.059412310300390285,0.03018389917216793
1701784586408991969,body,408865917,1701784586,0.036198555438346665,0.04238276320486502,0.0459747154721195,0.049441418136944894,0.034449751517673974,0.03676209891966541
1701784586418981660,body,418866799,1701784586,0.044882442598896025,0.03418984622408112,0.03837830084847826,0.06083419606756413,0.03877024926023564,0.03325374688231267
1701784586429021718,body,428896932,1701784586,0.04587166329812205,0.03372929322545339,0.038859935610632314,0.059799624475267064,0.03888438202598922,0.03319681116144618
1701784586439000530,body,438865762,1701784586,0.031164462504267965,0.06070992644541217,0.0583440637661312,0.03985254763600983,0.05552364620964119,0.03021775491130541
1701784586449089176,body,448839529,1701784586,0.03139984818868023,0.058434939917191016,0.04252250152840246,0.05349664697183529,0.06623214281932319,0.030209842735110917
1701784586458969787,body,458866709,1701784586,0.03597516826530604,0.042684150909959334,0.043284501664102984,0.052574512190413966,0.05597758755359353,0.030219516487504917
1701784586468925314,body,468840431,1701784586,0.03420992137705358,0.046394544221866604,0.05432400765249452,0.0422515330186455,0.06171031067234435,0.03018293285961106
1701784586478907913,body,478833933,1701784586,0.04878637913853271,0.0326394728321798,0.042604291650533276,0.05344605671766114,0.05238444558322299,0.030337018211872242
1701784586489104323,body,488977011,1701784586,0.04288075301218153,0.035311496807843935,0.0433524249743678,0.05251478588103976,0.04631551707743988,0.03095249217757817
1701784586498914339,body,498824209,1701784586,0.03428788693211749,0.04617184864860179,0.04623694855038794,0.049016330325619806,0.06717325580564788,0.03022937677946112
1701784586508908219,body,508824240,1701784586,0.032929596323419616,0.0505016032347414,0.045078795538855784,0.050436451927256404,0.04172541291238652,0.03202979696414519
1701784586518951394,body,518860699,1701784586,0.03597161759311249,0.04274428752258383,0.06285555013313408,0.03777996148770559,0.03701681941403483,0.034339299040780674
1701784586528948620,body,528860778,1701784586,0.04123044556702228,0.036466317588839385,0.03791078154975618,0.061841135976926025,0.04660276312726089,0.030901591293092334
1701784586538908847,body,538839641,1701784586,0.032867903310820214,0.05063317957077351,0.03949614344804024,0.058515124039311306,0.05070529117444285,0.030446496789491198
1701784586549008763,body,548891290,1701784586,0.03615393002169445,0.04229576487063924,0.05505267867389467,0.04172956845305153,0.07236736923467395,0.03029127982524584
1701784586558911252,body,558820768,1701784586,0.03898386919101638,0.03852335563026588,0.04762282169852441,0.047658742055992395,0.05831877349462456,0.030188044181566103
1701784586568944369,body,568860301,1701784586,0.03557639074009468,0.04345718662201368,0.06442257263960068,0.037153029793659594,0.03969220802211358,0.03281516220538056
1701784586578917277,body,578846121,1701784586,0.0328484478251411,0.050530953312721984,0.0696319939057018,0.03530512045073952,0.06710666749395533,0.030220607201071493
1701784586588965309,body,588837014,1701784586,0.03645576550632686,0.04179783075531702,0.04941207225459847,0.04593857048789733,0.07439353158096519,0.03031094144870951
1701784586598914473,body,598822913,1701784586,0.033961786463968927,0.04704605815994011,0.03792522022953003,0.06166867647493828,0.0589273877242979,0.03017380908257832
1701784586608950091,body,608851468,1701784586,0.036772535645986176,0.04144507517724222,0.04909085272802814,0.04635033327521576,0.04233292854475841,0.03184682630462854
1701784586618926971,body,618826902,1701784586,0.034120078857472994,0.04663663407408853,0.05071743902177404,0.044893429303629426,0.06163375441037761,0.030185192506718136
1701784586628946655,body,628840352,1701784586,0.03369151317870418,0.047817542443436084,0.047186260172926285,0.04805755755081733,0.06284300501696696,0.030189860010415025
1701784586638958651,body,638875926,1701784586,0.034309972600701434,0.046157479725110556,0.045848600962926374,0.04947267798174496,0.06100716862620626,0.030179527659126418
1701784586648918811,body,648839743,1701784586,0.034183943395924205,0.04647285227704662,0.04388430612729666,0.051765378650283723,0.061060782149220914,0.030179434625340104
1701784586658902751,body,658806299,1701784586,0.03433138186489467,0.046099733236098235,0.04445885685716241,0.051077606114477675,0.06075961702555212,0.03017910223409599
1701784586668900102,body,668828472,1701784586,0.03375995654351667,0.04761921017277504,0.043755600662886855,0.05192251795344569,0.06174281643323989,0.030180503688683306
1701784586678933195,body,678837893,1701784586,0.03362932498613365,0.04800904339513728,0.043951578596207574,0.05165917509627543,0.061870294559276326,0.03018206846701236
1701784586688910577,body,688845326,1701784586,0.03347597236538434,0.04846823282934829,0.043441535082847656,0.05232764817802057,0.06266489609191439,0.030187415499550358
1701784586699237837,body,699135354,1701784586,0.03356633055584398,0.04819829404035187,0.04317370005260765,0.052684106147843635,0.06240527097136574,0.0301836286347698
1701784586708985117,body,708868933,1701784586,0.033279214647637015,0.04911554091096545,0.0438689554637971,0.05179605580423543,0.06240361098210689,0.030183334075617234
1701784586718914717,body,718832884,1701784586,0.032817697330123144,0.050747853036957113,0.043176416084056264,0.05265698405862055,0.06475745747583787,0.030201375009359308
1701784586728948209,body,728835166,1701784586,0.03255956709116124,0.05176977256533969,0.04292989179432963,0.05296424312397651,0.06717629667171901,0.030225716077984563
1701784586738935957,body,738856286,1701784586,0.032522681366214605,0.051919651817754035,0.042670368726760007,0.05330964816029112,0.0672053633506364,0.030224562932347633
1701784586748959892,body,748849503,1701784586,0.03273099988722477,0.05106410949453668,0.04311010367961874,0.0527018895341315,0.06723051062506823,0.030226661107944374
1701784586758876642,body,758813662,1701784586,0.0314156193047057,0.05817531377215835,0.03964885849508044,0.05802418650541012,0.08046773419811472,0.030342734115988
1701784586768937090,body,768873823,1701784586,0.03139031090911045,0.05838961484085886,0.04046728468375224,0.05658432038679672,0.07757142434122662,0.030323775930290137
1701784587103456928,body,778826361,1701784586,0.03288394978256103,0.050463010894977386,0.04240679201220427,0.053678152503461814,0.06785532111295232,0.03023384827644347
1701784587103544710,body,788818460,1701784586,0.03298101274493994,0.050118529894175236,0.042981169049285464,0.05290944597555198,0.06536132514903222,0.03020753317044106
1701784587103655292,body,798815139,1701784586,0.032353545731814023,0.05265696777990927,0.04227667065800781,0.053872810626247054,0.0699274839126939,0.030255682670904373
1701784587103722762,body,808857560,1701784586,0.03266709381949049,0.05132135862207706,0.0425768007065805,0.053458208711687286,0.06630968729482055,0.030216060337441297
1701784587103785967,body,818851073,1701784586,0.03188873183074185,0.05504987646140235,0.04199348983280642,0.05423061932726976,0.0724272756565733,0.03028111008839411
1701784587103901387,body,828841742,1701784586,0.03177350733258635,0.05572399590556401,0.04154811192145042,0.05487800155500778,0.07398762389389642,0.030295506522363753
1701784587104001152,body,838860653,1701784586,0.03132605261850023,0.058884024067787484,0.03850565633033306,0.06021560319783385,0.07981085124680892,0.030336250054352858
1701784587104180766,body,848919468,1701784586,0.03168674083442665,0.056236661417414666,0.039523056895396896,0.05825968268619027,0.0762670578973302,0.030313565548091875
1701784587105637830,body,858858484,1701784586,0.03124309365956668,0.059638094397391296,0.03916002905550378,0.058924102442861497,0.0799208823028274,0.030337338194547616
1701784587105949491,body,868923733,1701784586,0.03278888566583401,0.05079185807979543,0.039876645513023994,0.05765704423019267,0.07115833594796425,0.030267971119742627
1701784587106394129,body,878906136,1701784586,0.032479726530199336,0.05207537011557309,0.0405927066850246,0.05645672529838156,0.07071674751103764,0.030263853770731094
1701784587106504480,body,888883420,1701784586,0.03279227848929256,0.05080114497511314,0.041170443968434715,0.05552096755605401,0.06879883175973311,0.03024273002989688
1701784587106724948,body,898945567,1701784586,0.0318084771513135,0.05550137612404546,0.04051262194661806,0.05654241871245021,0.07368748220930882,0.030292793043553923
1701784587106780807,body,908885682,1701784586,0.030833414004017415,0.06446034027541149,0.03856837245368385,0.06006416973653125,0.09370947905095059,0.03036175362579724
1701784587106849389,body,918868460,1701784586,0.03055576377340797,0.07031586281988629,0.03587871071977939,0.0667117934783,0.10161988871097725,0.030338208109740437
1701784587106888526,body,928869108,1701784586,0.030455352257080518,0.07541746250451709,0.03785228835910424,0.061531105643335304,0.09855716309830492,0.030345701995618982
1701784587106926212,body,938885703,1701784586,0.030451551786267805,0.07636199297289473,0.042099207327224726,0.05395180325674093,0.09191138573178177,0.030359622024678668
1701784587107145573,body,948882559,1701784586,0.03185952110220376,0.05515318325595641,0.03894963002570077,0.059341059039038586,0.07741221729796524,0.030322287849739754
1701784587107189432,body,958865337,1701784586,0.03150673142178416,0.05751737113300383,0.03995763560590154,0.0574991942399503,0.0715961228636756,0.030267816435840627
1701784587107241962,body,969021814,1701784586,0.03544150844099197,0.04367594312301889,0.039462412819490686,0.058581566438687054,0.05347358474623601,0.03029233412827816
1701784587107297995,body,979018571,1701784586,0.038216128192828866,0.039391942057326504,0.036163508870218034,0.06633054331777856,0.05269313536177263,0.03031884274054934
1701784587107351559,body,988924000,1701784586,0.03685839994115591,0.041186475891863986,0.0370788009331531,0.06365634720774667,0.06350187282390081,0.03018636289448365
1701784587107404959,body,998990958,1701784586,0.030616976308733834,0.06811392204485603,0.03332256227841097,0.07772528305994858,0.10532736818172414,0.030322183835365335
1701784587107477379,body,8816972,1701784587,0.030809951868463685,0.06457814633917262,0.034738487461313604,0.07074915239064349,0.10148112072069394,0.03033886141564139
1701784587107553401,body,18919279,1701784587,0.030414402606925215,0.0775406311135267,0.03330708100158131,0.07769422457772723,0.0997558198816951,0.030331253555492342
1701784587107647803,body,28981565,1701784587,0.03096551201809424,0.06264193023593141,0.041067862417506346,0.05558701810387257,0.0754680207461563,0.03030384134589858
1701784587108378269,body,38882436,1701784587,0.030707358001189417,0.06673468871128663,0.04451651105147743,0.05084335107632219,0.07847379758644839,0.03032648521957708
1701784587108786412,body,48858872,1701784587,0.030429692501323113,0.07860509823258083,0.03952110107623549,0.05814545041200683,0.09053850417678634,0.030356945101996026
1701784587108866804,body,58867998,1701784587,0.030462756161842696,0.07456581204437829,0.03825727025195929,0.06064215449490575,0.07941915708070647,0.03032146266894851
1701784587108950192,body,68853215,1701784587,0.03201036494550138,0.05430415555729682,0.038933655087709754,0.05939220170233988,0.07590849463316995,0.03031153257333345
1701784587109044335,body,78825140,1701784587,0.03870648655642662,0.038836598529805866,0.03954424610820662,0.05840993367068302,0.05329115026857893,0.030300520509655326
1701784587109109716,body,88837741,1701784587,0.03344436827999457,0.04847032908563461,0.03973788137775839,0.05787981203302017,0.07821989375818952,0.030333819405255556
1701784587109157346,body,98835396,1701784587,0.030962583951598618,0.062488638311978144,0.03416011051921656,0.07335321622104003,0.09200488431347086,0.030356434039840622
1701784587109213450,body,108878263,1701784587,0.031007846542016097,0.06198242986430783,0.03551372745439544,0.06796152122046138,0.097821183365069,0.030351682137573298
1701784587118933617,body,118843410,1701784587,0.030898097004784176,0.06392346855289899,0.049230142143216526,0.046109810560782734,0.05666630911575318,0.030192625330186313
1701784587128924640,body,128840218,1701784587,0.03718091341255844,0.0407612375882675,0.045379633856738266,0.05001430714537169,0.058791076398572346,0.030185230870980344
1701784587138898153,body,138825118,1701784587,0.03070363269797654,0.06705726870836509,0.04776601763812108,0.04739937263730453,0.06636045540891158,0.030204695517978695
1701784587148903187,body,148838312,1701784587,0.032508373229364014,0.05209078872568022,0.039127924007583234,0.05920871539914003,0.05195964994587822,0.030361738892459595
1701784587158914724,body,158842719,1701784587,0.03370643592038997,0.04771309291797517,0.03897421116792219,0.059367856611221,0.06922688582115769,0.03024759340261727
1701784587168925407,body,168837522,1701784587,0.03071415388772237,0.06654132614420841,0.04101769247610612,0.05564763588026106,0.0759161186670877,0.03030493984812538
1701784587178891546,body,178823549,1701784587,0.03140085179866892,0.058403909034287105,0.03978809310043849,0.05782280637216428,0.06571570227082324,0.030200742074355125
1701784587188920019,body,188807690,1701784587,0.032711167005655024,0.05115566205681485,0.04046694378872719,0.056690100528278116,0.06323117679693276,0.030183979171243675
1701784587198912639,body,198835085,1701784587,0.037900193259253354,0.03971138520552064,0.03633657617350282,0.0656122439695653,0.07090589116027388,0.03026309829634171
1701784587208923802,body,208833403,1701784587,0.03684451065624539,0.04127947049866693,0.039917870449058035,0.05776933443779952,0.05032295429349811,0.030481540944917392
1701784587219042467,body,218869898,1701784587,0.035141896709991044,0.04426939642861393,0.04150676230636542,0.055079694287505976,0.05729253253493325,0.03019444097138747
1701784587229102813,body,228923493,1701784587,0.0347041707367508,0.045266031684072755,0.039320338988201406,0.05890085769841411,0.048209956356381665,0.030687983515226627
1701784587239086871,body,238911791,1701784587,0.03179557596998439,0.05554208349509054,0.03886808667185984,0.0595262660145563,0.07541109023106068,0.030305994124872667
1701784587248986045,body,248861327,1701784587,0.03489561045426265,0.04474870394575158,0.041232287711109365,0.055448349776953725,0.06532566851636039,0.030208892653380764
1701784587259017813,body,258881738,1701784587,0.035470092164658816,0.04359999857297533,0.0382795751158594,0.06093363783305035,0.056309090875989135,0.03020445464100465
1701784587268970251,body,268855626,1701784587,0.033020907881395375,0.049945614626324644,0.041250437911663884,0.05538460549493862,0.0687656074421221,0.03024299068536947
1701784587278982475,body,278857899,1701784587,0.03143511524529707,0.05817657538182434,0.04054213161322202,0.056553241701268867,0.062480806997422846,0.030174207332735316
1701784587289032525,body,288933978,1701784587,0.03395282027619602,0.04710428681503275,0.04439420256092502,0.051135861000509215,0.05872562534905625,0.03018162751561851
1701784587298933516,body,298846228,1701784587,0.037151074119076,0.040872074205800406,0.04404789173615162,0.05167766348916798,0.04366814267021153,0.0314878767631716
1701784587308955676,body,308859313,1701784587,0.03385067190382756,0.047391218636685606,0.04122070835585406,0.055524468497906015,0.05698126709483684,0.030197651648501345
1701784587319041774,body,318921812,1701784587,0.03945209661446305,0.03800768520931129,0.037179670228104734,0.0634455369533623,0.059095093866278516,0.030173434385104406
1701784587328946480,body,328849739,1701784587,0.03475773349917353,0.04514969830780785,0.04371937020388788,0.05203906727368589,0.049987338163850197,0.03051313099595256
1701784587339096005,body,338930693,1701784587,0.033377778655527796,0.048848741652805755,0.045258291193590865,0.05015179864686928,0.05468635429171355,0.03025180258616308
1701784587349159801,body,348960767,1701784587,0.03780411987690025,0.03994007262033581,0.04050715247448677,0.05674939124504514,0.050521007444736386,0.0304667984526012
1701784587359136848,body,358962984,1701784587,0.033853224763823006,0.0473688783980523,0.040126080815898496,0.05734590656129342,0.05769931506702604,0.030186989898081096
1701784587369087829,body,368903988,1701784587,0.03358901099807865,0.0482157211692012,0.04404914147381261,0.051628117375976806,0.049973652638328404,0.03051349041541298
1701784587379108589,body,378914430,1701784587,0.03950115786757904,0.03805440462848883,0.0449262883490971,0.05061216835346585,0.03886804158319098,0.0332240037472903
1701784587389185985,body,388941623,1701784587,0.04016599869346028,0.037415202794067494,0.04413165095476966,0.0515859782908614,0.03869551472117132,0.03331099023089309
1701784587399106438,body,398916268,1701784587,0.03357608548206582,0.04821008253030227,0.04594067491768295,0.049390375420619,0.05653699002909468,0.030207599786724146
1701784587409124823,body,408894427,1701784587,0.0425518809122145,0.035458177445023845,0.03615403701277213,0.06624959176573102,0.05832086437315567,0.030172274491885087
1701784587419154533,body,418957856,1701784587,0.03284285541052434,0.05071349211944157,0.03918593703987435,0.05906035009730523,0.05297921941135688,0.030310258164988776
1701784587429097644,body,428909743,1701784587,0.03692515347110955,0.04117547458251068,0.04048938864041666,0.05678545124685525,0.04738518512246249,0.03079816058441427
1701784587439010602,body,438849913,1701784587,0.05207700510061483,0.03185947597662189,0.04120665567068338,0.05557486172595305,0.04010617711470023,0.0326159507247983
1701784587449085779,body,448901679,1701784587,0.039045148458362856,0.03853006834895049,0.04668601766042912,0.048687448816311055,0.038188864662209714,0.033593796113483336
1701784587459084170,body,458895952,1701784587,0.034574114620293334,0.04555624395516615,0.041792747673467065,0.05469270384417718,0.05207424709761637,0.030365161704876662
1701784587469064558,body,468899336,1701784587,0.03684512060762672,0.04130817894714858,0.040333819233507616,0.05707474013934819,0.04460205360517653,0.03127165644808014
1701784587479120085,body,478943041,1701784587,0.03671393508066037,0.04154325012337147,0.0448231875263885,0.050753227956693715,0.03612657938914809,0.03505729462081939
1701784587489086259,body,488839571,1701784587,0.03909901307232616,0.038460237641659005,0.0395379032138978,0.05856234058849782,0.03671513287211868,0.0345728274612442
1701784587499011141,body,498879696,1701784587,0.0356687473532382,0.04330942311452811,0.046026599744309976,0.04939006099519666,0.04352384992041522,0.03152180568670731
1701784587509012607,body,508879018,1701784587,0.0385517721977861,0.03901898767087201,0.03763987601406305,0.06243600277822189,0.04933177296235586,0.030564499873883277
1701784587519011096,body,518879018,1701784587,0.030972068241210345,0.06273283366195455,0.04601425542521672,0.04920470908123464,0.06594935320118313,0.030205234681768597
1701784587529028583,body,528896841,1701784587,0.034861899647418246,0.0448991163175353,0.03676477245352943,0.06468547097693335,0.04675683595165301,0.030874682240006904
1701784587539076138,body,538894917,1701784587,0.0358078386271631,0.04304020245970133,0.04706017750647248,0.04827556708221888,0.04682770688898013,0.03087877877587535
1701784587549084870,body,548881703,1701784587,0.036784648005360375,0.041361221848984595,0.043547509832128024,0.05224728125429988,0.05516347434867343,0.030239405942453303
1701784587559106192,body,558937886,1701784587,0.03232128419713425,0.052935625595989244,0.03544574909910329,0.06865993419585965,0.04552007653036929,0.031069475788639233
1701784587569153413,body,568964460,1701784587,0.04514910737063847,0.0340666410119129,0.04049905769935648,0.05679380175319971,0.03817544981446894,0.03358827170861039
1701784587579047533,body,578921083,1701784587,0.04015555249455602,0.03739156800553838,0.037432729587941915,0.06299003357668484,0.04308503335220148,0.031621364721003985
1701784587589018940,body,588862713,1701784587,0.040095385347901996,0.03747945953400059,0.042280805506390164,0.05405284865466479,0.0375176631361747,0.03401382276975509
1701784587599025393,body,598876589,1701784587,0.032215875265704734,0.05357487222607242,0.043635904140229165,0.052185312148052033,0.03200438873958448,0.04115111830610021
1701784587608967402,body,608846196,1701784587,0.030919242269920977,0.06342614332241911,0.046328565811259874,0.04885784059978455,0.06636100796574028,0.030209520767254968
1701784587618995827,body,618871259,1701784587,0.03609995936366276,0.04245153480556344,0.03681733514360505,0.0644594076636959,0.052553023633044225,0.0303283237616983
1701784587628996033,body,628884776,1701784587,0.036035850044458445,0.04264704672420068,0.04788989830438703,0.047476151055600595,0.041880859896787394,0.03198922193464053
1701784587639030659,body,638894211,1701784587,0.03942936564530426,0.03812865468124759,0.04514398113182314,0.050360799710201035,0.0386656778597848,0.033330292858291435
1701784587649054500,body,648896970,1701784587,0.04708473796265493,0.0332048471316202,0.04118527044725222,0.055558458816534734,0.0539841950830602,0.03026614499331777
1701784587659001981,body,658863940,1701784587,0.039874660004068786,0.03763566926140713,0.03726715735866536,0.06337035958841078,0.04794556358296449,0.030713935135984045
1701784587669025186,body,668869110,1701784587,0.04089237057043013,0.036735436356442434,0.03703122863797958,0.06395907443690224,0.0474236866606117,0.030779508993750194
1701784587679166993,body,678978343,1701784587,0.03314825434148598,0.04952389428022554,0.04058246062426747,0.05651846767264203,0.06407726543482431,0.030192379136983565
1701784587689046478,body,688895140,1701784587,0.03805238941431409,0.03964009726786157,0.03721224952272856,0.06352864037705391,0.0429906164612433,0.03164756914241586
1701784587698981892,body,698877027,1701784587,0.03219299611679579,0.053724047960560864,0.04508454502598228,0.050428084126695694,0.03647311613276655,0.03475819248625262
1701784587709057813,body,708873313,1701784587,0.03631707814497232,0.04212548316520176,0.04371561272333166,0.05204022268613497,0.0511924147460349,0.03042114680988668
1701784587718920778,body,718811375,1701784587,0.036023822363527566,0.04254449512042591,0.04176206316504841,0.05465404595950494,0.06658517561409642,0.030221815973473714
1701784587728943382,body,728844252,1701784587,0.032790498475883924,0.05092836737400982,0.04074140119314515,0.05633988163964032,0.05292405789253986,0.030313952285209847
1701784587738940175,body,738854836,1701784587,0.037723289464351425,0.04005398394833265,0.04002270787768216,0.05761490033087086,0.047902333161885365,0.030729257466793523
1701784587748970573,body,748869225,1701784587,0.04113414009695638,0.03653959633106674,0.03838081973313916,0.060768049396825445,0.0483644567418391,0.030666518510675804
1701784587758945763,body,758848591,1701784587,0.03498994413806895,0.04468929211158354,0.041001652462892724,0.05601131586509982,0.03580485340754235,0.03532250924486133
1701784587768965427,body,768861462,1701784587,0.04488711650579718,0.03416017299621867,0.034456440179213045,0.0726103363470692,0.03433152482772852,0.036849886991353935
1701784587778964406,body,778857850,1701784587,0.03497689539996524,0.04464245517564658,0.045079824311204976,0.05035916198848908,0.05497439285343568,0.0302445532002082
1701784587788999479,body,788869089,1701784587,0.03809186063913632,0.03951025328637169,0.036786107621683585,0.06444973855220161,0.06128551883206497,0.03017128178452666
1701784587799343241,body,799147710,1701784587,0.03908135616201793,0.038448232295965334,0.03754354814789193,0.06270268482412268,0.04518086335168361,0.03114555695774156
1701784587808979919,body,808851179,1701784587,0.0342702571247355,0.04632007335345399,0.039097621617789936,0.059331725674873326,0.04693868412708816,0.030854135773650128
1701784587819048503,body,818888110,1701784587,0.041517211322136496,0.036286501622896816,0.045427353739259616,0.05004891534783567,0.03855045069002131,0.033391019305698016
1701784587829058275,body,828885838,1701784587,0.044028895560566265,0.034625536145197464,0.03657277595276031,0.0652347799655009,0.035837931727927146,0.035270757843644286
1701784587839138598,body,838970563,1701784587,0.03340471083013172,0.04866803301141945,0.04150176191514105,0.055032708140965586,0.06564513227249845,0.030209978079550576
1701784587849095647,body,848890960,1701784587,0.04135155709570099,0.03640555412718495,0.04337289934703167,0.05252879616129668,0.04191122102865475,0.03197376292236579
1701784587859108106,body,858906653,1701784587,0.037655701215738586,0.04015217317023741,0.04266912174230057,0.05346115275571774,0.04916615491715786,0.030590584804912446
1701784587869121738,body,868934424,1701784587,0.03528599259577737,0.04407212984894954,0.045560983244671734,0.04990799225887677,0.03914815616078874,0.033087754314333945
1701784587879193920,body,878925228,1701784587,0.03249891466120376,0.05222505259322934,0.04307302589045919,0.05291313395497429,0.04478599746346438,0.031227870989070778
1701784587889085021,body,888916634,1701784587,0.035670493295057955,0.04324846494407088,0.044503535748064475,0.05104785669246597,0.05493993876167059,0.030243999016192326
1701784587899254965,body,899046506,1701784587,0.03215958757196247,0.05375783011517991,0.04510594738016923,0.05030774799700931,0.05340816908540472,0.03029420918131279
1701784587909038025,body,908840398,1701784587,0.04186982892769316,0.03599234950149137,0.035415006072727455,0.06887485694681085,0.03613771366921439,0.035004996510169986
1701784587919030710,body,918872605,1701784587,0.045026262505802384,0.03411488286415286,0.037875747798258086,0.061936458704005305,0.039948040420221514,0.03269256087181119
1701784587929250156,body,929052594,1701784587,0.03470479416172503,0.045217247229979274,0.04380665698001082,0.05187439551260965,0.05906639686958351,0.030181733156149228
1701784587939068663,body,938931888,1701784587,0.03394133932123713,0.04724510790543115,0.04153559322436246,0.05517879022651514,0.038685233550406026,0.03331636289780271
1701784587949060920,body,948901832,1701784587,0.03957017825517401,0.03792327877768815,0.038757214907227486,0.05996072963825253,0.03035767900259741,0.050443209437607855
1701784587959193234,body,958947886,1701784587,0.04170051222015628,0.03611329023903777,0.044318942172567995,0.05129179565380753,0.050198472185895314,0.03049491934325377
1701784587969077509,body,968901102,1701784587,0.03518538210406954,0.04425866468096083,0.04150098130991704,0.0552128272075242,0.042133482600857614,0.03190544817502647
1701784587979065227,body,978891188,1701784587,0.03423664476025169,0.046262855737595907,0.034464732928884224,0.07223894384675746,0.06132298470136785,0.030162470922936637
1701784587989147100,body,988947318,1701784587,0.03124017898561174,0.05965439399496472,0.03841945039901704,0.06039696844209705,0.07557057135755846,0.030303876162751882
1701784587999233527,body,999030100,1701784587,0.032516358805130346,0.052099205140628685,0.04211198294887202,0.05420745916560124,0.049543559550038745,0.03054737317268588
1701784588009002117,body,8865591,1701784588,0.03283238241073812,0.050873728304802635,0.04673492595357592,0.048624196947130625,0.04273250988100713,0.03172777707403829
1701784588019043349,body,18890273,1701784588,0.03800045881698743,0.039709179533842086,0.04442244473567669,0.051175731118029394,0.048028365723329136,0.03071632354092186
1701784588029013821,body,28877267,1701784588,0.039967985042011205,0.03755541349557044,0.037058668955376885,0.06389023867771676,0.045627421141231195,0.031059961581672273
1701784588039123906,body,38911796,1701784588,0.03655957992803522,0.04175479680989201,0.04156241202392036,0.05509327884004407,0.045498038693440095,0.031091349666190933
1701784588049159145,body,48970679,1701784588,0.04970374940343257,0.032378621292579665,0.03657631073147151,0.06509378349614439,0.031223421753728595,0.043713404096566814
1701784588059077481,body,58909792,1701784588,0.037500761793181285,0.04039896288452981,0.04505562887079307,0.05047364146375143,0.03463325247553436,0.036550174830823116
1701784588069191323,body,68989066,1701784588,0.03276775562873959,0.050980864461154046,0.04101668635278147,0.05583553683800558,0.05864327920963229,0.03017699934360115
1701784588079052283,body,78886475,1701784588,0.033743434975959545,0.04760734012924373,0.03786785074449789,0.06173392687582876,0.06825696957058863,0.030234554733992846
1701784588089070548,body,88902287,1701784588,0.03189979609220924,0.0551121157056301,0.04436481982300954,0.051169281098260605,0.05939542202525246,0.030173049728984318
1701784588099239364,body,98976876,1701784588,0.04275938822277901,0.035381385954280004,0.03745061538654615,0.06292661853810959,0.03215746431225349,0.04072295671220927
1701784588109121748,body,108926398,1701784588,0.05067570756470804,0.03212416826905684,0.03450666930724624,0.07223442443711907,0.03155050464797563,0.0424188725269998
1701784588119226665,body,119018168,1701784588,0.43642961207431136,0.030528296610851293,0.03000193013479392,0.9999999999879199,0.7654289611059418,0.03069705168649796
1701784588129130662,body,128906083,1701784588,0.4317830794051773,0.030012077165859883,0.030001929985617612,1.0,0.758190969581578,0.030018711254351026
1701784588138991842,body,138863964,1701784588,0.42738915451376364,0.030011508845176168,0.03000192998396357,1.0,0.7603097322881017,0.03001967140614928
1701784588149164932,body,148986167,1701784588,0.42679595434129836,0.030002631699524752,0.03000192998679081,1.0,0.7522103103370406,0.030011585974823028
1701784588159062467,body,158903139,1701784588,0.4329190829814749,0.030030934433088408,0.030001929991901582,0.9999999999995186,0.7511154811687378,0.03006553743094387
1701784588169060706,body,168922722,1701784588,0.4423214153134921,0.030021790818594185,0.03000192999413392,0.9999999999991154,0.7537330746606844,0.030110112735858407
1701784588179045527,body,178912896,1701784588,0.45120905741887224,0.030022978032115104,0.030001929992828448,0.9999999999993509,0.7600043190554943,0.030063532831892774
1701784588189065622,body,188928597,1701784588,0.46600998948130856,0.030004718251329877,0.03000192998642939,1.0,0.7580252861083291,0.03001682597519086
1701784588199104513,body,198899724,1701784588,0.476820568535285,0.030000098334515602,0.030001929988954613,1.0,0.7600665547864395,0.030000329045392963
1701784588209000109,body,208861912,1701784588,0.4924697637691506,0.030067401615692255,0.030001929971292935,1.0,0.7583846626414571,0.03001971398354829
1701784588219192098,body,218937109,1701784588,0.51016856172165,0.030059350669530797,0.030001929985552265,1.0,0.7501284532034347,0.03001133391618671
1701784588229168271,body,228973908,1701784588,0.5219130686067105,0.030058442164427948,0.0300019304940144,0.9999999999088514,0.7448795337814478,0.03001268717038011
1701784588239086933,body,238902201,1701784588,0.5202781432768587,0.030062575496074606,0.03006364795614969,0.8944587227482419,0.6737946314188688,0.030026878998840587
1701784588249301596,body,249058946,1701784588,0.5159716623584706,0.03006321250368715,0.03006760912933769,0.8453611456358372,0.6336221177315018,0.03002899109234517
1701784588259095888,body,258898804,1701784588,0.479396288946121,0.030070105689476753,0.030084334004674272,0.7041165419701544,0.5457468266531816,0.030035198523638878
1701784588269067761,body,268913488,1701784588,0.45575762639218004,0.030075415186209202,0.030095498412594106,0.6412617791381093,0.4978451224270097,0.030039879200036566
1701784588279046434,body,278861956,1701784588,0.4327829587208155,0.03008130761686334,0.030114479842101072,0.5631854573219294,0.4461210648093388,0.030046433211774404
1701784588289074637,body,288930007,1701784588,0.39603171599617887,0.030092550137852166,0.030135902295554406,0.5004389354735219,0.3988862715422487,0.03005434453412471
1701784588299093126,body,298915278,1701784588,0.3669437299494286,0.03010348510529107,0.030160614053929426,0.447362168612408,0.3484710831457686,0.030065785124330377
1701784588309189784,body,308968681,1701784588,0.34204383374122244,0.030114731219585737,0.030202312222737282,0.38428984710177827,0.2960556665039138,0.0300827929757468
1701784588319093115,body,318920982,1701784588,0.30744719399273546,0.030134113017064493,0.030271918897287777,0.31711377791347745,0.23095192669427364,0.030116755043255256
1701784588328999374,body,328868937,1701784588,0.2665547455303651,0.030164480543108947,0.030348369688408226,0.26966325847716677,0.174070671925819,0.03016933222553483
1701784588339035956,body,338894023,1701784588,0.23675165999476602,0.030192140623355686,0.030505151481130845,0.2094766626587496,0.12635177590772867,0.03024863577125452
1701784588349110038,body,348941030,1701784588,0.1919750103323536,0.030259700219799766,0.030667111310211388,0.17527356919722112,0.09060769630625233,0.030330914350809177
1701784588358990257,body,358856845,1701784588,0.16054047612370873,0.030326104487380465,0.03128454315350635,0.10949819409487736,0.030202656262024303,0.06451428447940459
1701784588368995118,body,368870086,1701784588,0.13684741396658312,0.03041166109445025,0.03277885690209844,0.08074745485000843,0.030313560295822897,0.11115269848757421
1701784588379208633,body,378968466,1701784588,0.10518459410537158,0.030583913270750628,0.05965717983567072,0.038901588555469435,0.03025367452741637,0.1384999750467527
1701784588389198651,body,388932680,1701784588,0.07940279886231996,0.030595933758933696,0.0968586561893193,0.031331627802939924,0.030191354630038504,0.1666838532514459
1701784588399073771,body,398913807,1701784588,0.04280108708286482,0.035120181844140445,0.10195489644936268,0.03118537011998659,0.030193670674626288,0.17375383392010113
1701784588409052459,body,408886962,1701784588,0.030442755853166227,0.07296433480769296,0.1310553563978508,0.030673372455059494,0.03017132597293455,0.18169129849701887
1701784588419147058,body,418954107,1701784588,0.030371753877046048,0.08838522502590193,0.16564869298464607,0.03045479629904525,0.030136688188893035,0.21259191227094495
1701784588429063120,body,428900663,1701784588,0.030636012782017955,0.06672856356529784,0.1868494536138789,0.03038839997140496,0.03013011696575271,0.22808562382177164
1701784588439224914,body,439007034,1701784588,0.030371804388239172,0.08625274876969544,0.19189194286800026,0.030358666688057045,0.030118809929380323,0.23775345234415898
1701784588449002117,body,448873055,1701784588,0.030473319943512517,0.07155316487156434,0.19789582607092018,0.030349706217968647,0.03011959551990844,0.24140084365017467
1701784588458989594,body,458872740,1701784588,0.030622768373668452,0.06701486901782047,0.20370983209519225,0.030336315885132633,0.030109642157766344,0.2593316129246848
1701784588469034039,body,468881574,1701784588,0.030378955618226625,0.07944725805635916,0.22384684167701133,0.030280241613140545,0.03011000932821748,0.25436433412961323
1701784588479013593,body,478877332,1701784588,0.03038077035614665,0.07907948905956824,0.23443134604408877,0.030259370367925188,0.030107863672517467,0.2582845794005077
1701784588489070155,body,488892319,1701784588,0.03161131579148282,0.055945039897913565,0.23302796342633889,0.03027429607833209,0.030106412241172,0.2698292603974901
1701784588499170314,body,498923409,1701784588,0.031298721973757763,0.05825804098923526,0.2498406599117375,0.030242722102351394,0.03010532720184477,0.27103477389184816
1701784588509021549,body,508868923,1701784588,0.031216534177030065,0.05894343617787619,0.2640978760285811,0.030220613142633197,0.03010275626793409,0.2756997879153639
1701784588519051840,body,518866005,1701784588,0.04364993245319218,0.03449424735684484,0.26150083330421897,0.030228071012060636,0.03010039821070319,0.2838425448578907
1701784588529013488,body,528867569,1701784588,0.0441753925933587,0.034214461876849685,0.259720038875444,0.03023051353708066,0.030100239968870984,0.28395655310702234
1701784588539043718,body,538879866,1701784588,0.054260354441583135,0.03128559090851687,0.2568518086372574,0.030229302432773643,0.030096517057359322,0.28682995712967624
1701784588549076340,body,548889427,1701784588,0.06158462052303987,0.030702438568408465,0.25881301849998845,0.030222190830768814,0.030091725886219816,0.29366689932543383
1701784588559069947,body,558895388,1701784588,0.06862425600500553,0.03057279321916201,0.2460929287069639,0.030238210142455865,0.03009215359057905,0.28930315053059275
1701784588569189045,body,569007680,1701784588,0.07566941193380172,0.03057430441890712,0.2488353767034568,0.030230866938363698,0.03009079643285204,0.2897880084338779
1701784588579065625,body,578902286,1701784588,0.0970177686670722,0.030574780888212583,0.24463641002780157,0.03023388783047916,0.030084609432086018,0.3015405849656154
1701784588589128082,body,588913390,1701784588,0.1219885631639001,0.030462433109200823,0.23339689996134624,0.030254570317950272,0.030081238971761067,0.3116478452627064
1701784588599201021,body,598960634,1701784588,0.11831080731978147,0.030478906316899822,0.23096337040122972,0.030258784393091976,0.030083986331696153,0.3039114126580056
1701784588608974914,body,608868322,1701784588,0.11220035909209754,0.030507440812488837,0.23465589732967423,0.03025145976213472,0.030085988152273896,0.2983656540587569
1701784588619003216,body,618865475,1701784588,0.11773281839986664,0.03048145289935426,0.22685147362920108,0.03026672205731255,0.030084734653202678,0.3018817021564975
1701784588629225943,body,628955059,1701784588,0.11620962673422511,0.030488440737017238,0.224114688177937,0.03027211929854442,0.030088174563751267,0.2931323219146204
1701784588639124239,body,638941176,1701784588,0.14096659588503707,0.030387559685294982,0.20883989534571804,0.03030891779536656,0.030085027430341187,0.30250493300492837
1701784588649135381,body,648931174,1701784588,0.16373829472172982,0.030319329815822204,0.1923054942977499,0.030356102133296883,0.03008238817578033,0.310043381162648
1701784588659044814,body,658901653,1701784588,0.16771629188869863,0.030309250223156687,0.18863307061319942,0.030367759263002354,0.030084361352835657,0.304724080918424
1701784588669003715,body,668878842,1701784588,0.15836733022462535,0.030332849050320933,0.18330432614902417,0.03038508509969358,0.030089548740278662,0.2912613335521401
1701784588679027614,body,678873873,1701784588,0.16235994909136625,0.030322050357726577,0.18009718035959912,0.030396599742456166,0.030088897646845636,0.2927946518862258
1701784588689098725,body,688926346,1701784588,0.15656983844831573,0.03033743445629182,0.17865939828863203,0.030401470892978243,0.030090278298818815,0.2892620079275183
1701784588698988198,body,698867803,1701784588,0.1620753607261323,0.030322506860990545,0.17659330256133599,0.030409578530632753,0.03008938099252274,0.29145057627201176
1701784588708984937,body,708860853,1701784588,0.1589394692907305,0.03032988937918656,0.16539450102624903,0.030455240643191255,0.030093397651943018,0.2816101369238207
1701784588718979164,body,718853918,1701784588,0.16030081978390273,0.030326875212413052,0.17281748874079436,0.030424135596737952,0.03009305297677631,0.2827833473592639
1701784588729089117,body,728892979,1701784588,0.17021494156692085,0.03030090678145857,0.15404512029080342,0.030510682017142188,0.03009189529646552,0.28475033160230195
1701784588739234434,body,738906965,1701784588,0.1641114754538682,0.03031598489275059,0.1594283180851554,0.030483226477867695,0.030093819822102123,0.2805512480834042
1701784588748999475,body,748865601,1701784588,0.17989697426014453,0.03027936056174892,0.13859462937656414,0.03060320263710181,0.030095130914962222,0.2776025235110272
1701784588759172557,body,758955559,1701784588,0.17436919364160175,0.030291483093076554,0.1539307569010158,0.030511495832501956,0.03009517457765198,0.2776152868392864
1701784588769217315,body,768986370,1701784588,0.1852139771084854,0.030269099178656212,0.13097963757886832,0.03065927794395059,0.03009610854809641,0.27590225748543634
1701784588779150492,body,778945779,1701784588,0.18932674789973955,0.030261114849347816,0.13308386472915895,0.030642799324643102,0.030096300210823376,0.27540805919974154
1701784588789179684,body,788998391,1701784588,0.1886706914304687,0.030262237148744767,0.13479530657005775,0.030629938107874552,0.030096721823199498,0.2744458876060661
1701784588799103485,body,798912303,1701784588,0.18034807317859894,0.030278423402743216,0.1408818699048297,0.030588013951504567,0.030100712075632988,0.2662249797523382
1701784588808990119,body,808864150,1701784588,0.18442048381670262,0.030270452729379716,0.1341768400569634,0.03063431240122682,0.030103539865225137,0.26105761567173075
1701784588819012981,body,818867391,1701784588,0.18429529233119266,0.030271264716149777,0.12775481271388325,0.030685659838577222,0.030107672148042438,0.2540416971001154
1701784588829062891,body,828919969,1701784588,0.19134441032654503,0.030257192411380363,0.13994230844909986,0.030594451135766376,0.030103855276510837,0.26038999079741443
1701784588839025164,body,838868195,1701784588,0.1886017904676389,0.030262299961879263,0.1470243394449163,0.030550399274176108,0.030103592698619567,0.26088339172846675
1701784588849045898,body,848916919,1701784588,0.18542252876710974,0.03026840560054057,0.1482623409156315,0.03054311900545918,0.030106766288318855,0.25515538538493515
1701784588859086167,body,858906027,1701784588,0.1821398216389269,0.030274813702494456,0.14296365927012125,0.030574761722803417,0.030110450958399638,0.24874624220299807
1701784588869071931,body,868912482,1701784588,0.18640570095162115,0.030266445407247634,0.1443473185381817,0.030566442588854676,0.03011153104224239,0.24701733713033278
1701784588879188465,body,878946677,1701784588,0.18209513478744915,0.030276278999074438,0.12363132739191902,0.030724051375326442,0.03011396883084379,0.2439606956667012
1701784588889150490,body,888943105,1701784588,0.19004530716674467,0.030260817018050945,0.12407922675869897,0.03072021554049585,0.030113436163403694,0.24482264161752973
