log_time_ns,header.frame_id,header.stamp.nanosec,header.stamp.sec,pose.orientation.roll,pose.orientation.pitch,pose.orientation.yaw,pose.orientation.w,pose.orientation.x,pose.orientation.y,pose.orientation.z,pose.position.x,pose.position.y,pose.position.z
1701784585322360450,,321021556,1701784585,0.001304203283306413,0.010314295820947048,-0.007618455440501382,0.9999791979789734,0.0006717328215017915,0.005154602695256472,-0.0038125300779938698,-0.005383014678955078,-0.002649068832397461,0.0
1701784585326556135,,325188159,1701784585,0.0012145373268692555,0.00977881517358618,-0.007521800782129092,0.9999808073043823,0.0006256455089896917,0.004887068644165993,-0.0037638149224221706,-0.005275726318359375,-0.0025696754455566406,0.0
1701784585330629188,,329354763,1701784585,0.002286010750430701,0.009236254938139688,-0.0066466287362728135,0.9999831914901733,0.0011583339655771852,0.004614283796399832,-0.003328548977151513,-0.005148172378540039,-0.002621173858642578,0.0
1701784585334764602,,333521604,1701784585,0.001763254582151214,0.010233734912020623,-0.007677758911043975,0.9999791383743286,0.0009012520313262939,0.005113421007990837,-0.003843329381197691,-0.005293130874633789,-0.0026018619537353516,0.0
1701784585338835755,,337688207,1701784585,0.0016869739566876822,0.007760623418360779,-0.007391841167593803,0.9999853372573853,0.0008578159613534808,0.003877156414091587,-0.003699155757203698,-0.0052797794342041016,-0.002638578414916992,0.0
1701784585344666569,,341854810,1701784585,0.0009550825847116344,0.011851534438662157,-0.006168144021471136,0.9999776482582092,0.0004958059289492667,0.005924230441451073,-0.003086842130869627,-0.005377292633056641,-0.0026433467864990234,0.0
1701784585348200987,,346021413,1701784585,0.0014777899560484127,0.007013567244781864,-0.008230938872378711,0.9999850988388062,0.0007533160969614983,0.003503704909235239,-0.004118022508919239,-0.005283355712890625,-0.002618074417114258,0.0
1701784585351416436,,350188255,1701784585,0.0023034925741681443,0.003668645896301973,-0.00927999141729378,0.9999869465827942,0.0011602428276091814,0.0018289567669853568,-0.004642080515623093,-0.00529170036315918,-0.0024902820587158203,0.0
1701784585355319784,,354354858,1701784585,0.0033889048214727764,0.008603833060596533,-0.009620723924786762,0.999977707862854,0.0017151099164038897,0.004293696489185095,-0.00481758126989007,-0.005308389663696289,-0.0024802684783935547,0.0
1701784585359739580,,358521461,1701784585,0.005579612377301383,0.007357024131264778,-0.011701196001966039,0.9999722242355347,0.002811257028952241,0.0036621044855564833,-0.005860764067620039,-0.005373239517211914,-0.0024933815002441406,0.0
1701784585363839575,,362688064,1701784585,0.0029449209920929327,0.008920847086130338,-0.008134925795615599,0.9999807476997375,0.0014905754942446947,0.004454377572983503,-0.004073974210768938,-0.005334615707397461,-0.0025491714477539062,0.0
1701784585367899434,,366854906,1701784585,0.0002895389451963917,0.012059425310928327,-0.007418607736292066,0.9999749660491943,0.00016713168588466942,0.006029097363352776,-0.0037101006601005793,-0.00528717041015625,-0.002629995346069336,0.0
1701784585374577510,,371021509,1701784585,-0.0007398440021980731,0.007068861659827518,-0.007185095047529302,0.9999873042106628,-0.0003572197165340185,0.0035357291344553232,-0.003591209417209029,-0.005366086959838867,-0.0026085376739501953,0.0
1701784585376878694,,375188112,1701784585,0.0037764087463748913,0.0015700823915650514,-0.009704034662375589,0.9999861717224121,0.0018919893773272634,0.0007758688880130649,-0.004853470250964165,-0.005300283432006836,-0.002559185028076172,0.0
1701784585380829593,,379354953,1701784585,0.0030796043751649144,0.0054993397962297234,-0.010433076146332213,0.9999814033508301,0.0015541184693574905,0.002741593401879072,-0.005220722407102585,-0.005362033843994141,-0.002493619918823242,0.0
1701784585384493277,,383521556,1701784585,0.0023821905492367036,0.0060183219865203195,-0.009192087976980165,0.9999842643737793,0.0012049070792272687,0.003003648016601801,-0.0045995875261723995,-0.005258798599243164,-0.0024192333221435547,0.0
1701784585388656543,,387688159,1701784585,0.003399770658210439,0.008989248511960538,-0.009708965244788053,0.999976634979248,0.001721666194498539,0.004486297722905874,-0.004862047731876373,-0.005333900451660156,-0.002520322799682617,0.0
1701784585393023343,,391854763,1701784585,0.003720226298131709,0.007928911897880442,-0.01019545117904114,0.9999774694442749,0.0018802826525643468,0.003954904619604349,-0.00510502839460969,-0.00528717041015625,-0.002481698989868164,0.0
1701784585397068772,,396021604,1701784585,0.005050438187034337,0.008032992207937543,-0.00974378178178328,0.9999768733978271,0.0025447336956858635,0.004004122223705053,-0.004881958942860365,-0.005266666412353516,-0.0025081634521484375,0.0
1701784585404247114,,400188207,1701784585,0.003063303801806978,0.007338730543629278,-0.010770857855279651,0.9999775886535645,0.00155137968249619,0.0036610509268939495,-0.005390980280935764,-0.005369901657104492,-0.002438783645629883,0.0
1701784585406483589,,404354810,1701784585,0.003909414659588266,0.001731619179851104,-0.011335884551250624,0.999981701374054,0.001959581160917878,0.0008547147735953331,-0.005669591017067432,-0.0053522586822509766,-0.002516508102416992,0.0
1701784585410199414,,408521413,1701784585,0.003623051114738587,0.007681532894560128,-0.009456112391391274,0.9999797940254211,0.001829650136642158,0.003832142800092697,-0.00473495339974761,-0.0053288936614990234,-0.002630949020385742,0.0
1701784585413752052,,412688255,1701784585,-0.00016841457267004068,0.009788878590199591,-0.008270611062966577,0.9999794960021973,-6.396569369826466e-05,0.004894725978374481,-0.004134831950068474,-0.005232572555541992,-0.0025179386138916016,0.0
1701784585417976588,,416854858,1701784585,0.0018939094364607276,0.004821998805390715,-0.008949337213179543,0.9999866485595703,0.0009577306918799877,0.0024067345075309277,-0.004476921632885933,-0.005283355712890625,-0.0024476051330566406,0.0
1701784585422033149,,421021461,1701784585,0.002256216218663978,0.006168906590943446,-0.010488549344740276,0.9999809265136719,0.001144262496381998,0.003078487701714039,-0.005247701425105333,-0.005380868911743164,-0.0024292469024658203,0.0
1701784585426936928,,425188064,1701784585,0.004021293364400854,0.007504913954967684,-0.010860430864463148,0.9999761581420898,0.0020309779793024063,0.0037414671387523413,-0.005437684245407581,-0.0052967071533203125,-0.0024034976959228516,0.0
1701784585430940490,,429354906,1701784585,0.004867110370834431,0.007573216726906824,-0.009979232358460996,0.9999773502349854,0.0024523986503481865,0.0037743987049907446,-0.0049987598322331905,-0.00526118278503418,-0.0024864673614501953,0.0
1701784585436697385,,433521509,1701784585,0.0020843161349507707,0.006742079708852695,-0.009701631428188895,0.9999819993972778,0.0010584918782114983,0.003365936689078808,-0.004854279570281506,-0.005387783050537109,-0.0024633407592773438,0.0
1701784585439049497,,437688112,1701784585,0.002397230847477947,0.0014970598692767992,-0.009356379342413339,0.9999881386756897,0.0012021033326163888,0.0007429137476719916,-0.004679064732044935,-0.005338191986083984,-0.002460956573486328,0.0
1701784585442999616,,441854953,1701784585,0.0018521226867299595,0.005784848384537241,-0.009535217359956478,0.999984085559845,0.0009398366091772914,0.002887970767915249,-0.004770246800035238,-0.005282402038574219,-0.002628803253173828,0.0
1701784585447408810,,446021556,1701784585,0.00031533422239084,0.009047789320822364,-0.007823604551350505,0.9999821782112122,0.0001753607502905652,0.004523227456957102,-0.003912465181201696,-0.005241870880126953,-0.002523660659790039,0.0
1701784585451545796,,450188159,1701784585,0.003801214411858103,0.006150100094859617,-0.009337542364667367,0.9999825954437256,0.0019149328581988811,0.0030661325436085463,-0.004674567840993404,-0.005361795425415039,-0.002488374710083008,0.0
1701784585455337816,,454354763,1701784585,0.0029844607456098737,0.005685048663428933,-0.010025827643309145,0.9999822378158569,0.001506454311311245,0.0028350013308227062,-0.005017108749598265,-0.00537419319152832,-0.0024404525756835938,0.0
1701784585460391345,,458521604,1701784585,0.0032877944099581223,0.0067890508829748205,-0.009177427327050628,0.9999823570251465,0.0016594460466876626,0.003386935219168663,-0.004594244994223118,-0.0053141117095947266,-0.00243377685546875,0.0
1701784585467249488,,462688207,1701784585,0.0036254213485967016,0.007485213295060594,-0.009151631106216628,0.9999809265136719,0.0018298032227903605,0.003734257770702243,-0.004582543857395649,-0.005276679992675781,-0.0024864673614501953,0.0
1701784585469085532,,466854810,1701784585,0.004403410451584961,0.006000869646310585,-0.009957244063433486,0.9999806880950928,0.002216604072600603,0.002989424392580986,-0.004985172767192125,-0.005377292633056641,-0.002454042434692383,0.0
1701784585472755907,,471021413,1701784585,0.0005124277520826322,0.009766720287923891,-0.006720912264180499,0.999982476234436,0.0002726195671129972,0.0048824516125023365,-0.003361660521477461,-0.005435943603515625,-0.002541065216064453,0.0
1701784585476723164,,475188255,1701784585,0.0017491215810279514,0.012881532642558494,-0.006330499379611679,0.9999738931655884,0.0008949245675466955,0.00643791863694787,-0.0031708101741969585,-0.005267143249511719,-0.0025866031646728516,0.0
1701784585480385626,,479354858,1701784585,0.001101056120464296,0.010521486014373046,-0.0051092967460317365,0.9999827146530151,0.0005639579030685127,0.005259294528514147,-0.002557506086304784,-0.005362749099731445,-0.0025391578674316406,0.0
1701784585484790190,,483521461,1701784585,0.0015945779478137598,0.007035466254808065,-0.00774657317148221,0.9999859929084778,0.0008109030895866454,0.003514610230922699,-0.0038760562893003225,-0.0052988529205322266,-0.0025107860565185547,0.0
1701784585488798027,,487688064,1701784585,0.0033594617262989054,0.006654172876806788,-0.007901375721525872,0.9999852180480957,0.0016928518889471889,0.0033204136416316032,-0.003956238739192486,-0.005347728729248047,-0.0024852752685546875,0.0
1701784585493184567,,491854906,1701784585,0.001916799948664304,0.007376550389932353,-0.00642185905978672,0.9999876022338867,0.0009702310780994594,0.0036851686891168356,-0.0032144354190677404,-0.005352973937988281,-0.002505064010620117,0.0
1701784585498893250,,496021509,1701784585,0.0020209643633491083,0.009946428514694055,-0.006151729347953244,0.9999823570251465,0.0010257615940645337,0.004970059730112553,-0.0030808455776423216,-0.0053365230560302734,-0.0026252269744873047,0.0
1701784585502027968,,500188112,1701784585,0.0012255544853263093,0.009510409868679405,-0.005772984318207113,0.9999843835830688,0.0006264934781938791,0.004753397312015295,-0.0028893686830997467,-0.005225181579589844,-0.002482891082763672,0.0
1701784585505620022,,504354953,1701784585,0.0016560409090047373,0.01064960228700027,-0.00619997245918186,0.9999806880950928,0.0008445113198831677,0.00532218161970377,-0.0031043451745063066,-0.005316019058227539,-0.002547025680541992,0.0
1701784585509822024,,508521556,1701784585,0.0006512161750732421,0.008246783578399369,-0.005048754855910849,0.999988317489624,0.0003360132104717195,0.0041225445456802845,-0.002525695599615574,-0.005368709564208984,-0.002522706985473633,0.0
1701784585513668587,,512688159,1701784585,-0.0010783340749704231,0.014012987932715923,-0.004753569302329723,0.9999725818634033,-0.0005224994383752346,0.00700769666582346,-0.0023729458916932344,-0.005401611328125,-0.00252532958984375,0.0
1701784585517935302,,516854763,1701784585,0.0006193600256913961,0.010614452931783055,-0.003913631592093242,0.9999840259552002,0.0003200602368451655,0.005306584760546684,-0.001958430279046297,-0.005434513092041016,-0.002594470977783203,0.0
1701784585522189619,,521021604,1701784585,0.002022877243689422,0.013397194487911802,-0.004559725075122215,0.9999744296073914,0.0010266848839819431,0.006696220487356186,-0.0022865834180265665,-0.005334138870239258,-0.002574443817138672,0.0
1701784585528838763,,525188207,1701784585,-0.001315555655472424,0.013004820173382257,-0.003305027902952639,0.9999772906303406,-0.0006470177322626114,0.006503440905362368,-0.001648200792260468,-0.005490779876708984,-0.0025691986083984375,0.0
1701784585530774346,,529354810,1701784585,0.0021803507360569773,0.009640208422567529,-0.004213899130418416,0.9999855756759644,0.0011003157123923302,0.00481777498498559,-0.0021121769677847624,-0.005369424819946289,-0.0025854110717773438,0.0
1701784585534863194,,533521413,1701784585,0.0010916103971685715,0.010218821986787573,-0.005272804799812544,0.9999833106994629,0.0005592665402218699,0.005107931327074766,-0.0026391532737761736,-0.0053005218505859375,-0.0025403499603271484,0.0
1701784585538784697,,537688255,1701784585,0.0006851391789223445,0.007752274578173104,-0.0040217063766646985,0.9999904632568359,0.0003503606130834669,0.003875430440530181,-0.002012164331972599,-0.005328655242919922,-0.002482175827026367,0.0
1701784585543421394,,541854858,1701784585,0.0012563691906398358,0.009927448411729982,-0.004897648110658659,0.9999845027923584,0.0006403301376849413,0.004962149541825056,-0.0024519090075045824,-0.005339622497558594,-0.002533435821533203,0.0
1701784585547032180,,546021461,1701784585,0.0017731448830057533,0.011975721139321188,-0.003587120488482445,0.999980092048645,0.0008972944924607873,0.00598622253164649,-0.0017988350009545684,-0.005361318588256836,-0.002590656280517578,0.0
1701784585551265959,,550188064,1701784585,0.0009454733302493245,0.010329591364218052,-0.003712076044497918,0.999984860420227,0.00048231551772914827,0.005163885653018951,-0.0018584534991532564,-0.005380868911743164,-0.0025467872619628906,0.0
1701784585558270720,,554354906,1701784585,0.002362628809536159,0.009089826103712523,-0.003847232255222135,0.9999871253967285,0.0011900423560291529,0.00454261340200901,-0.0019289626507088542,-0.0054168701171875,-0.002617359161376953,0.0
1701784585560343700,,558521509,1701784585,0.0030577109134303075,0.011436542684320733,-0.0037231127260048775,0.9999808073043823,0.0015394719084724784,0.005715377163141966,-0.0018702648812904954,-0.005322456359863281,-0.0025708675384521484,0.0
1701784585564186821,,562688112,1701784585,0.0015353490596267015,0.011376174060885777,-0.004045791554293057,0.9999815225601196,0.0007791667594574392,0.00568648986518383,-0.0020272275432944298,-0.005347013473510742,-0.002546548843383789,0.0
1701784585567952809,,566854953,1701784585,0.0008430679133394822,0.008918483138635653,-0.0030009749960325624,0.9999889135360718,0.0004282202571630478,0.004458588548004627,-0.0015023514861240983,-0.0053670406341552734,-0.002488851547241211,0.0
1701784585572217507,,571021556,1701784585,0.0017551062269831235,0.00917296519041923,-0.004280808586381817,0.9999868869781494,0.0008873585611581802,0.004584575537592173,-0.002144403988495469,-0.005353212356567383,-0.002552509307861328,0.0
1701784585576614197,,575188159,1701784585,0.00031196639756479505,0.00954463498741488,-0.0028710476793736015,0.9999876022338867,0.0001628320023883134,0.004772070329636335,-0.001436251332052052,-0.005405902862548828,-0.0025589466094970703,0.0
1701784585580505228,,579354763,1701784585,-0.0025819215920881394,0.012959464615915649,-0.002047270261009898,0.999977707862854,-0.001284299767576158,0.006480999290943146,-0.001015247544273734,-0.005366802215576172,-0.002461671829223633,0.0
1701784585585915852,,583521604,1701784585,0.002181221233410766,0.009257464954809017,-0.0033793073861826694,0.9999873042106628,0.0010984180262312293,0.00462686363607645,-0.0016946818213909864,-0.00541996955871582,-0.0026040077209472656,0.0
1701784585590174527,,587688207,1701784585,0.0024770805173767604,0.011450801517012998,-0.002850429610983083,0.9999818801879883,0.001246678177267313,0.005723593756556511,-0.0014322808710858226,-0.0053441524505615234,-0.00252532958984375,0.0
1701784585594103421,,591854810,1701784585,0.0011207932832287667,0.011537506760680612,-0.0034971943278415264,0.9999816417694092,0.0005704736104235053,0.005767731927335262,-0.001751799718476832,-0.005366802215576172,-0.002518177032470703,0.0
1701784585597155947,,596021413,1701784585,0.000413487727143113,0.005455643702081723,-0.003937023256746036,0.9999943375587463,0.00021211242710705847,0.0027274060994386673,-0.0019690669141709805,-0.005424022674560547,-0.0024220943450927734,0.0
1701784585601185251,,600188255,1701784585,-0.0035292043881023686,0.013639203835275959,-0.0022231162141862623,0.9999746084213257,-0.0017569788033142686,0.006821495480835438,-0.001099496497772634,-0.0053517818450927734,-0.002441883087158203,0.0
1701784585605419636,,604354858,1701784585,0.0009169880064670023,0.010157729632170825,-0.002957217284807912,0.999985933303833,0.0004659971746150404,0.0050781588070094585,-0.0014809174463152885,-0.005423069000244141,-0.002500295639038086,0.0
1701784585610098020,,608521461,1701784585,0.0031267220203843845,0.009241070699948676,-0.004412018701512806,0.9999856948852539,0.001573532703332603,0.004617053084075451,-0.0022132047452032566,-0.00530552864074707,-0.002452373504638672,0.0
1701784585613893828,,612688064,1701784585,0.0015161269613034067,0.010264692476457804,-0.004413906312588419,0.9999841451644897,0.0007693783263675869,0.005130636505782604,-0.0022108121775090694,-0.005478858947753906,-0.002471923828125,0.0
1701784585620106438,,616854906,1701784585,0.0003815956441164961,0.007984338237543654,-0.0023445497614602135,0.9999912977218628,0.00019547608098946512,0.003991932142525911,-0.0011730269761756063,-0.005379199981689453,-0.0024690628051757812,0.0
1701784585622389014,,621021509,1701784585,-0.00012986146864923045,0.011512307203456234,-0.0028144850325826183,0.999982476234436,-5.682933624484576e-05,0.005756207276135683,-0.0014068449381738901,-0.0053310394287109375,-0.002460956573486328,0.0
1701784585626561021,,625188112,1701784585,0.001760595611957877,0.010444884904475479,-0.0029605397691111557,0.999984860420227,0.0008880153181962669,0.005221107974648476,-0.0014848458813503385,-0.005347490310668945,-0.0025010108947753906,0.0
1701784585630456765,,629354953,1701784585,0.0022903507701990855,0.009290380674710236,-0.0033353067586469405,0.9999872446060181,0.001152907614596188,0.004643253982067108,-0.001672952901571989,-0.00531768798828125,-0.0024597644805908203,0.0
1701784585634597801,,633521556,1701784585,-0.0004606795133098094,0.010147717658540114,-0.0039420471054395795,0.9999852180480957,-0.00022033568529877812,0.00507428077980876,-0.001969828037545085,-0.005371570587158203,-0.0023648738861083984,0.0
1701784585638630149,,637688159,1701784585,0.0014272773850063408,0.009729014473525184,-0.0023470627070178614,0.9999872446060181,0.0007193383062258363,0.0048636458814144135,-0.0011769883567467332,-0.005426883697509766,-0.002529144287109375,0.0
1701784585643246668,,641854763,1701784585,-0.0018627890677639803,0.013852194372321524,-0.0023419286850230635,0.9999749660491943,-0.0009232612210325897,0.006927124224603176,-0.0011644845362752676,-0.005330324172973633,-0.00240325927734375,0.0
1701784585649748237,,646021604,1701784585,0.0023048981145307947,0.010321770055989837,-0.003723800414786522,0.9999843239784241,0.001162040396593511,0.005158703774213791,-0.001867820625193417,-0.005340576171875,-0.0024247169494628906,0.0
1701784585652122044,,650188207,1701784585,0.0020128832817078355,0.009896286046565521,-0.003041979838870509,0.9999861717224121,0.0010139539372175932,0.004946583416312933,-0.0015259498031809926,-0.005362272262573242,-0.002401113510131836,0.0
1701784585656020607,,654354810,1701784585,0.0021211780121136226,0.011213704165792416,-0.004109090270186592,0.9999816417694092,0.001072089304216206,0.005604628473520279,-0.0020604566670954227,-0.005300998687744141,-0.0024154186248779297,0.0
1701784585659949801,,658521413,1701784585,0.0008649131265423281,0.007786029766093103,-0.0028482174764812044,0.9999913573265076,0.0004379968740977347,0.0038923847023397684,-0.0014257808215916157,-0.005442142486572266,-0.00241851806640625,0.0
1701784585663877883,,662688255,1701784585,0.0003248734414890463,0.011057795472004334,-0.002763621346435576,0.9999837875366211,0.0001700739230727777,0.0055286395363509655,-0.0013826871290802956,-0.005377292633056641,-0.0024862289428710938,0.0
1701784585667803772,,666854858,1701784585,0.0019498123959662131,0.012959496161746941,-0.003118647302548435,0.9999773502349854,0.000984988291747868,0.006478171329945326,-0.0015656065661460161,-0.005346536636352539,-0.002428770065307617,0.0
1701784585671991639,,671021461,1701784585,0.0022735176061806283,0.00942638338671423,-0.0024196262059635876,0.9999875426292419,0.0011424471158534288,0.004711792338639498,-0.001215156284160912,-0.005238056182861328,-0.0024373531341552734,0.0
1701784585676379498,,675188064,1701784585,0.0022973830951750437,0.005965718936369023,-0.0043356548263763705,0.9999925494194031,0.0011551497736945748,0.0029803558718413115,-0.0021712409798055887,-0.005373716354370117,-0.002387523651123047,0.0
1701784585681708904,,679354906,1701784585,0.00133468549568781,0.004608256422403227,-0.0034829941956606536,0.9999955892562866,0.0006713525508530438,0.0023029600270092487,-0.0017430288717150688,-0.005417585372924805,-0.002343416213989258,0.0
1701784585685657303,,683521509,1701784585,-0.004668916649416681,0.013802932478338496,-0.0015489642726826825,0.9999732375144958,-0.0023290547542274,0.006903198082000017,-0.0007583504193462431,-0.005351066589355469,-0.0024003982543945312,0.0
1701784585688998147,,687688112,1701784585,0.0006736165115282436,0.011106827445374902,-0.002615726619737187,0.9999836683273315,0.0003440658329054713,0.0055529396049678326,-0.001309713115915656,-0.0053615570068359375,-0.002376079559326172,0.0
1701784585693176643,,691854953,1701784585,0.0017008358487598087,0.009089029488510935,-0.0019783245596102857,0.9999887943267822,0.000854903890285641,0.004543654154986143,-0.0009930162923410535,-0.005281925201416016,-0.002410888671875,0.0
1701784585697081850,,696021556,1701784585,0.0019509062007892122,0.01242603914634887,-0.0026809833665003653,0.9999793767929077,0.0009837616235017776,0.006211663130670786,-0.0013465251540765166,-0.005310773849487305,-0.00240325927734375,0.0
1701784585701083058,,700188159,1701784585,0.0016301924205728555,0.007276268090133165,-0.0025226549293693545,0.9999922513961792,0.000819678942207247,0.0036370938178151846,-0.0012642837828025222,-0.005345344543457031,-0.0024492740631103516,0.0
1701784585705484515,,704354763,1701784585,0.0017827514122700854,0.008630825947597386,-0.0023484230468360447,0.9999896287918091,0.0008964338339865208,0.004314348101615906,-0.0011780464556068182,-0.0053784847259521484,-0.0024881362915039062,0.0
1701784585711815897,,708521604,1701784585,0.0006602704229967636,0.013151463829693162,-0.0021548544981956196,0.9999778270721436,0.00033721266663633287,0.006575324106961489,-0.0010795744601637125,-0.005307912826538086,-0.002378702163696289,0.0
1701784585714176805,,712688207,1701784585,0.00025173103975789835,0.00843285833836176,-0.001284034339688967,0.9999909400939941,0.0001285713806282729,0.004216334782540798,-0.000642542087007314,-0.0052835941314697266,-0.002371549606323242,0.0
1701784585718278309,,716854810,1701784585,0.0011118382395818164,0.010035537143558813,-0.0022038780812347124,0.9999866485595703,0.0005614410038106143,0.0050171311013400555,-0.0011047142324969172,-0.005414247512817383,-0.0023522377014160156,0.0
1701784585722209113,,721021413,1701784585,-7.008050902832781e-05,0.007710390296649001,-0.0020133975714712923,0.9999921321868896,-3.115896470262669e-05,0.003855218645185232,-0.0010065559763461351,-0.0054187774658203125,-0.00235748291015625,0.0
1701784585726385349,,725188255,1701784585,-0.0015709078088014384,0.01144690267144081,-0.0009951480653175207,0.9999831914901733,-0.0007825930370017886,0.00572380842640996,-0.0004930702270939946,-0.005290031433105469,-0.0023567676544189453,0.0
1701784585730421808,,729354858,1701784585,0.0010349379330597348,0.01198210979856693,-0.001674300219042388,0.9999816417694092,0.0005224748165346682,0.0059905825182795525,-0.000840234977658838,-0.005354642868041992,-0.0024013519287109375,0.0
1701784585734527621,,733521461,1701784585,0.00044129124636277666,0.00915309632494524,-0.0005344371977392106,0.9999894499778748,0.00022186624119058251,0.004576473031193018,-0.00026822558720596135,-0.005286216735839844,-0.002373933792114258,0.0
1701784585742250858,,737688064,1701784585,-0.0033081147042284945,0.012934382291225984,-0.000715731860863896,0.999977707862854,-0.001651707454584539,0.0064677284099161625,-0.00034716090885922313,-0.005299568176269531,-0.002330780029296875,0.0
1701784585744211248,,741854906,1701784585,0.001445437941161551,0.003503124242313722,-0.0022891276950675597,0.999997615814209,0.0007247220491990447,0.0017507323063910007,-0.0011458273511379957,-0.0054590702056884766,-0.002357959747314453,0.0
1701784585747876710,,746021509,1701784585,0.0019107262647801151,0.0068067287055007105,-0.002094264426985392,0.9999932050704956,0.0009589206892997026,0.0034023539628833532,-0.0010503769153729081,-0.005310535430908203,-0.00237274169921875,0.0
1701784585751354161,,750188112,1701784585,0.0016943628351140487,0.008386403292497832,-0.0025193539150256718,0.9999901056289673,0.0008524552104063332,0.004192117135971785,-0.0012632174184545875,-0.0052947998046875,-0.0023381710052490234,0.0
1701784585755625092,,754354953,1701784585,0.001795539678943119,0.0055299233675079355,-0.0023452973497142477,0.9999951124191284,0.0009010079666040838,0.0027639023028314114,-0.0011751257115975022,-0.005367755889892578,-0.0022568702697753906,0.0
1701784585760163823,,758521556,1701784585,0.003618463982044529,0.0071871402582033075,-0.003472675859575008,0.9999904632568359,0.0018154560821130872,0.0035904094111174345,-0.0017428244464099407,-0.005410909652709961,-0.0023148059844970703,0.0
1701784585763914442,,762688159,1701784585,0.002128320540448216,0.009431475090885084,-0.0006271223066116959,0.9999882578849792,0.0010656268568709493,0.004715383518487215,-0.00031857576686888933,-0.005254268646240234,-0.0024309158325195312,0.0
1701784585768875710,,766854763,1701784585,0.0018103181694331136,0.006588714847471478,-0.0013228668511789383,0.9999939799308777,0.0009073328110389411,0.003293750574812293,-0.0006644114037044346,-0.005307197570800781,-0.002362966537475586,0.0
1701784585773652514,,771021604,1701784585,0.002666217306016218,0.0054438938964484545,-0.002986349112463667,0.9999942779541016,0.0013371661771088839,0.0027199476025998592,-0.0014967957977205515,-0.0053713321685791016,-0.0022857189178466797,0.0
1701784585777355385,,775188207,1701784585,-7.825528416114302e-06,0.008843856632131629,5.1778902000416366e-05,0.9999902844429016,-4.027206614409806e-06,0.004421913530677557,2.5906498194672167e-05,-0.005322456359863281,-0.0023593902587890625,0.0
1701784585780674551,,779354810,1701784585,-0.0007566477215431316,0.00937517536875077,-0.0006609647127403059,0.9999889135360718,-0.00037677050568163395,0.0046876948326826096,-0.00032870526774786413,-0.005445241928100586,-0.002414226531982422,0.0
1701784585784753197,,783521413,1701784585,0.002024892885216867,0.013442682215127238,-0.0008488579314976107,0.9999768733978271,0.0010152759496122599,0.006720856297761202,-0.0004312240635044873,-0.005327701568603516,-0.002394437789916992,0.0
1701784585788995396,,787688255,1701784585,0.0033990686759634986,0.009240666466816505,-0.0009781822390164596,0.999987781047821,0.0017017748905345798,0.00461947824805975,-0.0004969375440850854,-0.005296468734741211,-0.002332925796508789,0.0
1701784585793248894,,791854858,1701784585,0.00308216194785456,0.006689720990358818,-0.003190053713306484,0.9999920129776001,0.0015464047901332378,0.003342387732118368,-0.0016001699259504676,-0.00540924072265625,-0.002245187759399414,0.0
1701784585798915428,,796021461,1701784585,0.004011452126330837,0.0024596846006553247,-0.0040133366484888505,0.9999952912330627,0.00200818688608706,0.0012258121278136969,-0.002009127987548709,-0.005469560623168945,-0.0022869110107421875,0.0
1701784585804927394,,800188064,1701784585,0.003513244341886599,0.007174768142737418,-0.00215645057304809,0.9999914169311523,0.0017604769673198462,0.0035854747984558344,-0.0010845181532204151,-0.005329132080078125,-0.0023076534271240234,0.0
1701784585806748559,,804354906,1701784585,0.003045505729302702,0.008264622684737195,-0.003063432484082355,0.9999891519546509,0.0015290669398382306,0.004129957407712936,-0.0015379932010546327,-0.005419254302978516,-0.0022301673889160156,0.0
1701784585810784639,,808521509,1701784585,0.004567454900214556,0.009025699134727843,-0.0017007897147344815,0.9999868869781494,0.002287538954988122,0.004510878585278988,-0.0008606899064034224,-0.0053822994232177734,-0.0022575855255126953,0.0
1701784585814282921,,812688112,1701784585,0.0009869624926041576,0.011891126023984604,-0.0009749677075897947,0.9999821186065674,0.000496370776090771,0.005945285782217979,-0.0004904091474600136,-0.005435943603515625,-0.002332448959350586,0.0
1701784585818313172,,816854953,1701784585,0.0020777439671684794,0.0008384743254422605,-0.001199538005997775,0.9999992251396179,0.0010391229297965765,0.0004186137521173805,-0.0006002041045576334,-0.00533604621887207,-0.0023369789123535156,0.0
1701784585822354849,,821021556,1701784585,0.002344483703452071,0.0019773760024481783,-0.0017993667418783816,0.9999984502792358,0.001173130003735423,0.0009876320837065578,-0.0009008411434479058,-0.00534367561340332,-0.002324342727661133,0.0
1701784585826620233,,825188159,1701784585,0.002552870707223329,0.005566171931689654,-0.002127393181435834,0.9999948143959045,0.0012793896021321416,0.0027817205991595984,-0.0010672437492758036,-0.0053708553314208984,-0.0022628307342529297,0.0
1701784585833726418,,829354763,1701784585,0.0026578754250600194,0.00552172100851234,-0.0016872834434495734,0.9999949932098389,0.0013312608934938908,0.0027597323060035706,-0.0008473066263832152,-0.0054051876068115234,-0.0023484230041503906,0.0
1701784585835873964,,833521604,1701784585,0.003464575436666368,0.00892352649732116,-0.0023138200798127387,0.9999879002571106,0.0017374302260577679,0.004459734540432692,-0.00116462551523,-0.005434513092041016,-0.0022399425506591797,0.0
1701784585839719347,,837688207,1701784585,0.003996671049214821,0.0018531441746901243,-0.0034216570170679536,0.9999961256980896,0.0019999155774712563,0.0009231499279849231,-0.0017126750899478793,-0.0054094791412353516,-0.0022041797637939453,0.0
1701784585843476925,,841854810,1701784585,0.002559606314759275,0.002923677721995391,-0.0019023769265523413,0.9999977350234985,0.0012811912456527352,0.0014606190379709005,-0.0009530573152005672,-0.005436897277832031,-0.0022499561309814453,0.0
1701784585847664691,,846021413,1701784585,0.0030481045637368418,0.00873506800521592,-0.0012185239789305876,0.9999891519546509,0.0015266977716237307,0.004366585519164801,-0.0006159117328934371,-0.005360126495361328,-0.0022666454315185547,0.0
1701784585851620320,,850188255,1701784585,0.0035824489266052663,0.0065986806266338125,-0.0007427653549078989,0.9999929666519165,0.001792438793927431,0.0032986633013933897,-0.00037728986353613436,-0.005348682403564453,-0.0023009777069091797,0.0
1701784585855644870,,854354858,1701784585,0.00015792053947061456,0.01002733939916581,0.0005369444910358062,0.9999873638153076,7.76132510509342e-05,0.005013669840991497,0.0002680729958228767,-0.005424022674560547,-0.002338886260986328,0.0
1701784585860094357,,858521461,1701784585,0.000290916129226417,0.00840935708500599,0.0017089198196810894,0.9999908208847046,0.00014186400221660733,0.004204788710922003,0.0008538406109437346,-0.005377054214477539,-0.0023381710052490234,0.0
1701784585865972795,,862688064,1701784585,0.0015708936929171053,0.005244927637045771,-7.056608464108634e-05,0.9999962449073792,0.0007855365984141827,0.0026224323082715273,-3.7342713767429814e-05,-0.00532841682434082,-0.0023193359375,0.0
1701784585868720696,,866854906,1701784585,0.00202593296566692,0.006225594535801751,-0.0012144169787644656,0.9999945163726807,0.0010148512665182352,0.003112174803391099,-0.000610358314588666,-0.005433320999145508,-0.0022125244140625,0.0
1701784585872404118,,871021509,1701784585,0.004636918983928934,0.008908181993108721,-0.0005763251303262845,0.9999873638153076,0.0023197177797555923,0.004453395958989859,-0.0002984855091199279,-0.005372047424316406,-0.002228260040283203,0.0
1701784585877391506,,875188112,1701784585,0.0035531941006301452,0.0045791623294987455,-0.0021606180952540577,0.999995231628418,0.0017790638376027346,0.0022876549046486616,-0.0010843719355762005,-0.0054187774658203125,-0.0022068023681640625,0.0
1701784585882190370,,879354953,1701784585,0.003412283525170968,0.004096485596689449,-0.00023934928507000452,0.9999964237213135,0.001706382492557168,0.002048034220933914,-0.00012316880747675896,-0.005382061004638672,-0.0023338794708251953,0.0
1701784585885705463,,883521556,1701784585,0.0017661624751367973,0.009449153754786638,0.001071802074565986,0.9999883770942688,0.000880539184436202,0.004725029692053795,0.0005317226168699563,-0.005349636077880859,-0.0023217201232910156,0.0
1701784585889340735,,887688159,1701784585,0.003178575360884018,0.006462860730981935,-0.00043210310280099426,0.9999935626983643,0.001589976716786623,0.0032310769893229008,-0.00022118579363450408,-0.0053517818450927734,-0.0022335052490234375,0.0
1701784585896573655,,891854763,1701784585,0.003806078263257685,0.006480846118217313,-0.0010421455423672975,0.999992847442627,0.0019047161331400275,0.003239419311285019,-0.0005272356793284416,-0.005423545837402344,-0.002180814743041992,0.0
1701784585898041285,,896021604,1701784585,0.003470934161180889,0.008373383000239348,-0.000467451527647601,0.9999897480010986,0.0017364294035360217,0.0041862670332193375,-0.00024098918947856873,-0.005493640899658203,-0.002284526824951172,0.0
1701784585902297066,,900188207,1701784585,0.0020181085052658407,0.004342885740910157,0.00019412694143785747,0.9999971985816956,0.0010088408598676324,0.0021715378388762474,9.487208444625139e-05,-0.00540471076965332,-0.0021715164184570312,0.0
1701784585905906126,,904354810,1701784585,0.002331110308578137,0.005839782162913202,-0.0003341283716795425,0.9999951124191284,0.0011660376330837607,0.0029196899849921465,-0.00017046663560904562,-0.005440711975097656,-0.002174854278564453,0.0
1701784585910217416,,908521413,1701784585,0.0031823945564545195,0.0046889396373144725,0.0004081855810083104,0.9999959468841553,0.0015907137421891093,0.0023447894491255283,0.00020036146452184767,-0.005379438400268555,-0.0022475719451904297,0.0
1701784585913949957,,912688255,1701784585,0.0015923201581908662,0.008888398161877425,0.0017091821287132632,0.9999894499778748,0.000792353879660368,0.00444486178457737,0.0008510439656674862,-0.005433559417724609,-0.0023157596588134766,0.0
1701784585918038834,,916854858,1701784585,0.00016128565097690576,0.007431025195620538,0.003106711751969887,0.9999918937683105,7.487067341571674e-05,0.003715624799951911,0.0015530448872596025,-0.005403280258178711,-0.00238800048828125,0.0
1701784585924753027,,921021461,1701784585,-0.0007210634619032148,0.007574751693959843,0.003463402247952408,0.9999912977218628,-0.0003670871665235609,0.003786736400797963,0.001733053126372397,-0.005340099334716797,-0.0022668838500976562,0.0
1701784585927532522,,925188064,1701784585,0.001722045388425539,0.005879889258869006,0.0013427585749540226,0.9999951720237732,0.000859044783283025,0.0029405164532363415,0.000668844673782587,-0.005390167236328125,-0.002271413803100586,0.0
1701784585931234190,,929354906,1701784585,0.0025256579532646276,0.00633692358997264,0.0004912843290984115,0.999994158744812,0.001262043952010572,0.0031687640585005283,0.00024163951457012445,-0.0054666996002197266,-0.0021653175354003906,0.0
1701784585935042132,,933521509,1701784585,0.00322697770126498,0.007684667061513381,-0.00043356954522532243,0.9999912977218628,0.001614309148862958,0.003841969184577465,-0.00022298243129625916,-0.005423545837402344,-0.0021643638610839844,0.0
1701784585942047510,,937688112,1701784585,0.0031510612255800834,0.0029926562323490174,0.0001690433822870835,0.999997615814209,0.0015754017513245344,0.0014964588917791843,8.216398418880999e-05,-0.005524873733520508,-0.002185344696044922,0.0
1701784585944339246,,941854953,1701784585,0.002187282057230665,0.008602903826092276,0.0027705172882352023,0.9999892115592957,0.001087671029381454,0.004302946850657463,0.001380540314130485,-0.005410194396972656,-0.0022301673889160156,0.0
1701784585947876301,,946021556,1701784585,0.0030253377357511513,0.0064171955212045766,0.0008065451792289886,0.999993622303009,0.0015113664558157325,0.003209198359400034,0.0003984165086876601,-0.005424976348876953,-0.0021855831146240234,0.0
1701784585951490958,,950188159,1701784585,0.004202989623236349,0.005727018814908376,0.0003658357110612002,0.9999936819076538,0.0021009608171880245,0.0028638835065066814,0.0001768990623531863,-0.005460500717163086,-0.0021576881408691406,0.0
1701784585957449882,,954354763,1701784585,0.001163273277585799,0.007667457988446743,0.0019051734615287794,0.9999920129776001,0.000577980128582567,0.003834271337836981,0.0009503496112301946,-0.005414485931396484,-0.002208232879638672,0.0
1701784585960481206,,958521604,1701784585,0.001585030460324401,0.006995687308379608,0.003034586259133704,0.9999924898147583,0.0007872020942158997,0.0034990336280316114,0.0015145106008276343,-0.005469083786010742,-0.0022492408752441406,0.0
1701784585964510407,,962688207,1701784585,0.0028153456843901673,0.009007509065903134,0.002164800636012655,0.999988317489624,0.0014027823926880956,0.004505255725234747,0.0010760482400655746,-0.005375385284423828,-0.0022547245025634766,0.0
1701784585970439282,,966854810,1701784585,0.0031105807719691227,0.006479753571104126,0.0019164099423743656,0.999993085861206,0.0015521764289587736,0.003241355996578932,0.000953159702476114,-0.00543212890625,-0.0022058486938476562,0.0
1701784585973399756,,971021413,1701784585,0.0018551083567468444,0.007514505516598388,0.0025586931579990708,0.999991774559021,0.0009227398550137877,0.0037584255915135145,0.0012758515076711774,-0.0054721832275390625,-0.0022182464599609375,0.0
1701784585977538942,,975188255,1701784585,0.002058945950047283,0.005346740210164645,0.0030373678244256276,0.9999947547912598,0.0010254079243168235,0.0026749258395284414,0.0015159249305725098,-0.005421161651611328,-0.002232789993286133,0.0
1701784585980892425,,979354858,1701784585,0.0005746806255187983,0.004243025768191145,0.003125118634816183,0.999996542930603,0.00028402431053109467,0.0021219574846327305,0.0015619454206898808,-0.0054662227630615234,-0.0022916793823242188,0.0
1701784585987575784,,983521461,1701784585,0.0018304882556410174,0.0029634521728290836,0.0021029042278508368,0.9999979734420776,0.0009136844892054796,0.0014826863771304488,0.0010500941425561905,-0.005456209182739258,-0.002227306365966797,0.0
1701784585989563923,,987688064,1701784585,0.0035434082972556425,0.008687347808018223,0.00330605037393861,0.9999876618385315,0.0017645038897171617,0.004346576053649187,0.0016453105490654707,-0.005406379699707031,-0.0021839141845703125,0.0
1701784585994221299,,991854906,1701784585,0.00312231340214994,0.007026818594181318,0.0015557983327478464,0.9999923706054688,0.0015584127977490425,0.00351461092941463,0.0007724083261564374,-0.005456209182739258,-0.002172231674194336,0.0
1701784585997359892,,996021509,1701784585,0.0022049249050540725,0.003269146451212575,0.0019301659442150384,0.9999976754188538,0.0011008826550096273,0.0016356345731765032,0.0009632788132876158,-0.005486011505126953,-0.002162933349609375,0.0
1701784586003675594,,188112,1701784586,0.001936915475095847,0.008611557575902299,0.0031488963221242864,0.9999890923500061,0.0009616681491024792,0.0043072826229035854,0.001570262131281197,-0.0054056644439697266,-0.0022003650665283203,0.0
1701784586005919610,,4354953,1701784586,0.0025595093139821738,0.005639502681645706,0.0031790756870243362,0.9999939799308777,0.0012752654729411006,0.0028217758517712355,0.0015859209233894944,-0.0054836273193359375,-0.0022156238555908203,0.0
1701784586010368193,,8521556,1701784586,0.0006897348597007773,0.0062837460289030065,0.003847992042072475,0.9999932050704956,0.0003388201294001192,0.0031425252091139555,0.0019229016033932567,-0.005361795425415039,-0.002263307571411133,0.0
1701784586013941857,,12688159,1701784586,-0.0033623002006343576,0.008747617831930926,0.004647756274868859,0.9999862909317017,-0.0016912928549572825,0.0043698702938854694,0.0023312035482376814,-0.005501985549926758,-0.002160787582397461,0.0
1701784586017974703,,16854763,1701784586,0.0015881362126901578,0.004854297970741554,0.0037617220164314845,0.9999949932098389,0.0007894991431385279,0.002428635023534298,0.001878926414065063,-0.005452394485473633,-0.002231597900390625,0.0
1701784586022116171,,21021604,1701784586,0.0030339084068334286,0.008583887823014977,0.0019013161307646542,0.9999892115592957,0.001512858783826232,0.004293365869671106,0.0009441373986192048,-0.005477190017700195,-0.0021533966064453125,0.0
1701784586026378445,,25188207,1701784586,0.0028889549733889333,0.0029280028785149785,0.0013420452522061833,0.9999976754188538,0.0014434927143156528,0.0014649683143943548,0.0006689064321108162,-0.005474567413330078,-0.0021097660064697266,0.0
1701784586033767583,,29354810,1701784586,0.002150252233966352,0.003934539523723233,0.0020725617160248493,0.9999970197677612,0.0010730845388025045,0.001968380296602845,0.0010341629385948181,-0.005489826202392578,-0.002169370651245117,0.0
1701784586035537975,,33521413,1701784586,-0.00025614941323255245,0.007266593787499016,0.004948058925469132,0.9999903440475464,-0.00013706232130061835,0.0036329608410596848,0.00247447588481009,-0.005536556243896484,-0.0022246837615966797,0.0
1701784586039569068,,37688255,1701784586,0.001308888139543316,0.006136064450847971,0.004247464495786592,0.999992847442627,0.0006479237927123904,0.0030694096349179745,0.002121712313964963,-0.005409955978393555,-0.0022389888763427734,0.0
1701784586043421120,,41854858,1701784586,0.0016914307463430159,0.007055570548675801,0.0032061388267895763,0.9999921321868896,0.0008400536607950926,0.0035291279200464487,0.0016000746982172132,-0.005451202392578125,-0.0021715164184570312,0.0
1701784586047331377,,46021461,1701784586,0.0018869235470749892,0.008102314714197536,0.0039047226903892664,0.9999895095825195,0.0009355427464470267,0.004052978474646807,0.0019485210068523884,-0.005368709564208984,-0.002096414566040039,0.0
1701784586051468852,,50188064,1701784586,0.0021618633909047022,0.0076062797982618564,0.002563104063232189,0.9999914169311523,0.0010760488221421838,0.003804510459303856,0.0012774306815117598,-0.005498647689819336,-0.0021047592163085938,0.0
1701784586055567045,,54354906,1701784586,0.004008768268345295,0.005315914008029382,0.0015589830301563292,0.999994158744812,0.0020023032557219267,0.0026595101226121187,0.00077415956184268,-0.005549430847167969,-0.0021758079528808594,0.0
1701784586059496861,,58521509,1701784586,0.0020310894458112944,0.00672771561050476,0.0021130516184587984,0.9999933242797852,0.0010119841899722815,0.0033649206161499023,0.0010531028965488076,-0.005506753921508789,-0.002233743667602539,0.0
1701784586065773137,,62688112,1701784586,0.0026323631816745434,0.006863086231887705,0.002312956188045265,0.9999926090240479,0.001312204054556787,0.0034330531489104033,0.0011519534746184945,-0.005502223968505859,-0.0020852088928222656,0.0
1701784586068858036,,66854953,1701784586,0.00350405365873563,0.009392359396671324,0.00387752167117231,0.9999855756759644,0.0017428986029699445,0.004699543118476868,0.0019305074820294976,-0.005414724349975586,-0.0021326541900634766,0.0
1701784586072508381,,71021556,1701784586,0.002348448412159568,0.006828185039244846,0.0028297249643649642,0.9999925494194031,0.001169385388493538,0.0034157412592321634,0.0014108438044786453,-0.005474090576171875,-0.002074003219604492,0.0
1701784586076840079,,75188159,1701784586,0.0028614841339353846,0.0010024781016761176,0.0019057989792417452,0.9999984502792358,0.0014302630443125963,0.0005026016151532531,0.0009521810570731759,-0.0055010318756103516,-0.002123117446899414,0.0
1701784586080327969,,79354763,1701784586,0.0012269986898981833,0.007687719636295115,0.003920800835701286,0.9999905228614807,0.0006059581064619124,0.0038450448773801327,0.001958026085048914,-0.005481243133544922,-0.0022449493408203125,0.0
1701784586084712084,,83521604,1701784586,0.0010391879708138046,0.008132678563156403,0.005290249344228708,0.9999880790710449,0.000508831930346787,0.004067687783390284,0.002642986597493291,-0.005352973937988281,-0.002281665802001953,0.0
1701784586088794734,,87688207,1701784586,0.0009058805784215583,0.006617129765164357,0.005117084295229036,0.9999911785125732,0.0004444712249096483,0.0033097064588218927,0.002557026455178857,-0.005420684814453125,-0.0021719932556152344,0.0
1701784586094999178,,91854810,1701784586,0.0020211465399410547,0.008832145752602424,0.004396520137065899,0.9999873638153076,0.001000853138975799,0.00441826693713665,0.0021937729325145483,-0.005404472351074219,-0.0022144317626953125,0.0
1701784586097589207,,96021413,1701784586,0.0026060606055787997,0.004383613304916828,0.002839418300105158,0.999995768070221,0.001299913739785552,0.00219365069642663,0.0014168480411171913,-0.005463361740112305,-0.0020911693572998047,0.0
1701784586101510472,,100188255,1701784586,0.0021169276945869663,0.006384134917845833,0.002727068439247995,0.9999934434890747,0.0010541047668084502,0.0031935004517436028,0.0013601473765447736,-0.005499362945556641,-0.00211334228515625,0.0
1701784586105458443,,104354858,1701784586,0.0029402934593608186,0.005103844253734103,0.0033856421633796196,0.9999942779541016,0.0014658193103969097,0.002554401522502303,0.0016890611732378602,-0.00548863410949707,-0.002129077911376953,0.0
1701784586109823396,,108521461,1701784586,0.000255388902060021,0.007710498770020988,0.004476005585593895,0.9999900460243225,0.00011906515283044428,0.003855515969917178,0.0022374920081347227,-0.005506038665771484,-0.0022492408752441406,0.0
1701784586113852230,,112688064,1701784586,0.00018435412017748124,0.010706646987487562,0.005160749284159317,0.9999823570251465,7.836193253751844e-05,0.005353517830371857,0.002579841297119856,-0.00546717643737793,-0.002167940139770508,0.0
1701784586118039065,,116854906,1701784586,0.003535475898370509,0.008837038541534628,0.004371765106080728,0.9999863505363464,0.0017580571584403515,0.004422351252287626,0.0021780452225357294,-0.005434751510620117,-0.002144336700439453,0.0
1701784586126013821,,121021509,1701784586,0.002872097475653023,0.006931543865069498,0.002866975923828629,0.9999920129776001,0.0014310699189081788,0.003467816160991788,0.0014285002835094929,-0.005492687225341797,-0.002095460891723633,0.0
1701784586127407870,,125188112,1701784586,0.0016393782827263525,0.00262155465397785,0.0033606272312777345,0.9999973773956299,0.000817484688013792,0.0013121520169079304,0.0016792364185675979,-0.005484342575073242,-0.0020554065704345703,0.0
1701784586131467231,,129354953,1701784586,0.0003952027997251525,0.00886237282482079,0.0049133677339135715,0.9999871253967285,0.00018671288853511214,0.0044316439889371395,0.0024557816796004772,-0.005506277084350586,-0.002246856689453125,0.0
1701784586134849489,,133521556,1701784586,0.0013665068137765943,0.0015668106239491658,0.00453053700987008,0.9999969601631165,0.000681476725731045,0.0007849507383070886,0.0022647299338132143,-0.00545501708984375,-0.0021698474884033203,0.0
1701784586138884373,,137688159,1701784586,0.0008963928626689003,0.00874557595099765,0.005464161233290091,0.9999866485595703,0.0004362436884548515,0.0043739816173911095,0.00273009086959064,-0.0054302215576171875,-0.0022020339965820312,0.0
1701784586143173597,,141854763,1701784586,0.001994043983932293,0.006663723524839331,0.0050738346655319864,0.9999908208847046,0.0009885603794828057,0.00333437230437994,0.002533577149733901,-0.005446672439575195,-0.0021784305572509766,0.0
1701784586147198014,,146021604,1701784586,0.0034913315195512287,0.0033929982607115374,0.0034025079409631146,0.9999956488609314,0.0017427735729143023,0.0016994629986584187,0.0016982865054160357,-0.0054209232330322266,-0.002157449722290039,0.0
1701784586151377093,,150188207,1701784586,0.0018822441822499193,0.002746116532791389,0.0034273018793993587,0.9999971389770508,0.0009387667523697019,0.001374667976051569,0.0017123555298894644,-0.005556821823120117,-0.002069234848022461,0.0
1701784586156954525,,154354810,1701784586,0.0021463519388821048,0.007179002824446161,0.0050997960588812325,0.9999897480010986,0.0010640125256031752,0.003592216409742832,0.0025460252072662115,-0.0054798126220703125,-0.002221822738647461,0.0
1701784586160497818,,158521413,1701784586,0.001887184235174577,0.006279505662526493,0.00397567196757163,0.9999927282333374,0.0009373440989293158,0.0031416155397892,0.0019848612137138844,-0.005443096160888672,-0.0021457672119140625,0.0
1701784586164290258,,162688255,1701784586,0.0015376932822658603,0.0032389481054108608,0.004100408266032641,0.9999963641166687,0.0007655236404389143,0.0016210456378757954,0.0020489541348069906,-0.0055081844329833984,-0.002090930938720703,0.0
1701784586168160367,,166854858,1701784586,0.0024129869165736024,0.008690440918947405,0.00488505955012875,0.9999868869781494,0.001195864868350327,0.00434813741594553,0.002437260001897812,-0.005453586578369141,-0.002155780792236328,0.0
1701784586172381642,,171021461,1701784586,0.0027644323817918727,0.00339869224519073,0.004131525681475709,0.9999954700469971,0.0013787003699690104,0.0017021953826770186,0.002063407562673092,-0.005455970764160156,-0.0020999908447265625,0.0
1701784586176409479,,175188064,1701784586,0.0029456771433695066,0.00028468005937862484,0.0033810108264186226,0.9999974966049194,0.0014725952642038465,0.00014482950791716576,0.0016902930801734328,-0.005524635314941406,-0.0021593570709228516,0.0
1701784586180522342,,179354906,1701784586,0.0004144242703583036,0.008763127499987424,0.005038428753434672,0.9999872446060181,0.0001961714297067374,0.004382057581096888,0.002518279477953911,-0.005518436431884766,-0.002211332321166992,0.0
1701784586186860595,,183521509,1701784586,0.0031306102028574997,0.0058345806007396,0.004238625129782552,0.9999923706054688,0.0015591115225106478,0.00292059313505888,0.002114732749760151,-0.005412578582763672,-0.0021255016326904297,0.0
1701784586189176756,,187688112,1701784586,0.0020282051951087494,0.0075165020075479054,0.00385222699326756,0.9999905824661255,0.0010068545816466212,0.0037601864896714687,0.0019222864648327231,-0.005527973175048828,-0.002081632614135742,0.0
1701784586193091086,,191854953,1701784586,0.002364868061665246,0.005474566208306579,0.0045871190012902055,0.9999929666519165,0.0011761480709537864,0.002739982446655631,0.0022903105709701777,-0.005472898483276367,-0.002112865447998047,0.0
1701784586197378313,,196021556,1701784586,3.020881807515135e-05,0.004793071959730791,0.005432623145531187,0.9999934434890747,8.5945857790648e-06,0.0023965658619999886,0.002716264221817255,-0.0054759979248046875,-0.0022127628326416016,0.0
1701784586201460582,,200188159,1701784586,0.0002102756000778916,0.005098588589838514,0.004922382129337683,0.9999938011169434,9.88628453342244e-05,0.002549542346969247,0.002460912335664034,-0.005522489547729492,-0.0022745132446289062,0.0
1701784586205399735,,204354763,1701784586,0.002409050256044112,0.007434548638762211,0.006123684768600838,0.999987781047821,0.001193129108287394,0.003720933338627219,0.0030573364347219467,-0.0054132938385009766,-0.0021991729736328125,0.0
1701784586210040272,,208521604,1701784586,0.0027031080392752363,0.00603291810544203,0.0043997445142248525,0.9999921321868896,0.0013449083780869842,0.0030194176360964775,0.0021957815624773502,-0.005499601364135742,-0.002105236053466797,0.0
1701784586216908715,,212688207,1701784586,0.0025802445102835704,0.00445632412088323,0.003821776738864682,0.9999948740005493,0.0012858585687354207,0.0022306195460259914,0.0019080062629655004,-0.005536794662475586,-0.002069711685180664,0.0
1701784586219056858,,216854810,1701784586,0.001008264228792479,0.009173012860841802,0.005380693145666444,0.9999858140945435,0.0004917857004329562,0.004587829113006592,0.0026880023069679737,-0.005474090576171875,-0.0021016597747802734,0.0
1701784586222674861,,221021413,1701784586,0.0019838531016222504,0.008082207618716914,0.006513766466273727,0.9999860525131226,0.0009787516901269555,0.004044299945235252,0.0032528408337384462,-0.005525827407836914,-0.0022590160369873047,0.0
1701784586226893257,,225188255,1701784586,0.0017508826919581308,0.005077244865962019,0.006025971388601298,0.9999918341636658,0.0008677856530994177,0.002541244961321354,0.003010747954249382,-0.005462646484375,-0.0021843910217285156,0.0
1701784586230750984,,229354858,1701784586,-0.002114840946392144,0.010021169337594308,0.0069486100230031645,0.9999808669090271,-0.0010748087661340833,0.0050068567506968975,0.0034795505926012993,-0.005433320999145508,-0.0021424293518066406,0.0
1701784586234602547,,233521461,1701784586,0.00026118799826732977,0.0055757145931036,0.005881207984062925,0.999991774559021,0.00012239496572874486,0.002788225654512644,0.002940224250778556,-0.005500078201293945,-0.002095460891723633,0.0
1701784586238725283,,237688064,1701784586,0.0009644619300395288,0.0056223975221219745,0.004184774144209664,0.9999938011169434,0.0004763458564411849,0.002812197431921959,0.002091021277010441,-0.0055654048919677734,-0.0021848678588867188,0.0
1701784586243153351,,241854906,1701784586,0.0004460092489123955,0.002729422914467475,0.005767482658244421,0.9999949336051941,0.00021906800975557417,0.0013653483474627137,0.002883430104702711,-0.005518674850463867,-0.002110719680786133,0.0
1701784586249112363,,246021509,1701784586,0.0012006817666217965,0.004166108419293694,0.005849469580585777,0.9999934434890747,0.000594244571402669,0.002084799110889435,0.0029234730172902346,-0.005547285079956055,-0.002177000045776367,0.0
1701784586252178811,,250188112,1701784586,0.001307295607662172,0.009745013645976902,0.006005978378264341,0.9999834299087524,0.0006390050402842462,0.0048744273371994495,0.0029997634701430798,-0.005507230758666992,-0.002153635025024414,0.0
1701784586255623101,,254354953,1701784586,0.002783377485499,0.007324381421272197,0.00626921178016192,0.9999874830245972,0.001380192581564188,0.0036665231455117464,0.003129479940980673,-0.0055084228515625,-0.0021276473999023438,0.0
1701784586259893511,,258521556,1701784586,-0.00030569899087465877,0.010179484040284443,0.006908516451831567,0.9999811053276062,-0.00017042776744347066,0.005089161451905966,0.003454984398558736,-0.005547761917114258,-0.0022377967834472656,0.0
1701784586264313064,,262688159,1701784586,-0.002074744368501506,0.009221505371106652,0.008685403491045346,0.9999793767929077,-0.0010573741747066379,0.004606185480952263,0.0043474226258695126,-0.0055866241455078125,-0.0021483898162841797,0.0
1701784586268084982,,266854763,1701784586,0.0013950093029341216,0.0043869194535806205,0.005731377136568888,0.9999932646751404,0.000691214285325259,0.0021954472176730633,0.0028641470707952976,-0.0054624080657958984,-0.0022008419036865234,0.0
1701784586272284917,,271021604,1701784586,0.002146616871064203,0.006544319360170718,0.004929635061365378,0.9999910593032837,0.0010652339551597834,0.00327478745020926,0.002461288357153535,-0.005512714385986328,-0.002116680145263672,0.0
1701784586278545772,,275188207,1701784586,0.0003138166058074382,0.007586738109183334,0.0063961648183726485,0.9999877214431763,0.00014477490913122892,0.0037938421592116356,0.0031974585726857185,-0.005517005920410156,-0.0021140575408935547,0.0
1701784586280825455,,279354810,1701784586,0.00201191944189728,0.005273608345742022,0.0053248332156863205,0.9999925494194031,0.0009989321697503328,0.002639468526467681,0.002659750171005726,-0.005537986755371094,-0.002171039581298828,0.0
1701784586284828279,,283521413,1701784586,0.0025952523670165414,0.002695668568994062,0.0043150933518368165,0.9999959468841553,0.0012947135837748647,0.0013506292598322034,0.002155792200937867,-0.005558967590332031,-0.002108335494995117,0.0
1701784586288759106,,287688255,1701784586,0.0021299104150110867,0.0055320037047815185,0.004804346400239161,0.9999927878379822,0.0010583034018054605,0.0027685468085110188,0.002399214543402195,-0.005569934844970703,-0.0021147727966308594,0.0
1701784586293142759,,291854858,1701784586,0.0034198771849574586,0.003445214633838016,0.004966471357207076,0.9999940395355225,0.0017056522192433476,0.0017268446972593665,0.0024802801199257374,-0.0055484771728515625,-0.002159595489501953,0.0
1701784586297402696,,296021461,1701784586,0.0028221039254643057,0.007404686683205045,0.006400374319363504,0.9999870657920837,0.0013991864398121834,0.003706827759742737,0.003194932360202074,-0.00558781623840332,-0.0022630691528320312,0.0
1701784586301307117,,300188064,1701784586,0.0006141742900660772,0.005868815381311131,0.006507059807723376,0.9999903440475464,0.0002975370443891734,0.002935386961326003,0.003252608934417367,-0.005457162857055664,-0.0022232532501220703,0.0
1701784586309131819,,304354906,1701784586,0.001069217362004195,0.004670684661045728,0.006197552759002963,0.9999923706054688,0.000527367927134037,0.0023369851987808943,0.003097513923421502,-0.0055429935455322266,-0.002149343490600586,0.0
1701784586310832037,,308521509,1701784586,0.0026806787123441022,0.008848881881072397,0.0059978884216677335,0.999984860420227,0.001327051199041307,0.004428422078490257,0.002992977388203144,-0.005524635314941406,-0.0021715164184570312,0.0
1701784586314590173,,312688112,1701784586,0.0037896154328471324,0.002930522704978177,0.004611027148872421,0.9999944567680359,0.0018914213869720697,0.0014696228317916393,0.002302728593349457,-0.0055654048919677734,-0.0021448135375976562,0.0
1701784586318078352,,316854953,1701784586,0.0035013183001036514,0.003044156154986744,0.004710715179370152,0.9999945163726807,0.0017470663879066706,0.001526194391772151,0.0023526845034211874,-0.005609035491943359,-0.002241373062133789,0.0
1701784586322264001,,321021556,1701784586,0.0008212731553420313,0.00548693389796076,0.006473631805676306,0.9999909996986389,0.00040175276808440685,0.002744777826592326,0.0032356709707528353,-0.005511045455932617,-0.002259492874145508,0.0
1701784586326473186,,325188159,1701784586,0.001099200662783338,0.0030657368912679964,0.006819630459578376,0.999992847442627,0.0005443696863949299,0.0015347327571362257,0.00340896169655025,-0.0055463314056396484,-0.0021839141845703125,0.0
1701784586330376014,,329354763,1701784586,0.001568075077378267,0.005264729806526135,0.006319069636090661,0.9999912977218628,0.0007757137645967305,0.002634824952110648,0.0031574536114931107,-0.0055119991302490234,-0.002216339111328125,0.0
1701784586335211729,,333521604,1701784586,0.0008084692045219404,0.009010723165560031,0.0061502524922763015,0.9999850988388062,0.00039037407259456813,0.004506567493081093,0.0030732685700058937,-0.005557537078857422,-0.002097606658935547,0.0
1701784586339901387,,337688207,1701784586,0.001865442486261963,0.010113367851250152,0.007439754688450938,0.9999798536300659,0.0009138926398009062,0.005060094874352217,0.0037151032593101263,-0.005674839019775391,-0.002195119857788086,0.0
1701784586343739313,,341854810,1701784586,0.0026758383084354897,0.009359123891095868,0.006291034823197311,0.9999833106994629,0.0013231778284534812,0.004683725535869598,0.00313921389169991,-0.005571603775024414,-0.0021741390228271484,0.0
1701784586347355222,,346021413,1701784586,0.0006127393020308536,0.004577002327705663,0.007605847049423479,0.9999901652336121,0.0002976636460516602,0.0022896474692970514,0.0038022028747946024,-0.005566835403442383,-0.002191305160522461,0.0
1701784586351469754,,350188255,1701784586,-0.00014126257759009215,0.004792446780378281,0.00749555233179552,0.9999901056289673,-7.961106894072145e-05,0.0023959395475685596,0.0037479258608072996,-0.005523681640625,-0.002244234085083008,0.0
1701784586355593675,,354354858,1701784586,-0.0027505431061898887,0.007848471708901891,0.008121233999892792,0.9999830722808838,-0.001391183934174478,0.003918605390936136,0.004065967630594969,-0.005675554275512695,-0.0021550655364990234,0.0
