log_time_ns,header.frame_id,header.stamp.nanosec,header.stamp.sec,motor_a_1,motor_a_2,motor_b_1,motor_b_2,motor_c_1,motor_c_2
1709653237834650706,body,834597473,1709653237,0.03,0.03,0.03,0.03,0.03,0.03
1709653237844637855,body,844593906,1709653237,0.03,0.03,0.03,0.03,0.03,0.03
1709653237854681315,body,854593756,1709653237,0.03,0.03,0.03,0.03,0.03,0.03
1709653237864669471,body,864595824,1709653237,0.03,0.03,0.03,0.03,0.03,0.03
1709653237874663321,body,874602278,1709653237,0.03,0.03,0.03,0.03,0.03,0.03
1709653237884649714,body,884575684,1709653237,0.03,0.03,0.03,0.03,0.03,0.03
1709653237894594976,body,894539421,1709653237,0.03,0.03,0.03,0.03,0.03,0.03
1709653237904637890,body,904568210,1709653237,0.03,0.03,0.03,0.03,0.03,0.03
1709653237914682012,body,914600532,1709653237,0.03,0.03,0.03,0.03,0.03,0.03
1709653237924696706,body,924627079,1709653237,0.03,0.03,0.03,0.03,0.03,0.03
1709653237934671459,body,934592184,1709653237,0.03,0.03,0.03,0.03,0.03,0.03
1709653237944689734,body,944578783,1709653237,0.03,0.03,0.03,0.03,0.03,0.03
1709653237954676208,body,954604241,1709653237,0.5284237861633301,0.03,0.03,0.14939811825752258,0.4574276804924011,0.03
1709653237964657424,body,964601395,1709653237,0.5284237861633301,0.03,0.03,0.14939811825752258,0.4574276804924011,0.03
1709653237974657843,body,974599529,1709653237,0.5284237861633301,0.03,0.03,0.14939811825752258,0.4574276804924011,0.03
1709653237984682081,body,984606516,1709653237,0.5284237861633301,0.03,0.03,0.14939811825752258,0.4574276804924011,0.03
1709653237994662974,body,994579178,1709653237,0.5284237861633301,0.03,0.03,0.14939811825752258,0.4574276804924011,0.03
1709653238004662022,body,4596280,1709653238,0.5284237861633301,0.03,0.03,0.14939811825752258,0.4574276804924011,0.03
1709653238014670566,body,14582540,1709653238,0.5284237861633301,0.03,0.03,0.14939811825752258,0.4574276804924011,0.03
1709653238024664491,body,24612880,1709653238,0.5284237861633301,0.03,0.03,0.14939811825752258,0.4574276804924011,0.03
1709653238034655088,body,34580383,1709653238,0.5284237861633301,0.03,0.03,0.14939811825752258,0.4574276804924011,0.03
1709653238044637810,body,44569966,1709653238,0.5284237861633301,0.03,0.03,0.14939811825752258,0.4574276804924011,0.03
1709653238054675251,body,54608554,1709653238,0.5284237861633301,0.03,0.03,0.14939811825752258,0.4574276804924011,0.03
1709653238064680337,body,64602492,1709653238,0.5284237861633301,0.03,0.03,0.14939811825752258,0.4574276804924011,0.03
1709653238074690092,body,74614494,1709653238,0.5284237861633301,0.03,0.03,0.14939811825752258,0.4574276804924011,0.03
1709653238084667281,body,84593003,1709653238,0.5284237861633301,0.03,0.03,0.14939811825752258,0.4574276804924011,0.03
1709653238094677563,body,94606734,1709653238,0.5284237861633301,0.03,0.03,0.14939811825752258,0.4574276804924011,0.03
1709653238104679943,body,104588005,1709653238,0.5284237861633301,0.03,0.03,0.14939811825752258,0.4574276804924011,0.03
1709653238114678325,body,114597490,1709653238,0.5284237861633301,0.03,0.03,0.14939811825752258,0.4574276804924011,0.03
1709653238124660491,body,124596898,1709653238,0.5284237861633301,0.03,0.03,0.14939811825752258,0.4574276804924011,0.03
1709653238134672841,body,134602162,1709653238,0.5284237861633301,0.03,0.03,0.14939811825752258,0.4574276804924011,0.03
1709653238144652312,body,144584925,1709653238,0.5284237861633301,0.03,0.03,0.14939811825752258,0.4574276804924011,0.03
1709653238154701339,body,154607317,1709653238,0.4616274833679199,0.03,0.6782249808311462,0.03,0.03,0.4794488847255707
1709653238164703160,body,164627455,1709653238,0.4616274833679199,0.03,0.6782249808311462,0.03,0.03,0.4794488847255707
1709653238174710983,body,174611620,1709653238,0.4616274833679199,0.03,0.6782249808311462,0.03,0.03,0.4794488847255707
1709653238184668700,body,184607820,1709653238,0.4616274833679199,0.03,0.6782249808311462,0.03,0.03,0.4794488847255707
1709653238194672286,body,194597685,1709653238,0.4616274833679199,0.03,0.6782249808311462,0.03,0.03,0.4794488847255707
1709653238204681616,body,204613004,1709653238,0.4616274833679199,0.03,0.6782249808311462,0.03,0.03,0.4794488847255707
1709653238214695462,body,214591810,1709653238,0.4616274833679199,0.03,0.6782249808311462,0.03,0.03,0.4794488847255707
1709653238224662045,body,224593196,1709653238,0.4616274833679199,0.03,0.6782249808311462,0.03,0.03,0.4794488847255707
1709653238234674760,body,234603214,1709653238,0.4616274833679199,0.03,0.6782249808311462,0.03,0.03,0.4794488847255707
1709653238244680874,body,244608619,1709653238,0.4616274833679199,0.03,0.6782249808311462,0.03,0.03,0.4794488847255707
1709653238254674693,body,254603221,1709653238,0.4616274833679199,0.03,0.6782249808311462,0.03,0.03,0.4794488847255707
1709653238264685722,body,264587439,1709653238,0.4616274833679199,0.03,0.6782249808311462,0.03,0.03,0.4794488847255707
1709653238274679875,body,274593573,1709653238,0.4616274833679199,0.03,0.6782249808311462,0.03,0.03,0.4794488847255707
1709653238284688396,body,284599405,1709653238,0.4616274833679199,0.03,0.6782249808311462,0.03,0.03,0.4794488847255707
1709653238294642159,body,294579498,1709653238,0.4616274833679199,0.03,0.6782249808311462,0.03,0.03,0.4794488847255707
1709653238304643906,body,304569284,1709653238,0.4616274833679199,0.03,0.6782249808311462,0.03,0.03,0.4794488847255707
1709653238314626079,body,314577437,1709653238,0.4616274833679199,0.03,0.6782249808311462,0.03,0.03,0.4794488847255707
1709653238324714320,body,324631688,1709653238,0.4616274833679199,0.03,0.6782249808311462,0.03,0.03,0.4794488847255707
1709653238334714192,body,334588943,1709653238,0.4616274833679199,0.03,0.6782249808311462,0.03,0.03,0.4794488847255707
1709653238344667971,body,344584109,1709653238,0.4616274833679199,0.03,0.6782249808311462,0.03,0.03,0.4794488847255707
1709653238354653370,body,354571637,1709653238,0.4616274833679199,0.03,0.6782249808311462,0.03,0.03,0.4794488847255707
1709653238364665481,body,364590304,1709653238,0.03,0.2795201539993286,0.44875654578208923,0.03,0.03,0.35109153389930725
1709653238374663872,body,374590328,1709653238,0.03,0.2795201539993286,0.44875654578208923,0.03,0.03,0.35109153389930725
1709653238384637254,body,384572324,1709653238,0.03,0.2795201539993286,0.44875654578208923,0.03,0.03,0.35109153389930725
1709653238394669830,body,394601613,1709653238,0.03,0.2795201539993286,0.44875654578208923,0.03,0.03,0.35109153389930725
1709653238404674415,body,404613943,1709653238,0.03,0.2795201539993286,0.44875654578208923,0.03,0.03,0.35109153389930725
1709653238414666195,body,414599519,1709653238,0.03,0.2795201539993286,0.44875654578208923,0.03,0.03,0.35109153389930725
1709653238424656813,body,424593236,1709653238,0.03,0.2795201539993286,0.44875654578208923,0.03,0.03,0.35109153389930725
1709653238434728143,body,434611109,1709653238,0.03,0.2795201539993286,0.44875654578208923,0.03,0.03,0.35109153389930725
1709653238444674443,body,444600991,1709653238,0.03,0.2795201539993286,0.44875654578208923,0.03,0.03,0.35109153389930725
1709653238454672329,body,454595893,1709653238,0.03,0.2795201539993286,0.44875654578208923,0.03,0.03,0.35109153389930725
1709653238464660522,body,464611209,1709653238,0.03,0.2795201539993286,0.44875654578208923,0.03,0.03,0.35109153389930725
1709653238474662637,body,474599799,1709653238,0.03,0.2795201539993286,0.44875654578208923,0.03,0.03,0.35109153389930725
1709653238484665451,body,484598056,1709653238,0.03,0.2795201539993286,0.44875654578208923,0.03,0.03,0.35109153389930725
1709653238494694293,body,494607169,1709653238,0.03,0.2795201539993286,0.44875654578208923,0.03,0.03,0.35109153389930725
1709653238504746063,body,504694086,1709653238,0.03,0.2795201539993286,0.44875654578208923,0.03,0.03,0.35109153389930725
1709653238514655502,body,514573183,1709653238,0.03,0.2795201539993286,0.44875654578208923,0.03,0.03,0.35109153389930725
1709653238524638920,body,524582190,1709653238,0.03,0.2795201539993286,0.44875654578208923,0.03,0.03,0.35109153389930725
1709653238534676393,body,534592792,1709653238,0.03,0.2795201539993286,0.44875654578208923,0.03,0.03,0.35109153389930725
1709653238544641064,body,544591265,1709653238,0.03,0.2795201539993286,0.44875654578208923,0.03,0.03,0.35109153389930725
1709653238554664294,body,554593976,1709653238,0.03,0.2795201539993286,0.44875654578208923,0.03,0.03,0.35109153389930725
1709653238564665443,body,564606109,1709653238,0.07047538459300995,0.03,0.03,0.03,0.21066239476203918,0.03
1709653238574639993,body,574580107,1709653238,0.07047538459300995,0.03,0.03,0.03,0.21066239476203918,0.03
1709653238584711930,body,584621364,1709653238,0.07047538459300995,0.03,0.03,0.03,0.21066239476203918,0.03
1709653238594785377,body,594645543,1709653238,0.07047538459300995,0.03,0.03,0.03,0.21066239476203918,0.03
1709653238604722588,body,604617039,1709653238,0.07047538459300995,0.03,0.03,0.03,0.21066239476203918,0.03
1709653238614680012,body,614613855,1709653238,0.07047538459300995,0.03,0.03,0.03,0.21066239476203918,0.03
1709653238624650417,body,624564326,1709653238,0.07047538459300995,0.03,0.03,0.03,0.21066239476203918,0.03
1709653238634706803,body,634607046,1709653238,0.07047538459300995,0.03,0.03,0.03,0.21066239476203918,0.03
1709653238644656749,body,644599996,1709653238,0.07047538459300995,0.03,0.03,0.03,0.21066239476203918,0.03
1709653238654706702,body,654613022,1709653238,0.07047538459300995,0.03,0.03,0.03,0.21066239476203918,0.03
1709653238664667917,body,664605978,1709653238,0.07047538459300995,0.03,0.03,0.03,0.21066239476203918,0.03
1709653238674671943,body,674599137,1709653238,0.07047538459300995,0.03,0.03,0.03,0.21066239476203918,0.03
1709653238684676605,body,684611116,1709653238,0.07047538459300995,0.03,0.03,0.03,0.21066239476203918,0.03
1709653238694725901,body,694627943,1709653238,0.07047538459300995,0.03,0.03,0.03,0.21066239476203918,0.03
1709653238704654787,body,704595726,1709653238,0.07047538459300995,0.03,0.03,0.03,0.21066239476203918,0.03
1709653238714680707,body,714599882,1709653238,0.07047538459300995,0.03,0.03,0.03,0.21066239476203918,0.03
1709653238724721166,body,724605195,1709653238,0.07047538459300995,0.03,0.03,0.03,0.21066239476203918,0.03
1709653238734684840,body,734585114,1709653238,0.07047538459300995,0.03,0.03,0.03,0.21066239476203918,0.03
1709653238744654483,body,744592834,1709653238,0.07047538459300995,0.03,0.03,0.03,0.21066239476203918,0.03
1709653238754663096,body,754606339,1709653238,0.07047538459300995,0.03,0.03,0.03,0.21066239476203918,0.03
1709653238764658766,body,764589105,1709653238,0.07047538459300995,0.03,0.03,0.03,0.21066239476203918,0.03
1709653238774651809,body,774577455,1709653238,0.03,0.23222139477729797,0.0410306490957737,0.03,0.7280364632606506,0.03
1709653238784726974,body,784634075,1709653238,0.03,0.23222139477729797,0.0410306490957737,0.03,0.7280364632606506,0.03
1709653238794734800,body,794610033,1709653238,0.03,0.8299294114112854,0.03,0.5751540064811707,0.23750421404838562,0.03
1709653238804688721,body,804591666,1709653238,0.03,0.8245505690574646,0.03,0.5840947031974792,0.20302987098693848,0.03
1709653238814701313,body,814606876,1709653238,0.03,0.8265765905380249,0.03,0.5787433385848999,0.17164230346679688,0.03
1709653238824676448,body,824590457,1709653238,0.03,0.8408792018890381,0.03,0.5726914405822754,0.15974467992782593,0.03
1709653238834687178,body,834616110,1709653238,0.03,0.833405077457428,0.03,0.5808982849121094,0.14399218559265137,0.03
1709653238844655710,body,844566081,1709653238,0.03,0.8056337833404541,0.03,0.6096605658531189,0.1137610673904419,0.03
1709653238854664735,body,854590253,1709653238,0.03,0.7571211457252502,0.03,0.6166890859603882,0.0838664174079895,0.03
1709653238864689760,body,864579381,1709653238,0.03,0.7196429371833801,0.03,0.6342852115631104,0.07939469814300537,0.03
1709653238874645878,body,874570621,1709653238,0.03,0.6783521771430969,0.03,0.6444166302680969,0.0869288444519043,0.03
1709653238884634004,body,884571161,1709653238,0.03,0.6078311800956726,0.03,0.6187289953231812,0.08833456039428711,0.03
1709653238894653957,body,894583969,1709653238,0.03,0.5427257418632507,0.03,0.6074318289756775,0.0965375304222107,0.03
1709653238904661483,body,904597802,1709653238,0.03,0.47092390060424805,0.03,0.602580189704895,0.12041479349136353,0.03
1709653238914666607,body,914590283,1709653238,0.03,0.3541441559791565,0.03,0.5612922310829163,0.1335342526435852,0.03
1709653238924641493,body,924570792,1709653238,0.03,0.1775778830051422,0.03,0.5170215964317322,0.15451300144195557,0.03
1709653238934626991,body,934569215,1709653238,0.03,0.06656123697757721,0.03,0.47444722056388855,0.17132776975631714,0.03
1709653238944739264,body,944608089,1709653238,0.03,0.03,0.03,0.43192511796951294,0.17922598123550415,0.03
1709653238954657109,body,954584911,1709653238,0.06087870895862579,0.03,0.03,0.3845093548297882,0.19686251878738403,0.03
1709653238964660267,body,964586178,1709653238,0.09708373248577118,0.03,0.03,0.3300107419490814,0.21208953857421875,0.03
1709653238974677503,body,974566437,1709653238,0.12025849521160126,0.03,0.03,0.27421751618385315,0.22290301322937012,0.03
1709653238984678331,body,984594803,1709653238,1.0,0.03,0.03,0.0406666100025177,0.03,0.14522665739059448
1709653238994640311,body,994566169,1709653238,1.0,0.03,0.03,0.03,0.03,0.14617663621902466
1709653239004645970,body,4592628,1709653239,1.0,0.03,0.054185494780540466,0.03,0.03,0.15426158905029297
1709653239014669529,body,14596861,1709653239,1.0,0.03,0.09797537326812744,0.03,0.03,0.15971612930297852
1709653239024655715,body,24583071,1709653239,1.0,0.03,0.10253890603780746,0.03,0.03,0.1670967936515808
1709653239034668215,body,34578091,1709653239,1.0,0.03,0.12114522606134415,0.03,0.03,0.173134446144104
1709653239044614638,body,44550590,1709653239,0.9813698530197144,0.03,0.12609700858592987,0.03,0.03,0.1762688159942627
1709653239054733960,body,54603139,1709653239,0.9135950803756714,0.03,0.1106795147061348,0.03,0.03,0.1891128420829773
1709653239064662935,body,64585696,1709653239,0.8332936763763428,0.03,0.11095120757818222,0.03,0.03,0.19947290420532227
1709653239074673727,body,74606146,1709653239,0.6480190753936768,0.03,0.09485624730587006,0.03,0.03,0.2214924693107605
1709653239084675295,body,84581335,1709653239,0.482744038105011,0.03,0.08978649973869324,0.03,0.03,0.23681628704071045
1709653239094653662,body,94564255,1709653239,0.3787935674190521,0.03,0.059870198369026184,0.03,0.03,0.24819546937942505
1709653239104664823,body,104594141,1709653239,0.6307810544967651,0.03,0.48172441124916077,0.03,0.03,0.04377180337905884
1709653239114674527,body,114589764,1709653239,0.5113493800163269,0.03,0.4530073404312134,0.03,0.03,0.06886988878250122
1709653239124703241,body,124627055,1709653239,0.4307478666305542,0.03,0.426956444978714,0.03,0.03,0.08811968564987183
1709653239134760930,body,134659744,1709653239,0.38914310932159424,0.03,0.40452152490615845,0.03,0.03,0.11890548467636108
1709653239144639215,body,144591529,1709653239,0.3619891405105591,0.03,0.37115567922592163,0.03,0.03,0.15068906545639038
1709653239154663005,body,154589296,1709653239,0.3483324646949768,0.03,0.309246301651001,0.03,0.03,0.16428768634796143
1709653239164649193,body,164588763,1709653239,0.33559146523475647,0.03,0.19677457213401794,0.03,0.03,0.18527960777282715
1709653239174640042,body,174568049,1709653239,0.3257930874824524,0.03,0.12776276469230652,0.03,0.03,0.1938180923461914
1709653239184669252,body,184602432,1709653239,0.03,0.9265567064285278,0.040466755628585815,0.03,0.03,1.0
1709653239194654069,body,194580269,1709653239,0.03,0.9131485223770142,0.03,0.03,0.03,1.0
1709653239204632458,body,204574717,1709653239,0.03,0.9252351522445679,0.03,0.03,0.03,1.0
1709653239214703557,body,214583510,1709653239,0.03,0.924773097038269,0.03,0.05586156249046326,0.03,1.0
1709653239224631038,body,224569586,1709653239,0.03,0.9104437828063965,0.03,0.07821439206600189,0.03,1.0
1709653239234690213,body,234598630,1709653239,0.03,0.9065662622451782,0.03,0.1039300262928009,0.03,1.0
1709653239244673134,body,244604749,1709653239,0.03,0.8877921104431152,0.03,0.1301029920578003,0.03,1.0
1709653239254740251,body,254628322,1709653239,0.03,0.8490854501724243,0.03,0.13889458775520325,0.03,1.0
1709653239264687729,body,264593755,1709653239,0.03,0.816652774810791,0.03,0.1381014585494995,0.03,1.0
1709653239274712593,body,274591458,1709653239,0.03,0.7588815689086914,0.03,0.13947555422782898,0.03,1.0
1709653239284653643,body,284593020,1709653239,0.03,0.6668043732643127,0.03,0.10689154267311096,0.03,0.9079370498657227
1709653239294643870,body,294574429,1709653239,0.03,0.5190723538398743,0.03,0.08689522743225098,0.03,0.7118830680847168
1709653239304659015,body,304581262,1709653239,0.03,0.3901805281639099,0.03,0.08734112977981567,0.03,0.5465481281280518
1709653239314640656,body,314573967,1709653239,0.03,0.2341044545173645,0.03,0.09854018688201904,0.03,0.403484582901001
1709653239324674800,body,324602395,1709653239,0.03,0.13841035962104797,0.03,0.08473283052444458,0.03,0.31043413281440735
1709653239334680567,body,334597656,1709653239,0.03,0.07638490200042725,0.03,0.04992684721946716,0.03,0.24756675958633423
1709653239344682219,body,344621107,1709653239,0.03,0.03,0.03,0.03,0.03,0.1874603033065796
1709653239354672634,body,354589207,1709653239,0.03,0.03,0.06010738015174866,0.03,0.03,0.1468629240989685
1709653239364654160,body,364593480,1709653239,0.05481487512588501,0.03,0.13840773701667786,0.03,0.03,0.11959570646286011
1709653239374647558,body,374569376,1709653239,0.09385639429092407,0.03,0.25233206152915955,0.03,0.03,0.11377710103988647
1709653239384662155,body,384587599,1709653239,0.1208309531211853,0.03,0.2575535178184509,0.03,0.03,0.11430221796035767
1709653239394655913,body,394591556,1709653239,0.3121107518672943,0.03,0.03,0.4671505093574524,1.0,0.03
1709653239404663603,body,404610138,1709653239,0.318865567445755,0.03,0.03,0.46890610456466675,1.0,0.03
1709653239414651669,body,414586607,1709653239,0.339321106672287,0.03,0.03,0.45165133476257324,1.0,0.03
1709653239424670016,body,424574873,1709653239,0.36202743649482727,0.03,0.03,0.4325999617576599,1.0,0.03
1709653239434614103,body,434538426,1709653239,0.3632371127605438,0.03,0.03,0.4276477098464966,1.0,0.03
1709653239444622014,body,444566202,1709653239,0.3822574317455292,0.03,0.03,0.40956735610961914,0.9946659803390503,0.03
1709653239454659498,body,454587005,1709653239,0.38048598170280457,0.03,0.03,0.38562309741973877,0.9340362548828125,0.03
1709653239464680291,body,464602463,1709653239,0.38291385769844055,0.03,0.03,0.3384245038032532,0.8591457009315491,0.03
1709653239474666646,body,474585220,1709653239,0.3623431622982025,0.03,0.03,0.28900057077407837,0.743240475654602,0.03
1709653239484649916,body,484592002,1709653239,0.3539513051509857,0.03,0.03,0.2564563751220703,0.6310023069381714,0.03
1709653239494660075,body,494572035,1709653239,0.34010693430900574,0.03,0.03,0.22876375913619995,0.4312920570373535,0.03
1709653239504747113,body,504577106,1709653239,0.323215514421463,0.03,0.03,0.1944924294948578,0.2763206362724304,0.03
1709653239514648248,body,514568389,1709653239,0.31286534667015076,0.03,0.03,0.19465792179107666,0.1648591160774231,0.03
1709653239524684647,body,524594847,1709653239,0.2963504493236542,0.03,0.03,0.1820678412914276,0.08320215344429016,0.03
1709653239534708160,body,534583847,1709653239,0.27570840716362,0.03,0.03,0.17990446090698242,0.03,0.03
1709653239544629364,body,544584090,1709653239,0.25333401560783386,0.03,0.03,0.1776968538761139,0.03,0.030307620763778687
1709653239554677745,body,554597525,1709653239,0.22445884346961975,0.03,0.03,0.17768988013267517,0.03,0.05323335528373718
1709653239564669098,body,564591070,1709653239,0.20147505402565002,0.03,0.03,0.1723165214061737,0.03,0.07794573903083801
1709653239574644566,body,574592979,1709653239,0.1830277144908905,0.03,0.03,0.17605474591255188,0.03,0.0785195529460907
1709653239584712639,body,584634461,1709653239,0.16847464442253113,0.03,0.03,0.17318233847618103,0.03,0.09138861298561096
1709653239594661996,body,594583020,1709653239,0.15921828150749207,0.03,0.03,0.16747483611106873,0.03,0.10046640038490295
1709653239604753374,body,604592844,1709653239,0.03,0.03,0.26715904474258423,0.03,0.03,1.0
1709653239614739243,body,614660730,1709653239,0.03,0.03,0.2747151255607605,0.03,0.03,1.0
1709653239624724757,body,624573612,1709653239,0.03,0.03,0.28556638956069946,0.03,0.03,1.0
1709653239634645125,body,634588094,1709653239,0.03,0.03,0.29041576385498047,0.03,0.03,1.0
1709653239644681920,body,644599329,1709653239,0.03,0.03,0.30054497718811035,0.03,0.03,1.0
1709653239654621036,body,654567861,1709653239,0.03,0.03,0.31667691469192505,0.03,0.03,1.0
1709653239664630366,body,664586788,1709653239,0.03,0.03,0.3210567831993103,0.03,0.03,1.0
1709653239674643666,body,674572968,1709653239,0.03,0.22882726788520813,0.09726198017597198,0.03,0.03,1.0
1709653239684647863,body,684592796,1709653239,0.03,0.24842756986618042,0.12322835624217987,0.03,0.03,1.0
1709653239694647950,body,694587230,1709653239,0.03,0.2691788971424103,0.13940520584583282,0.03,0.03,1.0
1709653239704652381,body,704581769,1709653239,0.03,0.28071528673171997,0.16294650733470917,0.03,0.03,1.0
1709653239714639564,body,714576910,1709653239,0.03,0.2918381094932556,0.19643665850162506,0.03,0.03,0.9022237062454224
1709653239724660354,body,724577989,1709653239,0.03,0.30610227584838867,0.21973298490047455,0.03,0.03,0.7754982113838196
1709653239734695288,body,734599973,1709653239,0.03,0.311580628156662,0.24373896420001984,0.03,0.03,0.6214085221290588
1709653239744672489,body,744609690,1709653239,0.03,0.321233332157135,0.2541976571083069,0.03,0.03,0.4201347231864929
1709653239754605946,body,754552951,1709653239,0.03,0.32233351469039917,0.27554070949554443,0.03,0.03,0.29842832684516907
1709653239764647241,body,764567435,1709653239,0.03,0.3208651542663574,0.27984702587127686,0.03,0.03,0.20135584473609924
1709653239774684434,body,774600688,1709653239,0.03,0.29864972829818726,0.294344425201416,0.03,0.03,0.12354764342308044
1709653239784649850,body,784581589,1709653239,0.03,0.2769072651863098,0.29277926683425903,0.03,0.03,0.0659671425819397
1709653239794626490,body,794562566,1709653239,0.03,0.23722663521766663,0.27823591232299805,0.03,0.03,0.03
1709653239804656698,body,804601667,1709653239,0.03,0.2941233813762665,1.0,0.03,0.15267130732536316,0.03
1709653239814621734,body,814562300,1709653239,0.03,0.2731904685497284,1.0,0.03,0.20023474097251892,0.03
1709653239824643475,body,824564369,1709653239,0.03,0.24709850549697876,1.0,0.03,0.20658335089683533,0.03
1709653239834681202,body,834602342,1709653239,0.03,0.22016897797584534,1.0,0.03,0.2206096351146698,0.03
1709653239844666168,body,844599582,1709653239,0.03,0.17973732948303223,1.0,0.03,0.20627769827842712,0.03
1709653239854697379,body,854614968,1709653239,0.03,0.14378958940505981,1.0,0.03,0.2173958122730255,0.03
1709653239864724447,body,864611129,1709653239,0.03,0.12411266565322876,1.0,0.03,0.21964344382286072,0.03
1709653239874650240,body,874580045,1709653239,0.03,0.10425513982772827,1.0,0.03,0.20146772265434265,0.03
1709653239884704179,body,884581925,1709653239,0.03,0.06964766979217529,0.9977919459342957,0.03,0.17969074845314026,0.03
1709653239894645167,body,894582805,1709653239,0.03,0.03436154127120972,0.9209593534469604,0.03,0.14585670828819275,0.03
1709653239904670707,body,904590442,1709653239,0.03,0.03,0.7976100444793701,0.03,0.0978405773639679,0.03
1709653239914697589,body,914581623,1709653239,0.03,0.03,0.6972425580024719,0.03,0.058430105447769165,0.03
1709653239924616836,body,924567933,1709653239,0.0316888689994812,0.03,0.6386756896972656,0.03,0.03435567021369934,0.03
1709653239934664232,body,934576160,1709653239,0.039572715759277344,0.03,0.5719404220581055,0.03,0.03,0.03
1709653239944644860,body,944587507,1709653239,0.05388033390045166,0.03,0.5252159237861633,0.03,0.03,0.03
1709653239954640753,body,954566192,1709653239,0.062281668186187744,0.03,0.4830625355243683,0.03,0.03,0.05374622344970703
1709653239964645374,body,964594012,1709653239,0.08585065603256226,0.03,0.4593612849712372,0.03,0.03,0.09931856393814087
1709653239974690460,body,974590361,1709653239,0.09451907873153687,0.03,0.4480815827846527,0.03,0.03,0.13198277354240417
1709653239984668535,body,984565908,1709653239,0.1031995415687561,0.03,0.45684725046157837,0.03,0.03,0.18594199419021606
1709653239994671815,body,994594659,1709653239,0.11223852634429932,0.03,0.45605456829071045,0.03,0.03,0.22371523082256317
1709653240004689341,body,4624898,1709653240,0.7698326110839844,0.03,0.20593681931495667,0.03,0.3768436312675476,0.03
1709653240014640823,body,14570275,1709653240,0.7814749479293823,0.03,0.21132344007492065,0.03,0.32402047514915466,0.03
1709653240024603847,body,24533623,1709653240,0.79038405418396,0.03,0.2420763075351715,0.03,0.24862954020500183,0.03
1709653240034732584,body,34623405,1709653240,0.7953270077705383,0.03,0.27503252029418945,0.03,0.14110463857650757,0.03
1709653240044671660,body,44567086,1709653240,0.7992304563522339,0.03,0.29446959495544434,0.03,0.09644812345504761,0.03
1709653240054663637,body,54584931,1709653240,0.7859945893287659,0.03,0.3157656788825989,0.03,0.07170646637678146,0.03
1709653240064736337,body,64626633,1709653240,0.7604717016220093,0.03,0.3495619297027588,0.03,0.03,0.03
1709653240074646872,body,74581166,1709653240,0.7273592352867126,0.03,0.3940495252609253,0.03,0.03,0.03
1709653240084694918,body,84585595,1709653240,0.6740002036094666,0.03,0.4358064830303192,0.03,0.03,0.06258895993232727
1709653240094810995,body,94692065,1709653240,0.628508985042572,0.03,0.46434932947158813,0.03,0.03,0.08055379986763
1709653240104672552,body,104604738,1709653240,0.5701761245727539,0.03,0.45040369033813477,0.03,0.03,0.08547419309616089
1709653240114650920,body,114581895,1709653240,0.5178079605102539,0.03,0.4345169961452484,0.03,0.03,0.09564509987831116
1709653240124669309,body,124608759,1709653240,0.4649863541126251,0.03,0.4193302094936371,0.03,0.03,0.10620111227035522
1709653240134619878,body,134565447,1709653240,0.41160982847213745,0.03,0.3965147137641907,0.03,0.03,0.12945356965065002
1709653240144631835,body,144585424,1709653240,0.36493074893951416,0.03,0.366568386554718,0.03,0.03,0.14651206135749817
1709653240154656482,body,154586375,1709653240,0.31440669298171997,0.03,0.33650779724121094,0.03,0.03,0.16431933641433716
1709653240164653076,body,164583736,1709653240,0.2706025242805481,0.03,0.301106333732605,0.03,0.03,0.16989219188690186
1709653240174662045,body,174586629,1709653240,0.23295170068740845,0.03,0.2694222629070282,0.03,0.03,0.1730973720550537
1709653240184712774,body,184602074,1709653240,0.18668237328529358,0.03,0.2493705153465271,0.03,0.03,0.17780396342277527
1709653240194675844,body,194592470,1709653240,0.15145045518875122,0.03,0.22214767336845398,0.03,0.03,0.17890998721122742
1709653240204665951,body,204594999,1709653240,0.12133659422397614,0.03,0.1956268548965454,0.03,0.03,0.16785186529159546
1709653240214640987,body,214563347,1709653240,0.03,0.261917382478714,0.03,0.145765483379364,0.03,0.3226374387741089
1709653240224654994,body,224596424,1709653240,0.03,0.25636306405067444,0.03,0.16123360395431519,0.03,0.32040515542030334
1709653240234649377,body,234593383,1709653240,0.03,0.2847859859466553,0.03,0.16701295971870422,0.03,0.32638266682624817
1709653240244644739,body,244571605,1709653240,0.03,0.3085262179374695,0.03,0.18228542804718018,0.03,0.31502965092658997
1709653240254667032,body,254574215,1709653240,0.03,0.30591195821762085,0.03,0.1973036527633667,0.03,0.2900048494338989
1709653240264649184,body,264584286,1709653240,0.03,0.3107365369796753,0.03,0.21188607811927795,0.03,0.27346205711364746
1709653240274644943,body,274583706,1709653240,0.03,0.31677761673927307,0.03,0.2174355387687683,0.03,0.26414981484413147
1709653240284711736,body,284627288,1709653240,0.03,0.29150673747062683,0.03,0.209540456533432,0.03,0.23889990150928497
1709653240294674263,body,294590976,1709653240,0.03,0.2874782085418701,0.03,0.20733124017715454,0.03,0.22648076713085175
1709653240304630593,body,304564777,1709653240,0.03,0.26708880066871643,0.03,0.20472556352615356,0.03,0.2172451764345169
1709653240314647089,body,314583773,1709653240,0.03,0.23382964730262756,0.03,0.18573912978172302,0.03,0.2050517350435257
1709653240324643362,body,324576645,1709653240,0.03,0.2127304971218109,0.03,0.18537205457687378,0.03,0.18043024837970734
1709653240334655659,body,334591907,1709653240,0.03,0.18220706284046173,0.03,0.18755686283111572,0.03,0.13704155385494232
1709653240344652759,body,344587019,1709653240,0.03,0.16320864856243134,0.03,0.18901336193084717,0.03,0.10405120253562927
1709653240354670738,body,354584879,1709653240,0.03,0.14866982400417328,0.03,0.19356349110603333,0.03,0.05834558233618736
1709653240364651452,body,364570156,1709653240,0.03,0.1403455287218094,0.03,0.18595567345619202,0.03,0.03
1709653240374655522,body,374587455,1709653240,0.03,0.12748518586158752,0.03,0.16361233592033386,0.03,0.03
1709653240384694086,body,384579227,1709653240,0.03,0.1055971086025238,0.03,0.14450708031654358,0.03,0.04224364086985588
1709653240394648938,body,394564436,1709653240,0.03,0.1011853963136673,0.03,0.13121700286865234,0.03,0.03
1709653240404638071,body,404579628,1709653240,0.03,0.08728785812854767,0.03,0.12970149517059326,0.03,0.03
1709653240414675235,body,414600190,1709653240,0.23303654789924622,0.03,0.4092865586280823,0.03,0.03,0.3782072365283966
1709653240424674235,body,424590632,1709653240,0.23693186044692993,0.03,0.41944625973701477,0.03,0.03,0.3668600916862488
1709653240434688447,body,434569872,1709653240,0.24456000328063965,0.03,0.4335618317127228,0.03,0.03,0.3836915194988251
1709653240444660646,body,444592406,1709653240,0.2442152500152588,0.03,0.41285765171051025,0.03,0.03,0.3492089509963989
1709653240454689159,body,454582042,1709653240,0.23588460683822632,0.03,0.4183065891265869,0.03,0.03,0.31269165873527527
1709653240464616169,body,464562365,1709653240,0.23154062032699585,0.03,0.41690462827682495,0.03,0.03,0.30249249935150146
1709653240474662026,body,474578539,1709653240,0.2352268397808075,0.03,0.41124427318573,0.03,0.03,0.28658702969551086
1709653240484634600,body,484573519,1709653240,0.22965100407600403,0.03,0.41201719641685486,0.03,0.03,0.2645852267742157
1709653240494616538,body,494568563,1709653240,0.21608591079711914,0.03,0.40806978940963745,0.03,0.03,0.2294817566871643
1709653240504638204,body,504563900,1709653240,0.20342236757278442,0.03,0.39673009514808655,0.03,0.03,0.20400026440620422
1709653240514619973,body,514570668,1709653240,0.2004777193069458,0.03,0.39025813341140747,0.03,0.03,0.19619794189929962
1709653240524631966,body,524581791,1709653240,0.18759208917617798,0.03,0.3862640857696533,0.03,0.03,0.1787729263305664
1709653240534695220,body,534577644,1709653240,0.16935983300209045,0.03,0.3798910081386566,0.03,0.03,0.15895529091358185
1709653240544693425,body,544582433,1709653240,0.154720276594162,0.03,0.3710460364818573,0.03,0.03,0.14461232721805573
1709653240554691941,body,554606999,1709653240,0.13699012994766235,0.03,0.36073169112205505,0.03,0.03,0.1240444928407669
1709653240564635802,body,564583885,1709653240,0.11274514347314835,0.03,0.35817304253578186,0.03,0.03,0.1110629141330719
1709653240574639682,body,574572388,1709653240,0.10104158520698547,0.03,0.3455260396003723,0.03,0.03,0.11227130889892578
1709653240584703194,body,584614440,1709653240,0.08961239457130432,0.03,0.3312905430793762,0.03,0.03,0.10556076467037201
1709653240594649286,body,594569231,1709653240,0.07933502644300461,0.03,0.3170616626739502,0.03,0.03,0.0934690535068512
1709653240604661418,body,604581149,1709653240,0.06987795978784561,0.03,0.3121991455554962,0.03,0.03,0.09172679483890533
1709653240614666078,body,614581356,1709653240,0.0506574772298336,0.03,0.3018776476383209,0.03,0.03,0.08951909840106964
1709653240624610656,body,624564736,1709653240,0.46984368562698364,0.03,0.03,0.42432230710983276,0.685876727104187,0.03
1709653240634682347,body,634601458,1709653240,0.45155519247055054,0.03,0.03,0.43315476179122925,0.689375102519989,0.03
1709653240644747189,body,644635406,1709653240,0.4422655403614044,0.03,0.03,0.43663668632507324,0.6907690167427063,0.03
1709653240654714743,body,654598223,1709653240,0.3970298767089844,0.03,0.03,0.43415606021881104,0.6879485845565796,0.03
1709653240664682875,body,664585108,1709653240,0.3613099455833435,0.03,0.03,0.44105643033981323,0.6968193054199219,0.03
1709653240674686143,body,674605570,1709653240,0.31773099303245544,0.03,0.03,0.4488188922405243,0.6922857761383057,0.03
1709653240684644035,body,684574869,1709653240,0.2989445924758911,0.03,0.03,0.43917712569236755,0.6640570163726807,0.03
1709653240694621108,body,694576688,1709653240,0.2708122134208679,0.03,0.03,0.42171749472618103,0.6241238713264465,0.03
1709653240704668945,body,704590634,1709653240,0.2347719669342041,0.03,0.03,0.40606489777565,0.5858342051506042,0.03
1709653240714653821,body,714591738,1709653240,0.20197413861751556,0.03,0.03,0.39563003182411194,0.5105273723602295,0.03
1709653240724634070,body,724541645,1709653240,0.17825272679328918,0.03,0.03,0.38722696900367737,0.38874173164367676,0.03
1709653240734690831,body,734610367,1709653240,0.15768307447433472,0.03,0.03,0.3795810043811798,0.3090429902076721,0.03
1709653240744706657,body,744631764,1709653240,0.13636919856071472,0.03,0.03,0.37326526641845703,0.24717459082603455,0.03
1709653240754658145,body,754589882,1709653240,0.1110265851020813,0.03,0.03,0.3536001443862915,0.18066847324371338,0.03
1709653240764636357,body,764563273,1709653240,0.09658828377723694,0.03,0.03,0.3453311324119568,0.14315730333328247,0.03
1709653240774687425,body,774599154,1709653240,0.08930858969688416,0.03,0.03,0.33991000056266785,0.11354625225067139,0.03
1709653240784658212,body,784590031,1709653240,0.06661397218704224,0.03,0.03,0.31978192925453186,0.08978286385536194,0.03
1709653240794665238,body,794577955,1709653240,0.0570654571056366,0.03,0.03,0.3021724820137024,0.0648968517780304,0.03
1709653240804642882,body,804596881,1709653240,0.05233246088027954,0.03,0.03,0.28444787859916687,0.055457115173339844,0.03
1709653240814649339,body,814592025,1709653240,0.05541026592254639,0.03,0.03,0.2597312331199646,0.03595244884490967,0.03
1709653240824678072,body,824598370,1709653240,0.03,0.544121503829956,0.3447412848472595,0.03,0.03,0.7493083477020264
1709653240834656540,body,834600501,1709653240,0.03,0.5265066623687744,0.35357287526130676,0.03,0.03,0.7637693881988525
1709653240844631999,body,844579698,1709653240,0.03,0.5213280916213989,0.37213045358657837,0.03,0.03,0.7685637474060059
1709653240854665957,body,854589423,1709653240,0.03,0.5139117240905762,0.3776758909225464,0.03,0.03,0.7661052942276001
1709653240864620624,body,864573977,1709653240,0.03,0.5013881325721741,0.39135733246803284,0.03,0.03,0.7693272233009338
1709653240874628154,body,874573387,1709653240,0.03,0.48953816294670105,0.3946625292301178,0.03,0.03,0.754794716835022
1709653240884641978,body,884586132,1709653240,0.03,0.48962780833244324,0.40850895643234253,0.03,0.03,0.7429118156433105
1709653240894709896,body,894615083,1709653240,0.03,0.4814348518848419,0.42156583070755005,0.03,0.03,0.728402853012085
1709653240904718483,body,904597143,1709653240,0.03,0.45554131269454956,0.40849030017852783,0.03,0.03,0.690706729888916
1709653240914629902,body,914581853,1709653240,0.03,0.43267372250556946,0.3792631924152374,0.03,0.03,0.6431449055671692
1709653240924635973,body,924573546,1709653240,0.03,0.415456622838974,0.3635895550251007,0.03,0.03,0.577683687210083
1709653240934685399,body,934601466,1709653240,0.03,0.4020751416683197,0.3720398545265198,0.03,0.03,0.4897236227989197
1709653240944635608,body,944584452,1709653240,0.03,0.3745453953742981,0.370646595954895,0.03,0.03,0.406688392162323
1709653240954705789,body,954609677,1709653240,0.03,0.3347247540950775,0.3757416009902954,0.03,0.03,0.27096134424209595
1709653240964660469,body,964570781,1709653240,0.03,0.29162371158599854,0.37846529483795166,0.03,0.03,0.18292838335037231
1709653240974619193,body,974574358,1709653240,0.03,0.23247459530830383,0.38647663593292236,0.03,0.03,0.12651142477989197
1709653240984659864,body,984602992,1709653240,0.03,0.14356574416160583,0.3920741081237793,0.03,0.03,0.07841122150421143
1709653240994664437,body,994581830,1709653240,0.03,0.08502643555402756,0.40217649936676025,0.03,0.03,0.03972017765045166
1709653241004645080,body,4584521,1709653241,0.03,0.033402249217033386,0.4012269079685211,0.03,0.03,0.03
1709653241014651197,body,14581259,1709653241,0.03,0.03,0.38973161578178406,0.03,0.03,0.03
1709653241024660803,body,24594235,1709653241,0.03,0.03,0.3906201720237732,0.03,0.03,0.03
1709653241034651887,body,34593500,1709653241,0.03,0.031242728233337402,0.22802448272705078,0.03,1.0,0.03
1709653241044661599,body,44592555,1709653241,0.03,0.03,0.21342825889587402,0.03,1.0,0.03
1709653241054658323,body,54580844,1709653241,0.03,0.03,0.20359909534454346,0.03,0.9988269805908203,0.03
1709653241064646783,body,64588858,1709653241,0.03,0.03,0.201005220413208,0.03,0.9918121695518494,0.03
1709653241074646398,body,74565412,1709653241,0.03,0.03,0.18172594904899597,0.03,0.9839322566986084,0.03
1709653241084670823,body,84601909,1709653241,0.03,0.03,0.16365617513656616,0.03,0.9562637805938721,0.03
1709653241094679896,body,94596849,1709653241,0.03,0.03,0.1686759889125824,0.03,0.912240743637085,0.03
1709653241104633104,body,104565127,1709653241,0.03,0.03,0.16317054629325867,0.03,0.8265925049781799,0.03
1709653241114645943,body,114561316,1709653241,0.03,0.03,0.14150026440620422,0.03,0.7067280411720276,0.03
1709653241124637509,body,124581210,1709653241,0.03,0.03,0.13455840945243835,0.03,0.5425871014595032,0.03
1709653241134682787,body,134563733,1709653241,0.03,0.03,0.10026231408119202,0.03,0.4137532711029053,0.03
1709653241144638282,body,144565592,1709653241,0.03,0.03,0.07540059089660645,0.03,0.3265233039855957,0.03
1709653241154690119,body,154610750,1709653241,0.03,0.03,0.03750920295715332,0.03,0.26178333163261414,0.03
1709653241164690183,body,164605986,1709653241,0.03,0.03,0.03,0.03,0.2090282142162323,0.03
1709653241174622437,body,174563941,1709653241,0.03,0.03,0.03,0.03,0.1685670018196106,0.03
1709653241184658711,body,184597752,1709653241,0.03,0.03,0.03,0.058563172817230225,0.1345558762550354,0.03
1709653241194660253,body,194576643,1709653241,0.03,0.03995490074157715,0.03,0.08479011058807373,0.11400598287582397,0.03
1709653241204652724,body,204601290,1709653241,0.03,0.057610854506492615,0.03,0.12411648035049438,0.12582379579544067,0.03
1709653241214684163,body,214612557,1709653241,0.03,0.06274417042732239,0.03,0.15873593091964722,0.12445104122161865,0.03
1709653241224619813,body,224570928,1709653241,0.03,0.06907857954502106,0.03,0.17618721723556519,0.1469094157218933,0.03
1709653241234651557,body,234576737,1709653241,0.03,0.07977676391601562,0.03,0.2018665075302124,0.16644853353500366,0.03
1709653241244630736,body,244571933,1709653241,0.03,0.5476692914962769,0.03,0.03,0.03,0.4512875974178314
1709653241254670264,body,254602429,1709653241,0.03,0.5419599413871765,0.03,0.03,0.03,0.4459041655063629
1709653241264645082,body,264580875,1709653241,0.03,0.5193073749542236,0.03,0.043974876403808594,0.03,0.4334186911582947
1709653241274646798,body,274581271,1709653241,0.03,0.521226704120636,0.03,0.04695570468902588,0.03,0.4059298038482666
1709653241284649867,body,284562316,1709653241,0.03,0.5276871919631958,0.03,0.06122612953186035,0.03,0.3895006775856018
1709653241294661719,body,294583026,1709653241,0.03,0.5283259749412537,0.03,0.07097738981246948,0.03,0.37120023369789124
1709653241304624834,body,304564696,1709653241,0.03,0.5213622450828552,0.03,0.08794975280761719,0.03,0.3480660617351532
1709653241314658606,body,314600893,1709653241,0.03,0.5080744624137878,0.03,0.11231589317321777,0.03,0.3070276975631714
1709653241324739124,body,324635977,1709653241,0.03,0.4977039098739624,0.03,0.12736058235168457,0.03,0.26416948437690735
1709653241334652461,body,334567582,1709653241,0.03,0.47607651352882385,0.03,0.15175694227218628,0.03,0.21788370609283447
1709653241344656575,body,344598424,1709653241,0.03,0.4509548842906952,0.03,0.15718770027160645,0.03,0.17353567481040955
1709653241354656773,body,354588310,1709653241,0.03,0.41392266750335693,0.03,0.15350282192230225,0.03,0.13568758964538574
1709653241364659408,body,364598970,1709653241,0.03,0.3851945102214813,0.03,0.1619219183921814,0.03,0.09719782322645187
1709653241374666989,body,374592181,1709653241,0.03,0.34222862124443054,0.03,0.1560458540916443,0.03,0.0644703060388565
1709653241384651691,body,384568698,1709653241,0.03,0.3113674223423004,0.03,0.15960878133773804,0.03,0.03
1709653241394639087,body,394587439,1709653241,0.03,0.2875363826751709,0.03,0.14636623859405518,0.03,0.03
1709653241404635341,body,404585290,1709653241,0.03,0.2614317536354065,0.03,0.15484774112701416,0.08688783645629883,0.03
1709653241414689822,body,414591244,1709653241,0.03,0.2341255247592926,0.03,0.14602237939834595,0.1103070005774498,0.03
1709653241424647578,body,424575184,1709653241,0.03,0.20738765597343445,0.03,0.14731085300445557,0.12599006295204163,0.03
1709653241434623734,body,434566370,1709653241,0.03,0.18608379364013672,0.03,0.15414249897003174,0.14500290155410767,0.03
1709653241444716849,body,444599944,1709653241,0.03,0.13544654846191406,0.03,1.0,0.3774605989456177,0.03
1709653241454692741,body,454601606,1709653241,0.03,0.12218374013900757,0.03,1.0,0.3749805986881256,0.03
1709653241464701559,body,464573701,1709653241,0.03,0.10758084058761597,0.03,1.0,0.36313000321388245,0.03
1709653241474662053,body,474584603,1709653241,0.03,0.09257775545120239,0.03,1.0,0.34964609146118164,0.03
1709653241484656140,body,484590147,1709653241,0.03,0.08191680908203125,0.03,1.0,0.3186410963535309,0.03
1709653241494658004,body,494580982,1709653241,0.03,0.07082909345626831,0.03,1.0,0.2754572629928589,0.03
1709653241504695529,body,504624372,1709653241,0.03,0.058901190757751465,0.03,1.0,0.20886673033237457,0.03
1709653241514640544,body,514572070,1709653241,0.03,0.043602049350738525,0.03,1.0,0.15454590320587158,0.03
1709653241524711972,body,524621443,1709653241,0.03,0.03,0.03,1.0,0.09468455612659454,0.03
1709653241534674325,body,534569386,1709653241,0.03,0.03,0.03,0.9069036245346069,0.034995436668395996,0.03
1709653241544656545,body,544589990,1709653241,0.03,0.03,0.03,0.7757627964019775,0.03,0.03
1709653241554706034,body,554591533,1709653241,0.03,0.03,0.03,0.5303020477294922,0.03,0.04157283902168274
1709653241564658649,body,564590973,1709653241,0.03,0.03,0.03,0.2699185907840729,0.03,0.06290295720100403
1709653241574655046,body,574591248,1709653241,0.03,0.03,0.03,0.13574326038360596,0.03,0.06454330682754517
1709653241584675692,body,584586503,1709653241,0.03,0.031398773193359375,0.03,0.03,0.03,0.07219317555427551
1709653241594745529,body,594615710,1709653241,0.03,0.05655151605606079,0.08872148394584656,0.03,0.03,0.07099452614784241
1709653241604639715,body,604573251,1709653241,0.03,0.07979154586791992,0.164899080991745,0.03,0.03,0.06748828291893005
1709653241614641749,body,614563032,1709653241,0.03,0.09473872184753418,0.23762670159339905,0.03,0.03,0.07542777061462402
1709653241624665711,body,624588549,1709653241,0.03,0.11772596836090088,0.3095872700214386,0.03,0.03,0.06108412146568298
1709653241634644321,body,634568620,1709653241,0.03,0.15250664949417114,0.34612223505973816,0.03,0.03,0.03
1709653241644723308,body,644607892,1709653241,1.0,0.03,0.6347832679748535,0.03,0.03,0.9388507604598999
1709653241654676499,body,654599610,1709653241,1.0,0.03,0.6924303770065308,0.03,0.03,0.9082452058792114
1709653241664662886,body,664568726,1709653241,0.979568600654602,0.03,0.7282286882400513,0.03,0.03,0.8870376348495483
1709653241674650909,body,674561946,1709653241,0.9097999930381775,0.03,0.7282286882400513,0.03,0.03,0.817710816860199
1709653241684683501,body,684589106,1709653241,0.8479740619659424,0.03,0.7282286882400513,0.03,0.03,0.7417504787445068
1709653241694659325,body,694603941,1709653241,0.7712597846984863,0.03,0.7282286882400513,0.03,0.03,0.6183029413223267
1709653241704648884,body,704582054,1709653241,0.6034034490585327,0.03,0.7282286882400513,0.03,0.03,0.48818618059158325
1709653241714647380,body,714591829,1709653241,0.44818300008773804,0.03,0.7282286882400513,0.03,0.03,0.37363091111183167
1709653241724680844,body,724584025,1709653241,0.3352073132991791,0.03,0.7226041555404663,0.03,0.03,0.2521771788597107
1709653241734647369,body,734584537,1709653241,0.2368958592414856,0.03,0.6393753290176392,0.03,0.03,0.1333906650543213
1709653241744671371,body,744603076,1709653241,0.1731637716293335,0.03,0.5642727613449097,0.03,0.03,0.032357990741729736
1709653241754665877,body,754596713,1709653241,0.11464864015579224,0.03,0.5058557987213135,0.03,0.04489415884017944,0.03
1709653241764637394,body,764567984,1709653241,0.07061690092086792,0.03,0.4417289197444916,0.03,0.14379101991653442,0.03
1709653241774624311,body,774566593,1709653241,0.04643911123275757,0.03,0.38231226801872253,0.03,0.2042917013168335,0.03
1709653241784643397,body,784588989,1709653241,0.04225951433181763,0.03,0.323238343000412,0.03,0.26030707359313965,0.03
1709653241794660256,body,794585063,1709653241,0.05757129192352295,0.03,0.2601938545703888,0.03,0.2726741433143616,0.03
1709653241804630061,body,804573972,1709653241,0.08915328979492188,0.03,0.19559699296951294,0.03,0.2726741433143616,0.03
1709653241814690500,body,814571596,1709653241,0.11615324020385742,0.03,0.13114160299301147,0.03,0.2726741433143616,0.03
1709653241824671522,body,824585646,1709653241,0.14161482453346252,0.03,0.06875291466712952,0.03,0.2726741433143616,0.03
1709653241834657327,body,834588736,1709653241,0.16567319631576538,0.03,0.03,0.03,0.2726741433143616,0.03
1709653241844656257,body,844607345,1709653241,0.1996614933013916,0.03,0.03,0.05939669907093048,0.2726741433143616,0.03
1709653241854663132,body,854579136,1709653241,0.03,1.0,0.04180744290351868,0.03,0.27095335721969604,0.03
1709653241864649002,body,864593625,1709653241,0.03,1.0,0.03,0.09198161959648132,0.27095335721969604,0.03
1709653241874614572,body,874565916,1709653241,0.03,1.0,0.03,0.20030146837234497,0.27095335721969604,0.03
1709653241884685007,body,884613615,1709653241,0.03,1.0,0.03,0.26902252435684204,0.27095335721969604,0.03
1709653241894766214,body,894591919,1709653241,0.03,1.0,0.03,0.3164050877094269,0.27095335721969604,0.03
1709653241904757903,body,904607013,1709653241,0.03,0.9730504155158997,0.03,0.3608718812465668,0.27095335721969604,0.03
1709653241914686789,body,914586029,1709653241,0.03,0.8925455212593079,0.03,0.40400704741477966,0.27095335721969604,0.03
1709653241924720073,body,924603197,1709653241,0.03,0.6910732388496399,0.03,0.4489753842353821,0.27095335721969604,0.03
1709653241934641944,body,934564486,1709653241,0.03,0.5598018169403076,0.03,0.5018767714500427,0.27095335721969604,0.03
1709653241944634110,body,944579737,1709653241,0.03,0.4484036862850189,0.03,0.5552729964256287,0.27095335721969604,0.03
1709653241954683375,body,954587469,1709653241,0.03,0.2978399693965912,0.03,0.605105996131897,0.27095335721969604,0.03
1709653241964649871,body,964569391,1709653241,0.03,0.15947800874710083,0.03,0.6585098505020142,0.2709243893623352,0.03
1709653241974673797,body,974590351,1709653241,0.03,0.04735851287841797,0.03,0.6457452178001404,0.19664740562438965,0.03
1709653241984697183,body,984625100,1709653241,0.03970038890838623,0.03,0.03,0.6268234252929688,0.137822687625885,0.03
1709653241994676570,body,994577957,1709653241,0.13178151845932007,0.03,0.03,0.5871596932411194,0.07070893049240112,0.03
1709653242004640354,body,4582812,1709653242,0.20203691720962524,0.03,0.03,0.5087800621986389,0.03,0.03
1709653242014727437,body,14614192,1709653242,0.20203691720962524,0.03,0.03,0.3940829336643219,0.03,0.12303131818771362
1709653242024647498,body,24577089,1709653242,0.20203691720962524,0.03,0.03,0.2756935656070709,0.03,0.2117519974708557
1709653242034621792,body,34560108,1709653242,0.20203691720962524,0.03,0.03,0.08704513311386108,0.03,0.2805343270301819
1709653242044647744,body,44582244,1709653242,0.20203691720962524,0.03,0.11200547963380814,0.03,0.03,0.33469241857528687
1709653242054635261,body,54590087,1709653242,0.5512479543685913,0.03,1.0,0.03,0.9492332339286804,0.03
1709653242064650370,body,64583877,1709653242,0.5512479543685913,0.03,1.0,0.03,0.8764865398406982,0.03
1709653242074672581,body,74596026,1709653242,0.5512479543685913,0.03,1.0,0.03,0.8113139271736145,0.03
1709653242084648051,body,84576264,1709653242,0.5512479543685913,0.03,1.0,0.03,0.7254071831703186,0.03
1709653242094676145,body,94603054,1709653242,0.5512479543685913,0.03,1.0,0.03,0.5929421782493591,0.03
1709653242104673505,body,104584184,1709653242,0.5512479543685913,0.03,1.0,0.03,0.46853184700012207,0.03
1709653242114681194,body,114591062,1709653242,0.5512479543685913,0.03,1.0,0.03,0.3808998465538025,0.03
1709653242124615120,body,124566506,1709653242,0.33259451389312744,0.03,1.0,0.03,0.06892985105514526,0.03
1709653242134756435,body,134620345,1709653242,0.24840718507766724,0.03,1.0,0.03,0.03,0.03
1709653242144659297,body,144603173,1709653242,0.16809570789337158,0.03,1.0,0.03,0.03,0.03550589084625244
1709653242154658277,body,154588332,1709653242,0.07820689678192139,0.03,1.0,0.03,0.03,0.06447833776473999
1709653242164651915,body,164580368,1709653242,0.03,0.03,1.0,0.03,0.03,0.08483266830444336
1709653242174690547,body,174602715,1709653242,0.03,0.08468961715698242,1.0,0.03,0.03,0.092140793800354
1709653242184684382,body,184603831,1709653242,0.03,0.1581774353981018,1.0,0.03,0.03,0.07966852188110352
1709653242194656477,body,194582898,1709653242,0.03,0.24372145533561707,1.0,0.03,0.03,0.07099783420562744
1709653242204638668,body,204573511,1709653242,0.03,0.3421734571456909,1.0,0.03,0.03,0.04879516363143921
1709653242214622576,body,214567636,1709653242,0.03,0.47165894508361816,1.0,0.03,0.03,0.03401315212249756
1709653242224644674,body,224588057,1709653242,0.03,0.5366249680519104,1.0,0.03,0.03,0.03
1709653242234667716,body,234583045,1709653242,0.03,0.5917778015136719,1.0,0.03,0.03,0.03
1709653242244670598,body,244593946,1709653242,0.03,0.6381608843803406,1.0,0.03,0.03,0.03
1709653242254652814,body,254564226,1709653242,0.03,0.6464104652404785,1.0,0.03,0.03,0.03
1709653242264671695,body,264587410,1709653242,0.31537294387817383,0.03,0.35046419501304626,0.03,0.03,0.5513697862625122
1709653242274688192,body,274580233,1709653242,0.30461764335632324,0.03,0.31633660197257996,0.03,0.03,0.5364404916763306
1709653242284672937,body,284594548,1709653242,0.31262147426605225,0.03,0.2871139943599701,0.03,0.03,0.5192499160766602
1709653242294657170,body,294571045,1709653242,0.3194027543067932,0.03,0.2624329626560211,0.03,0.03,0.5131733417510986
1709653242304672749,body,304598067,1709653242,0.31361785531044006,0.03,0.26756104826927185,0.03,0.03,0.5036022663116455
1709653242314668509,body,314592001,1709653242,0.2874904274940491,0.03,0.26806244254112244,0.03,0.03,0.4871317446231842
1709653242324625974,body,324566834,1709653242,0.2518380880355835,0.03,0.27339914441108704,0.03,0.03,0.44726523756980896
1709653242334657213,body,334579979,1709653242,0.23408737778663635,0.03,0.2666485011577606,0.03,0.03,0.4234713912010193
1709653242344682015,body,344589600,1709653242,0.2090294361114502,0.03,0.27480944991111755,0.03,0.03,0.39568597078323364
1709653242354668694,body,354605766,1709653242,0.17737725377082825,0.03,0.2847423851490021,0.03,0.03,0.3495804965496063
1709653242364696156,body,364616116,1709653242,0.14866691827774048,0.03,0.27932509779930115,0.03,0.03,0.31364861130714417
1709653242374656197,body,374585783,1709653242,0.11663627624511719,0.03,0.29189881682395935,0.03,0.03,0.2662662863731384
1709653242384624165,body,384565671,1709653242,0.08619427680969238,0.03,0.31089964509010315,0.03,0.03,0.22894564270973206
1709653242394671176,body,394554333,1709653242,0.07023555040359497,0.03,0.3037751019001007,0.03,0.03,0.18114987015724182
1709653242404664889,body,404595329,1709653242,0.05939769744873047,0.03,0.2794475853443146,0.03,0.03,0.11767846345901489
1709653242414677839,body,414584603,1709653242,0.04326927661895752,0.03,0.27406397461891174,0.03,0.03,0.0736527144908905
1709653242424667300,body,424583192,1709653242,0.038396596908569336,0.03,0.27714166045188904,0.03,0.03,0.0496053621172905
1709653242434680334,body,434593146,1709653242,0.03,0.03,0.28476259112358093,0.03,0.03,0.03
1709653242444679307,body,444628025,1709653242,0.03,0.03,0.28415563702583313,0.03,0.05157007277011871,0.03
1709653242454619538,body,454570103,1709653242,0.03,0.03,0.27288535237312317,0.03,0.11973673105239868,0.03
1709653242464679165,body,464600105,1709653242,0.03,0.7704700231552124,1.0,0.03,0.11531224846839905,0.03
1709653242474695019,body,474610526,1709653242,0.03,0.7772197127342224,1.0,0.03,0.14042142033576965,0.03
1709653242484648201,body,484589519,1709653242,0.03,0.7873229384422302,1.0,0.03,0.17311325669288635,0.03
1709653242494663291,body,494569264,1709653242,0.03,0.8001589775085449,1.0,0.03,0.2036590576171875,0.03
1709653242504624449,body,504566987,1709653242,0.03,0.8155800104141235,1.0,0.03,0.23826810717582703,0.03
1709653242514684883,body,514577041,1709653242,0.03,0.821102499961853,0.985499382019043,0.03,0.261539101600647,0.03
1709653242524677280,body,524575235,1709653242,0.03,0.8016131520271301,0.9474611282348633,0.03,0.27311962842941284,0.03
1709653242534669625,body,534586288,1709653242,0.03,0.7806090712547302,0.9099370837211609,0.03,0.2908245921134949,0.03
1709653242544652061,body,544582417,1709653242,0.03,0.7460756301879883,0.8692591786384583,0.03,0.30670395493507385,0.03
1709653242554671406,body,554600456,1709653242,0.03,0.6983813047409058,0.8066526651382446,0.03,0.31575554609298706,0.03
1709653242564643054,body,564581104,1709653242,0.03,0.6582844853401184,0.769351601600647,0.03,0.3355579674243927,0.03
1709653242574730713,body,574603671,1709653242,0.03,0.6139461398124695,0.7322195172309875,0.03,0.3380443751811981,0.03
1709653242584654681,body,584591332,1709653242,0.03,0.5690248608589172,0.6942671537399292,0.03,0.3404700756072998,0.03
1709653242594650672,body,594589689,1709653242,0.03,0.5277732610702515,0.6559484004974365,0.03,0.35513541102409363,0.03
1709653242604620243,body,604567413,1709653242,0.03,0.47527438402175903,0.597514808177948,0.03,0.3673042953014374,0.03
1709653242614666048,body,614584285,1709653242,0.03,0.41333991289138794,0.5260960459709167,0.03,0.35858988761901855,0.03
1709653242624661559,body,624576962,1709653242,0.03,0.34988731145858765,0.47349926829338074,0.03,0.3453372120857239,0.03
1709653242634669046,body,634581003,1709653242,0.03,0.2684837281703949,0.37604260444641113,0.03,0.3344450891017914,0.03
1709653242644722381,body,644622060,1709653242,0.03,0.15459586679935455,0.3225856125354767,0.03,0.31907275319099426,0.03
1709653242654652455,body,654568817,1709653242,0.03,0.1238473504781723,0.27277255058288574,0.03,0.3224257826805115,0.03
1709653242664692503,body,664600435,1709653242,0.03,0.06579045951366425,0.22446011006832123,0.03,0.3076774477958679,0.03
1709653242674616582,body,674566816,1709653242,0.44050484895706177,0.03,0.03,0.16726656258106232,0.03,0.46898356080055237
1709653242684647146,body,684570534,1709653242,0.46317148208618164,0.03,0.03,0.1930505782365799,0.03,0.48227551579475403
1709653242694672192,body,694590445,1709653242,0.48018693923950195,0.03,0.03,0.21173544228076935,0.03,0.5004026889801025
1709653242704653954,body,704605013,1709653242,0.49138590693473816,0.03,0.03,0.22632960975170135,0.03,0.5243661403656006
1709653242714647265,body,714582086,1709653242,0.4890546202659607,0.03,0.03,0.23960630595684052,0.03,0.5273749232292175
1709653242724669989,body,724601872,1709653242,0.49034684896469116,0.03,0.03,0.25498324632644653,0.03,0.5322575569152832
1709653242734705915,body,734585322,1709653242,0.49123290181159973,0.03,0.03,0.2687058448791504,0.03,0.5329821109771729
1709653242744655246,body,744582286,1709653242,0.4745173454284668,0.03,0.03,0.2674030661582947,0.03,0.5239930152893066
1709653242754669073,body,754568631,1709653242,0.4669424891471863,0.03,0.03,0.26135194301605225,0.03,0.5163367986679077
1709653242764673392,body,764575133,1709653242,0.4514663815498352,0.03,0.03,0.26149362325668335,0.03,0.49940043687820435
1709653242774653695,body,774590968,1709653242,0.42975538969039917,0.03,0.03,0.25488847494125366,0.03,0.4712845981121063
1709653242784637219,body,784575025,1709653242,0.39719247817993164,0.03,0.03,0.24520711600780487,0.03,0.43907222151756287
1709653242794642424,body,794566583,1709653242,0.3788522481918335,0.03,0.03,0.23040302097797394,0.03,0.4211588203907013
1709653242804669438,body,804591217,1709653242,0.3456292450428009,0.03,0.03,0.22508148849010468,0.03,0.3877525329589844
1709653242814681981,body,814564640,1709653242,0.29557618498802185,0.03,0.03,0.21073497831821442,0.03,0.3520491123199463
1709653242824668887,body,824600001,1709653242,0.2527732849121094,0.03,0.03,0.21264202892780304,0.03,0.3116430640220642
1709653242834643842,body,834590295,1709653242,0.22634735703468323,0.03,0.03,0.20806749165058136,0.03,0.29090818762779236
1709653242844624805,body,844565089,1709653242,0.17929399013519287,0.03,0.03,0.19627100229263306,0.03,0.2589908540248871
1709653242854678391,body,854575760,1709653242,0.1772042214870453,0.03,0.03,0.19394221901893616,0.03,0.22823286056518555
1709653242864650269,body,864584631,1709653242,0.18793150782585144,0.03,0.03,0.19576449692249298,0.03,0.20562052726745605
1709653242874639314,body,874570202,1709653242,0.03,0.1770308017730713,0.44272616505622864,0.03,1.0,0.03
1709653242884694689,body,884625376,1709653242,0.03,0.1359100639820099,0.45024871826171875,0.03,1.0,0.03
1709653242894650321,body,894572012,1709653242,0.03,0.09075230360031128,0.4412652254104614,0.03,1.0,0.03
1709653242904637291,body,904562300,1709653242,0.03,0.054807405918836594,0.43278491497039795,0.03,1.0,0.03
1709653242914644537,body,914570485,1709653242,0.03,0.03,0.4244215190410614,0.03,1.0,0.03
1709653242924707823,body,924594947,1709653242,0.03,0.03,0.4155445396900177,0.03,1.0,0.03
1709653242934691865,body,934590120,1709653242,0.03,0.03,0.3964403569698334,0.03,1.0,0.03
1709653242944679488,body,944591787,1709653242,0.06425490975379944,0.03,0.3862519860267639,0.03,1.0,0.03
1709653242954696731,body,954609006,1709653242,0.09505018591880798,0.03,0.377399742603302,0.03,1.0,0.03
1709653242964681633,body,964588879,1709653242,0.11160491406917572,0.03,0.3675575256347656,0.03,1.0,0.03
1709653242974660461,body,974578803,1709653242,0.10805493593215942,0.03,0.3477625250816345,0.03,0.8893777132034302,0.03
1709653242984639873,body,984564985,1709653242,0.11502756178379059,0.03,0.31880879402160645,0.03,0.7567197680473328,0.03
1709653242994686395,body,994593172,1709653242,0.11527155339717865,0.03,0.2763376832008362,0.03,0.5880275368690491,0.03
1709653243004660800,body,4592161,1709653243,0.10439512133598328,0.03,0.24092885851860046,0.03,0.47357654571533203,0.03
1709653243014658193,body,14591819,1709653243,0.09639866650104523,0.03,0.2052842676639557,0.03,0.36107268929481506,0.03
1709653243024665741,body,24587238,1709653243,0.08243966102600098,0.03,0.1677032709121704,0.03,0.2873591482639313,0.03
1709653243034639213,body,34563556,1709653243,0.06574930250644684,0.03,0.12842333316802979,0.03,0.22901514172554016,0.03
1709653243044669798,body,44598946,1709653243,0.0457460880279541,0.03,0.07921421527862549,0.03,0.20161056518554688,0.03
1709653243054624468,body,54565855,1709653243,0.03,0.03,0.03,0.03,0.20175254344940186,0.03
1709653243064653925,body,64580230,1709653243,0.03,0.03,0.03,0.03,0.18577033281326294,0.03
1709653243074674512,body,74588184,1709653243,0.39191576838493347,0.03,0.03,1.0,0.03,0.11977547407150269
1709653243084643507,body,84574189,1709653243,0.33145225048065186,0.03,0.03,1.0,0.03,0.09635567665100098
1709653243094629106,body,94568433,1709653243,0.2836310565471649,0.03,0.03,1.0,0.03,0.08040949702262878
1709653243104684056,body,104604112,1709653243,0.2569717466831207,0.03,0.03,1.0,0.03,0.06890895962715149
1709653243114678907,body,114594348,1709653243,0.23972810804843903,0.03,0.03,1.0,0.03,0.05668261647224426
1709653243124656660,body,124589898,1709653243,0.21410351991653442,0.03,0.03,1.0,0.03,0.034428298473358154
1709653243134702474,body,134592690,1709653243,0.20692510902881622,0.03,0.03,1.0,0.03,0.03
