log_time_ns,header.frame_id,header.stamp.nanosec,header.stamp.sec,motor_a_1,motor_a_2,motor_b_1,motor_b_2,motor_c_1,motor_c_2
1709652891805971645,body,805851623,1709652891,0.03,0.03,0.03,0.06024690717458725,0.03,0.03
1709652891815828647,body,815759361,1709652891,0.03,0.03,0.03,0.06558605283498764,0.03,0.03
1709652891825836260,body,825756939,1709652891,0.03,0.03,0.03,0.06489615887403488,0.03,0.03
1709652891835839142,body,835764314,1709652891,0.03,0.03,0.03,0.06505998969078064,0.03,0.03
1709652891845783822,body,845717729,1709652891,0.03,0.03,0.03,0.0698314756155014,0.03743830323219299,0.03
1709652891855843864,body,855751158,1709652891,0.03,0.03,0.03,0.05924758315086365,0.03,0.03
1709652891865866116,body,865762384,1709652891,0.03,0.03,0.03,0.047603100538253784,0.03,0.03
1709652891875867761,body,875762818,1709652891,0.03,0.03,0.03,0.05257497727870941,0.03,0.03
1709652891885847565,body,885753409,1709652891,0.03,0.03,0.03,0.05688122287392616,0.03,0.03
1709652891895829621,body,895752590,1709652891,0.03,0.03,0.03,0.06037846580147743,0.03,0.03
1709652891905833501,body,905756423,1709652891,0.03,0.03,0.03,0.060770634561777115,0.03,0.03
1709652891915889687,body,915782323,1709652891,0.03,0.03,0.03,0.04217701032757759,0.03,0.03
1709652891925849481,body,925761465,1709652891,0.03,0.03,0.03,0.05364256724715233,0.03,0.03
1709652891935895756,body,935774068,1709652891,0.03,0.03,0.03,0.05567310377955437,0.03,0.03
1709652891945827374,body,945749879,1709652891,0.03,0.03,0.03,0.06492697447538376,0.03,0.03
1709652891955852448,body,955768898,1709652891,0.03,0.03,0.03,0.06629844009876251,0.03,0.03
1709652891965927504,body,965796066,1709652891,0.03,0.03,0.03,0.043468888849020004,0.03,0.03
1709652891975941152,body,975800858,1709652891,0.03,0.03,0.03,0.039912544190883636,0.03,0.03
1709652891985889237,body,985780801,1709652891,0.03,0.03,0.03,0.05219874531030655,0.03,0.03
1709652891995956333,body,995808271,1709652891,0.03,0.03,0.03,0.05537721514701843,0.03,0.03
1709652892005944851,body,5802978,1709652892,0.5679661631584167,0.03,0.03,0.2243846356868744,0.464992880821228,0.03
1709652892015922315,body,15791972,1709652892,0.563581109046936,0.03,0.03,0.2314346730709076,0.4837440252304077,0.03
1709652892025880024,body,25785201,1709652892,0.559958815574646,0.03,0.03,0.23086366057395935,0.483461856842041,0.03
1709652892035967204,body,35822434,1709652892,0.564382791519165,0.03,0.03,0.24103489518165588,0.4948740005493164,0.03
1709652892045955973,body,45819417,1709652892,0.5836463570594788,0.03,0.03,0.23852530121803284,0.479695200920105,0.03
1709652892055987973,body,55781412,1709652892,0.5804455280303955,0.03,0.03,0.2404194176197052,0.48455795645713806,0.03
1709652892065911997,body,65803160,1709652892,0.5875062942504883,0.03,0.03,0.24325796961784363,0.48589107394218445,0.03
1709652892075921562,body,75803158,1709652892,0.5826757550239563,0.03,0.03,0.22677211463451385,0.47074463963508606,0.03
1709652892086065043,body,85867191,1709652892,0.5600219368934631,0.03,0.03,0.2158609926700592,0.4712977111339569,0.03
1709652892095980352,body,95812519,1709652892,0.5241190195083618,0.03,0.03,0.2033395916223526,0.4627295732498169,0.03
1709652892105985455,body,105832793,1709652892,0.4802756905555725,0.03,0.03,0.1495526283979416,0.4271576404571533,0.03
1709652892115996472,body,115835507,1709652892,0.4443918466567993,0.03,0.03,0.09651629626750946,0.3843534588813782,0.03
1709652892126024154,body,125837387,1709652892,0.3874521255493164,0.03,0.03,0.051106229424476624,0.3196701109409332,0.03
1709652892135972030,body,135825105,1709652892,0.3500174880027771,0.03,0.03,0.0412360280752182,0.2811398506164551,0.03
1709652892145999399,body,145832674,1709652892,0.3069721460342407,0.03,0.03,0.052698731422424316,0.2383350431919098,0.03
1709652892156018774,body,155852656,1709652892,0.27293655276298523,0.03,0.03,0.05235278606414795,0.2007024884223938,0.03
1709652892166000237,body,165832455,1709652892,0.2409771978855133,0.03,0.03,0.06537392735481262,0.15277716517448425,0.03
1709652892176064295,body,175867773,1709652892,0.20986899733543396,0.03,0.03,0.05490811914205551,0.11771568655967712,0.03
1709652892186033432,body,185841566,1709652892,0.17707973718643188,0.03,0.03,0.030999377369880676,0.08022454380989075,0.03
1709652892196097293,body,195887751,1709652892,0.15153372287750244,0.03,0.03,0.03162297606468201,0.05704408884048462,0.03
1709652892205995467,body,205832113,1709652892,0.07071909308433533,0.03,0.7958366870880127,0.03,0.03,0.9168035984039307
1709652892215967129,body,215793479,1709652892,0.062124401330947876,0.03,0.7820987105369568,0.03,0.03,0.928760290145874
1709652892225995586,body,225825301,1709652892,0.05872258543968201,0.03,0.7334638237953186,0.03,0.03,0.9387267827987671
1709652892236034023,body,235828686,1709652892,0.06673792004585266,0.03,0.6469830274581909,0.03,0.03,0.9563421010971069
1709652892246097592,body,245870782,1709652892,0.07786747813224792,0.03,0.6403096318244934,0.03,0.03,0.9688493013381958
1709652892256030473,body,255842194,1709652892,0.08363771438598633,0.03,0.6106094121932983,0.03,0.03,0.9670827388763428
1709652892266001976,body,265826287,1709652892,0.0860958993434906,0.03,0.6074962615966797,0.03,0.03,0.9442654848098755
1709652892275893877,body,275782886,1709652892,0.09987419843673706,0.03,0.577111005783081,0.03,0.03,0.9191809296607971
1709652892285901322,body,285791472,1709652892,0.10504311323165894,0.03,0.5529062747955322,0.03,0.03,0.8753575086593628
1709652892296050080,body,295854126,1709652892,0.10689195990562439,0.03,0.5482240915298462,0.03,0.03,0.7809691429138184
1709652892306160210,body,305924965,1709652892,0.09002378582954407,0.03,0.5573580861091614,0.03,0.03,0.6770658493041992
1709652892316131431,body,315888361,1709652892,0.10260069370269775,0.03,0.5716118812561035,0.03,0.03,0.5244912505149841
1709652892326079070,body,325857591,1709652892,0.11409646272659302,0.03,0.5422544479370117,0.03,0.03,0.3570598363876343
1709652892335968474,body,335831269,1709652892,0.11745759844779968,0.03,0.533346951007843,0.03,0.03,0.24612151086330414
1709652892346042097,body,345857545,1709652892,0.1384294033050537,0.03,0.499713659286499,0.03,0.03,0.16250109672546387
1709652892356069481,body,355878030,1709652892,0.15679913759231567,0.03,0.4641808867454529,0.03,0.03,0.10047975182533264
1709652892366006532,body,365836051,1709652892,0.17235133051872253,0.03,0.4334728717803955,0.03,0.03,0.05337756872177124
1709652892376074662,body,375857645,1709652892,0.18901178240776062,0.03,0.404230535030365,0.03,0.03,0.03246769309043884
1709652892385986958,body,385816945,1709652892,0.19992530345916748,0.03,0.36409181356430054,0.03,0.03,0.03
1709652892396053124,body,395799499,1709652892,0.18281373381614685,0.03,0.3326461911201477,0.03,0.03,0.03
1709652892406072002,body,405874738,1709652892,0.03,0.5708467960357666,0.06971246004104614,0.03,0.12576255202293396,0.03
1709652892415964610,body,415805424,1709652892,0.03,0.5945451259613037,0.0405028760433197,0.03,0.1130841076374054,0.03
1709652892425903776,body,425782209,1709652892,0.03,0.6110185384750366,0.03,0.03,0.11001855134963989,0.03
1709652892435917386,body,435789077,1709652892,0.03,0.631881594657898,0.03,0.03,0.11063790321350098,0.03
1709652892445871631,body,445766432,1709652892,0.03,0.6596901416778564,0.03,0.03,0.09851831197738647,0.03
1709652892455957010,body,455822081,1709652892,0.03,0.6644855737686157,0.03,0.04205602407455444,0.08382514119148254,0.03
1709652892465871934,body,465774588,1709652892,0.03,0.6736688017845154,0.03,0.05733299255371094,0.07628929615020752,0.03
1709652892475908018,body,475789146,1709652892,0.03,0.6743389368057251,0.03,0.0617089569568634,0.06278479099273682,0.03
1709652892485896959,body,485788385,1709652892,0.03,0.6669803261756897,0.03,0.06050822138786316,0.054468512535095215,0.03
1709652892495894841,body,495786345,1709652892,0.03,0.6509284973144531,0.03,0.05434867739677429,0.05852118134498596,0.03
1709652892505957777,body,505804638,1709652892,0.03,0.6242870092391968,0.03,0.05098298192024231,0.05736449360847473,0.03
1709652892515830515,body,515756326,1709652892,0.03,0.584434986114502,0.03,0.06103000044822693,0.04733273386955261,0.03
1709652892525924890,body,525794985,1709652892,0.03,0.5274901390075684,0.03,0.05337768793106079,0.056931763887405396,0.03
1709652892535912678,body,535775705,1709652892,0.03,0.4451938271522522,0.03,0.05873370170593262,0.04717949032783508,0.03
1709652892545892291,body,545790922,1709652892,0.03,0.3688287138938904,0.03,0.062191784381866455,0.06154683232307434,0.03
1709652892555956489,body,555812890,1709652892,0.03,0.19263294339179993,0.03,0.0591142475605011,0.052561819553375244,0.03
1709652892565957996,body,565797633,1709652892,0.03,0.10053598880767822,0.03,0.05494758486747742,0.06436792016029358,0.03
1709652892575956219,body,575798913,1709652892,0.03,0.04161866009235382,0.03,0.05245509743690491,0.0753943920135498,0.03
1709652892585957843,body,585811835,1709652892,0.03,0.03,0.03,0.04360455274581909,0.08022862672805786,0.03
1709652892596038835,body,595865537,1709652892,0.047969669103622437,0.03,0.03,0.043931424617767334,0.0735563337802887,0.03
1709652892605971273,body,605835820,1709652892,0.09042644500732422,0.03,0.03,0.04299306869506836,0.0642487108707428,0.03
1709652892615953320,body,615816312,1709652892,0.4557819068431854,0.03,0.03,0.5073193907737732,0.6338476538658142,0.03
1709652892625941337,body,625812794,1709652892,0.48455798625946045,0.03,0.03,0.5039216876029968,0.6102373600006104,0.03
1709652892635999079,body,635850067,1709652892,0.4941967725753784,0.03,0.03,0.4966328740119934,0.6160759925842285,0.03
1709652892645935324,body,645810326,1709652892,0.49799150228500366,0.03,0.03,0.5035651326179504,0.6047179102897644,0.03
1709652892655924199,body,655806196,1709652892,0.5096630454063416,0.03,0.03,0.5012620687484741,0.594170093536377,0.03
1709652892665964447,body,665831856,1709652892,0.5233578681945801,0.03,0.03,0.5077672600746155,0.5772254467010498,0.03
1709652892675968081,body,675823059,1709652892,0.5220257043838501,0.03,0.03,0.49873465299606323,0.5478440523147583,0.03
1709652892685944465,body,685821481,1709652892,0.5195339918136597,0.03,0.03,0.48106008768081665,0.5078225135803223,0.03
1709652892696031272,body,695879383,1709652892,0.5157040357589722,0.03,0.03,0.4500952363014221,0.4320092499256134,0.03
1709652892705875961,body,705775188,1709652892,0.49684247374534607,0.03,0.03,0.41156136989593506,0.3759528696537018,0.03
1709652892715912801,body,715796561,1709652892,0.46898388862609863,0.03,0.03,0.37006425857543945,0.30554237961769104,0.03
1709652892725928597,body,725802846,1709652892,0.44692087173461914,0.03,0.03,0.33586686849594116,0.16565589606761932,0.03
1709652892735947115,body,735822469,1709652892,0.4211006164550781,0.03,0.03,0.29497653245925903,0.06981618702411652,0.03
1709652892745984095,body,745819420,1709652892,0.3726276755332947,0.03,0.03,0.23228588700294495,0.03,0.03
1709652892756004458,body,755831060,1709652892,0.34704235196113586,0.03,0.03,0.22460108995437622,0.03,0.03
1709652892766027210,body,765846044,1709652892,0.3125692903995514,0.03,0.03,0.19960917532444,0.03,0.053378134965896606
1709652892776028820,body,775850833,1709652892,0.2651967406272888,0.03,0.03,0.17538021504878998,0.03,0.051495492458343506
1709652892785955755,body,785823196,1709652892,0.21354331076145172,0.03,0.03,0.1679028868675232,0.03,0.056930720806121826
1709652892796026700,body,795848550,1709652892,0.16532164812088013,0.03,0.03,0.1375424861907959,0.03,0.0554203987121582
1709652892806068583,body,805890505,1709652892,0.10383880883455276,0.03,0.03,0.11317455023527145,0.03,0.06050118803977966
1709652892816009195,body,815842613,1709652892,0.03,0.22755621373653412,0.03,0.0605284608900547,0.44832098484039307,0.03
1709652892826053692,body,825858268,1709652892,0.03,0.24331623315811157,0.03,0.05607577785849571,0.4562109708786011,0.03
1709652892835932683,body,835804822,1709652892,0.03,0.2627156674861908,0.03,0.06970031559467316,0.4494948983192444,0.03
1709652892846007507,body,845837361,1709652892,0.03,0.22845065593719482,0.03,0.07938025891780853,0.43589964509010315,0.03
1709652892856098931,body,855888575,1709652892,0.03,0.2540099024772644,0.03,0.04949754849076271,0.44047170877456665,0.03
1709652892866069447,body,865865967,1709652892,0.03,0.24260437488555908,0.03,0.04853216931223869,0.4192154109477997,0.03
1709652892876065699,body,875894698,1709652892,0.03,0.24640874564647675,0.03,0.03,0.4168926775455475,0.03
1709652892886031461,body,885847373,1709652892,0.03,0.21576224267482758,0.03,0.03609533607959747,0.3921785056591034,0.03
1709652892896083529,body,895878242,1709652892,0.03,0.172667995095253,0.03,0.044290367513895035,0.3784204125404358,0.03
1709652892906083674,body,905889074,1709652892,0.03,0.1422550231218338,0.03,0.05951244756579399,0.3446440100669861,0.03
1709652892916147488,body,915912530,1709652892,0.03,0.1076015904545784,0.03,0.052151840180158615,0.3172408640384674,0.03
1709652892926021952,body,925842959,1709652892,0.03,0.08278962969779968,0.03,0.06674279272556305,0.2831593155860901,0.03
1709652892935991486,body,935830705,1709652892,0.03,0.05033309757709503,0.03,0.07962666451931,0.254669189453125,0.03
1709652892945982546,body,945816870,1709652892,0.03,0.046032100915908813,0.03,0.09466101229190826,0.2395082414150238,0.03
1709652892956066480,body,955853726,1709652892,0.03,0.04887418448925018,0.03,0.09750482439994812,0.24053776264190674,0.03
1709652892966096321,body,965904610,1709652892,0.03,0.03664311766624451,0.03,0.11601598560810089,0.2214655876159668,0.03
1709652892976006944,body,975841965,1709652892,0.03,0.03,0.03,0.12770745158195496,0.2082371711730957,0.03
1709652892986106209,body,985906233,1709652892,0.03,0.03,0.03,0.1623014211654663,0.18760865926742554,0.03
1709652892996019017,body,995855040,1709652892,0.03,0.03,0.03,0.17797215282917023,0.17522430419921875,0.03
1709652893006023786,body,5867285,1709652893,0.03,0.03,0.03,0.19369162619113922,0.16497719287872314,0.03
1709652893016106806,body,15867219,1709652893,0.9036561846733093,0.03,0.03,0.03,0.03,0.21873170137405396
1709652893026059534,body,25813272,1709652893,0.9042428731918335,0.03,0.03,0.03,0.03,0.22163069248199463
1709652893035955364,body,35815755,1709652893,0.9028680324554443,0.03,0.03,0.03,0.03,0.22233986854553223
1709652893045967181,body,45818558,1709652893,0.9123362898826599,0.03,0.03,0.032078713178634644,0.03,0.2247917652130127
1709652893056086761,body,55868134,1709652893,0.917309045791626,0.03,0.03,0.04469972848892212,0.03,0.22158026695251465
1709652893066027953,body,65833276,1709652893,0.9070913791656494,0.03,0.03,0.06000080704689026,0.03,0.21298235654830933
1709652893076017728,body,75853261,1709652893,0.8863529562950134,0.03,0.03,0.08396714925765991,0.03,0.20519596338272095
1709652893086051780,body,85859272,1709652893,0.8549548387527466,0.03,0.03,0.08788958191871643,0.03,0.20666128396987915
1709652893096110684,body,95838711,1709652893,0.7648557424545288,0.03,0.03,0.1005835235118866,0.03,0.19714421033859253
1709652893106048242,body,105859453,1709652893,0.6250503659248352,0.03,0.03,0.1116098165512085,0.03,0.18814939260482788
1709652893116026884,body,115856174,1709652893,0.4897797405719757,0.03,0.03,0.09281966090202332,0.03,0.18257266283035278
1709652893126116428,body,125919199,1709652893,0.39027541875839233,0.03,0.03,0.10197725892066956,0.03,0.1910887360572815
1709652893135938201,body,135804414,1709652893,0.32189080119132996,0.03,0.03,0.1134028434753418,0.03,0.19867092370986938
1709652893146129480,body,145931039,1709652893,0.26385435461997986,0.03,0.03,0.12727540731430054,0.03,0.20131921768188477
1709652893156050800,body,155862201,1709652893,0.20972946286201477,0.03,0.03,0.1495646834373474,0.03,0.20676982402801514
1709652893165980511,body,165829961,1709652893,0.1811593770980835,0.03,0.03,0.1786453127861023,0.03,0.21475154161453247
1709652893176083987,body,175863456,1709652893,0.15030241012573242,0.03,0.03,0.1860264539718628,0.03,0.22817236185073853
1709652893185996273,body,185836027,1709652893,0.14623510837554932,0.03,0.03,0.24018988013267517,0.03,0.2313719391822815
1709652893196102357,body,195827944,1709652893,0.14616060256958008,0.03,0.03,0.24628740549087524,0.03,0.23008674383163452
1709652893206216845,body,205982259,1709652893,0.12916630506515503,0.03,0.03,0.2407701313495636,0.03,0.23757493495941162
1709652893216134973,body,215906636,1709652893,0.03,1.0,0.03,0.29711195826530457,0.03,1.0
1709652893226043746,body,225857120,1709652893,0.03,1.0,0.03,0.28723645210266113,0.03,1.0
1709652893236019799,body,235855983,1709652893,0.03,1.0,0.03,0.2907322347164154,0.03,1.0
1709652893245971038,body,245837587,1709652893,0.03,1.0,0.03,0.3030586540699005,0.03,1.0
1709652893256027752,body,255835642,1709652893,0.03,1.0,0.03,0.27698615193367004,0.03,1.0
1709652893265969663,body,265813461,1709652893,0.03,1.0,0.03,0.2843724191188812,0.03,1.0
1709652893276113404,body,275900472,1709652893,0.03,1.0,0.03,0.2531469166278839,0.03,1.0
1709652893286005547,body,285857694,1709652893,0.03,1.0,0.03,0.2388436198234558,0.03,1.0
1709652893296006354,body,295871900,1709652893,0.03,1.0,0.03,0.22584334015846252,0.03,0.9735682010650635
1709652893305982608,body,305820300,1709652893,0.03,0.9395914077758789,0.03,0.21711382269859314,0.03,0.8333125114440918
1709652893316010836,body,315859089,1709652893,0.03,0.799521803855896,0.03,0.19428366422653198,0.03,0.6320487856864929
1709652893325950550,body,325807458,1709652893,0.03,0.6172226667404175,0.03,0.1803899109363556,0.03,0.5268139839172363
1709652893336044571,body,335874374,1709652893,0.03,0.36970508098602295,0.03,0.16426849365234375,0.03,0.44546836614608765
1709652893345967897,body,345831691,1709652893,0.03,0.21660125255584717,0.03,0.14632877707481384,0.03,0.37141573429107666
1709652893356055167,body,355840976,1709652893,0.03,0.0786719024181366,0.03,0.092669278383255,0.03,0.3455355763435364
1709652893365981959,body,365840371,1709652893,0.03441917896270752,0.03,0.03,0.0379888117313385,0.03,0.3224274218082428
1709652893376017039,body,375834888,1709652893,0.1047292947769165,0.03,0.06592515110969543,0.03,0.03,0.30342137813568115
1709652893386095686,body,385896877,1709652893,0.16590547561645508,0.03,0.27269279956817627,0.03,0.03,0.2942258417606354
1709652893396153220,body,395850412,1709652893,0.20513617992401123,0.03,0.32259708642959595,0.03,0.03,0.28565841913223267
1709652893406046873,body,405842198,1709652893,0.24849194288253784,0.03,0.3793921172618866,0.03,0.03,0.29442882537841797
1709652893416047804,body,415846748,1709652893,0.25092244148254395,0.03,0.43684208393096924,0.03,0.03,0.31140369176864624
1709652893426166278,body,425965566,1709652893,0.43341854214668274,0.03,0.03,0.27338269352912903,0.9326624870300293,0.03
1709652893436153956,body,435920591,1709652893,0.4615066945552826,0.03,0.03,0.23537316918373108,0.8980422616004944,0.03
1709652893445906354,body,445798760,1709652893,0.4538099467754364,0.03,0.03,0.21500277519226074,0.8604062795639038,0.03
1709652893455918087,body,455787439,1709652893,0.45258447527885437,0.03,0.03,0.18984171748161316,0.8384285569190979,0.03
1709652893465956272,body,465797904,1709652893,0.41670385003089905,0.03,0.03,0.1452019214630127,0.7979851961135864,0.03
1709652893475928840,body,475801161,1709652893,0.39954623579978943,0.03,0.03,0.09462383389472961,0.7569736242294312,0.03
1709652893485912927,body,485811343,1709652893,0.3634013831615448,0.03,0.03,0.03988128900527954,0.7213773131370544,0.03
1709652893495941054,body,495803628,1709652893,0.3077380359172821,0.03,0.03,0.03,0.6384783983230591,0.03
1709652893505932136,body,505800802,1709652893,0.2557443678379059,0.03,0.06903141736984253,0.03,0.5593620538711548,0.03
1709652893515888486,body,515796908,1709652893,0.19948044419288635,0.03,0.10260111093521118,0.03,0.43379390239715576,0.03
1709652893525970776,body,525848298,1709652893,0.15434661507606506,0.03,0.147274911403656,0.03,0.3004080653190613,0.03
1709652893535890582,body,535783690,1709652893,0.10021457076072693,0.03,0.19634270668029785,0.03,0.23379912972450256,0.03
1709652893545936870,body,545809320,1709652893,0.040094196796417236,0.03,0.2299809455871582,0.03,0.17512312531471252,0.03
1709652893556028513,body,555853255,1709652893,0.03,0.03,0.2319672703742981,0.03,0.12689131498336792,0.03
1709652893565893494,body,565764302,1709652893,0.03,0.07671579718589783,0.25931012630462646,0.03,0.11657387018203735,0.03
1709652893575952654,body,575827531,1709652893,0.03,0.14818567037582397,0.29042577743530273,0.03,0.11458909511566162,0.03
1709652893585909968,body,585797323,1709652893,0.03,0.22235828638076782,0.25671273469924927,0.03,0.13915762305259705,0.03
1709652893595995694,body,595836972,1709652893,0.03,0.2592632472515106,0.279232382774353,0.03,0.1471623182296753,0.03
1709652893605940966,body,605815757,1709652893,0.03,0.3020343780517578,0.3066800832748413,0.03,0.1400875747203827,0.03
1709652893615940906,body,615808468,1709652893,0.03,0.3629123866558075,0.3393329977989197,0.03,0.15579384565353394,0.03
1709652893625993023,body,625818245,1709652893,0.03,0.47983190417289734,0.3620164394378662,0.03,0.17670783400535583,0.03
1709652893635963932,body,635814322,1709652893,0.03,0.6719642281532288,0.7747049331665039,0.03,0.03,0.8705849051475525
1709652893645925497,body,645802759,1709652893,0.03,0.7148165106773376,0.7906193137168884,0.03,0.03,0.8272884488105774
1709652893655978668,body,655833441,1709652893,0.03,0.7485101819038391,0.7863367795944214,0.03,0.03,0.7797636389732361
1709652893665930623,body,665815891,1709652893,0.03,0.7626368999481201,0.7361843585968018,0.03,0.03,0.7200367450714111
1709652893675936086,body,675815011,1709652893,0.03,0.7492368221282959,0.7043362855911255,0.03,0.03,0.7028024792671204
1709652893686078747,body,685875332,1709652893,0.03,0.7353050708770752,0.6735865473747253,0.03,0.03,0.6635770797729492
1709652893695949644,body,695799954,1709652893,0.03,0.6833114624023438,0.5977222323417664,0.03,0.03,0.5711097121238708
1709652893705935905,body,705803842,1709652893,0.03,0.6135713458061218,0.5421569347381592,0.03,0.03,0.5029724836349487
1709652893715978321,body,715793438,1709652893,0.03,0.4812411963939667,0.48551738262176514,0.03,0.03,0.4373238682746887
1709652893726004306,body,725841666,1709652893,0.03,0.382996141910553,0.4215496778488159,0.03,0.03,0.35133177042007446
1709652893735942657,body,735813219,1709652893,0.03,0.31898999214172363,0.3689468502998352,0.03,0.03,0.30342644453048706
1709652893745901159,body,745799562,1709652893,0.03,0.2573854327201843,0.3267531991004944,0.03,0.03,0.2588120996952057
1709652893755998888,body,755851370,1709652893,0.03,0.2064257562160492,0.28943580389022827,0.03,0.03,0.2241860330104828
1709652893766036544,body,765848946,1709652893,0.03,0.15418675541877747,0.2796047329902649,0.03,0.03,0.20692411065101624
1709652893776007907,body,775824483,1709652893,0.03,0.12896981835365295,0.2803833484649658,0.03,0.03,0.17447581887245178
1709652893786044420,body,785829458,1709652893,0.03,0.10583549737930298,0.2708388566970825,0.03,0.03,0.15527978539466858
1709652893796012035,body,795848125,1709652893,0.03,0.10473400354385376,0.26743704080581665,0.03,0.03,0.1278454065322876
1709652893806032517,body,805857221,1709652893,0.03,0.10415107011795044,0.2549542188644409,0.03,0.03,0.10475927591323853
1709652893816043623,body,815852453,1709652893,0.03,0.09502935409545898,0.24210037291049957,0.03,0.03,0.08712214231491089
1709652893826026598,body,825860575,1709652893,0.03,0.07338914275169373,0.2209031730890274,0.03,0.03,0.07880198955535889
1709652893836036084,body,835850412,1709652893,0.03,0.13924387097358704,1.0,0.03,0.0543038547039032,0.03
1709652893846051019,body,845899998,1709652893,0.03,0.12886720895767212,1.0,0.03,0.0472625195980072,0.03
1709652893856092949,body,855892808,1709652893,0.03,0.10229533910751343,1.0,0.03,0.03173905611038208,0.03
1709652893865899137,body,865766274,1709652893,0.03,0.09140712022781372,1.0,0.03,0.03,0.03
1709652893875937180,body,875806166,1709652893,0.03,0.09628736972808838,1.0,0.03,0.03,0.03
1709652893885963708,body,885819348,1709652893,0.03,0.104084312915802,1.0,0.03,0.03476789593696594,0.03
1709652893896027653,body,895856906,1709652893,0.03,0.106029212474823,0.9824047684669495,0.03,0.03887417912483215,0.03
1709652893906034952,body,905853889,1709652893,0.03,0.08570688962936401,0.8060033321380615,0.03,0.03,0.03
1709652893916070145,body,915865601,1709652893,0.03,0.05675864219665527,0.6272720694541931,0.03,0.03,0.03
1709652893926004698,body,925825203,1709652893,0.03,0.04426610469818115,0.49702709913253784,0.03,0.03,0.03672364354133606
1709652893935988295,body,935827475,1709652893,0.03,0.044561564922332764,0.3980514109134674,0.03,0.03,0.048277080059051514
1709652893946153759,body,946000596,1709652893,0.03,0.0669703483581543,0.3096867799758911,0.03,0.03,0.05495956540107727
1709652893955952931,body,955820190,1709652893,0.03,0.0800427794456482,0.2337823510169983,0.03,0.03,0.05945393443107605
1709652893965991997,body,965827962,1709652893,0.03,0.098244309425354,0.18362396955490112,0.03,0.03,0.07450112700462341
1709652893976063290,body,975883089,1709652893,0.03,0.11342227458953857,0.13163375854492188,0.03,0.03,0.08179530501365662
1709652893986119493,body,985920540,1709652893,0.03,0.12512946128845215,0.0964895486831665,0.03,0.03,0.09104359149932861
1709652893995998164,body,995842196,1709652893,0.03,0.13537561893463135,0.06463265419006348,0.03,0.03,0.09477746486663818
1709652894005972860,body,5815181,1709652894,0.03,0.13790109753608704,0.050857484340667725,0.03,0.03,0.10434693098068237
1709652894015924182,body,15770982,1709652894,0.03,0.14949795603752136,0.03,0.03,0.03,0.10105487704277039
1709652894026048525,body,25841951,1709652894,0.03,0.1520484983921051,0.03,0.03,0.03,0.09184694290161133
1709652894036070924,body,35878818,1709652894,0.485839307308197,0.03,0.03,0.2488398551940918,0.548981785774231,0.03
1709652894046110679,body,45906627,1709652894,0.4814734160900116,0.03,0.03,0.26064932346343994,0.5609893202781677,0.03
1709652894056002296,body,55837910,1709652894,0.49084582924842834,0.03,0.03,0.2561597228050232,0.5776792168617249,0.03
1709652894066012583,body,65825854,1709652894,0.48880308866500854,0.03,0.03,0.2620089650154114,0.5855952501296997,0.03
1709652894076124674,body,75898866,1709652894,0.4969600439071655,0.03,0.03,0.2643590569496155,0.6020405292510986,0.03
1709652894085957359,body,85831857,1709652894,0.49618837237358093,0.03,0.03,0.26590830087661743,0.6073894500732422,0.03
1709652894095938110,body,95807631,1709652894,0.4884682297706604,0.03,0.03,0.2536681294441223,0.6041319370269775,0.03
1709652894105990483,body,105821782,1709652894,0.4775462746620178,0.03,0.03,0.251614511013031,0.6050325632095337,0.03
1709652894116053905,body,115861522,1709652894,0.46661999821662903,0.03,0.03,0.24626123905181885,0.5868960618972778,0.03
1709652894125970867,body,125821068,1709652894,0.45177051424980164,0.03,0.03,0.24328601360321045,0.5805433988571167,0.03
1709652894135984680,body,135805463,1709652894,0.4194629490375519,0.03,0.03,0.23417454957962036,0.5563656091690063,0.03
1709652894146029268,body,145838983,1709652894,0.3762294352054596,0.03,0.03,0.2257620096206665,0.5179262161254883,0.03
1709652894156050086,body,155865908,1709652894,0.32735738158226013,0.03,0.03,0.2184993028640747,0.48917797207832336,0.03
1709652894166122001,body,165918560,1709652894,0.26964718103408813,0.03,0.03,0.21016085147857666,0.4628734588623047,0.03
1709652894175984346,body,175821714,1709652894,0.16868196427822113,0.03,0.03,0.20877665281295776,0.4467892646789551,0.03
1709652894186023951,body,185813154,1709652894,0.044099271297454834,0.03,0.03,0.20015937089920044,0.42220574617385864,0.03
1709652894195947848,body,195814636,1709652894,0.03,0.1034935712814331,0.03,0.18669813871383667,0.3874959349632263,0.03
1709652894205984192,body,205837909,1709652894,0.03,0.1741645783185959,0.03,0.19866478443145752,0.36470580101013184,0.03
1709652894215953719,body,215817710,1709652894,0.03,0.2289091795682907,0.03,0.1983737349510193,0.3284469544887543,0.03
1709652894226029076,body,225811501,1709652894,0.03,0.2735747992992401,0.03,0.19385629892349243,0.2886371910572052,0.03
1709652894236092339,body,235863029,1709652894,0.03,0.31529420614242554,0.03,0.17729735374450684,0.26671499013900757,0.03
1709652894246107882,body,245836596,1709652894,0.03,0.690538763999939,0.03,0.49747827649116516,0.10293006896972656,0.03
1709652894255971246,body,255831886,1709652894,0.03,0.7195854783058167,0.03,0.4871736466884613,0.09036828577518463,0.03
1709652894266204067,body,265860035,1709652894,0.03,0.769477367401123,0.03,0.46770521998405457,0.06019098684191704,0.03
1709652894276069973,body,275875443,1709652894,0.03,0.8104581236839294,0.03,0.42962947487831116,0.10665866732597351,0.03
1709652894286043112,body,285868934,1709652894,0.03,0.8417372703552246,0.03,0.3816136419773102,0.09607088565826416,0.03
1709652894296031409,body,295848084,1709652894,0.03,0.8335444927215576,0.03,0.33146265149116516,0.09506997466087341,0.03
1709652894306032514,body,305853246,1709652894,0.03,0.8122697472572327,0.03,0.3072258532047272,0.09117510169744492,0.03
1709652894316070211,body,315861452,1709652894,0.03,0.7798416614532471,0.03,0.2801841199398041,0.10938587784767151,0.03
1709652894326096558,body,325880449,1709652894,0.03,0.7302558422088623,0.03,0.253174751996994,0.16798873245716095,0.03
1709652894336047895,body,335857841,1709652894,0.03,0.6840860843658447,0.03,0.21961048245429993,0.19364033639431,0.03
1709652894346020877,body,345837376,1709652894,0.03,0.6281760334968567,0.03,0.18785235285758972,0.21208040416240692,0.03
1709652894355939720,body,355802799,1709652894,0.03,0.5279839038848877,0.03,0.14762914180755615,0.2244720309972763,0.03
1709652894365945209,body,365807398,1709652894,0.03,0.41182222962379456,0.03,0.12176093459129333,0.23849643766880035,0.03
1709652894376009147,body,375846636,1709652894,0.03,0.23858001828193665,0.03,0.09302154183387756,0.2563413679599762,0.03
1709652894386113092,body,385913301,1709652894,0.03,0.13666287064552307,0.03,0.07319247722625732,0.2722916901111603,0.03
1709652894396180409,body,395925386,1709652894,0.03,0.06848025321960449,0.03,0.05341610312461853,0.2766299545764923,0.03
1709652894406023068,body,405823761,1709652894,0.03,0.03,0.03,0.03,0.2754356563091278,0.03
1709652894416160240,body,415867923,1709652894,0.03,0.03,0.03,0.03,0.2690770626068115,0.03
1709652894426069656,body,425850772,1709652894,0.035077452659606934,0.03,0.03,0.03,0.2630625069141388,0.03
1709652894436041379,body,435851913,1709652894,0.05223935842514038,0.03,0.03,0.03,0.262178897857666,0.03
1709652894446024760,body,445845577,1709652894,0.3668697476387024,0.03,0.5537969470024109,0.03,0.03,0.13734546303749084
1709652894456078254,body,455871020,1709652894,0.37381410598754883,0.03,0.5536168217658997,0.03,0.03,0.1520463079214096
1709652894466078951,body,465876637,1709652894,0.3752421438694,0.03,0.5475156903266907,0.03,0.03,0.16702604293823242
1709652894476136217,body,475907882,1709652894,0.3697724938392639,0.03,0.5342666506767273,0.03,0.03,0.1950393170118332
1709652894486026729,body,485849239,1709652894,0.36848267912864685,0.03,0.5329146981239319,0.03,0.03,0.21983702480793
1709652894496078271,body,495849012,1709652894,0.3564511239528656,0.03,0.5078088045120239,0.03,0.03,0.22934861481189728
1709652894506022772,body,505839525,1709652894,0.3515181541442871,0.03,0.49644988775253296,0.03,0.03,0.2343864142894745
1709652894516012699,body,515825819,1709652894,0.3342924118041992,0.03,0.48185721039772034,0.03,0.03,0.24048179388046265
1709652894526032147,body,525857166,1709652894,0.32014408707618713,0.03,0.45576247572898865,0.03,0.03,0.2385489046573639
1709652894536029050,body,535839011,1709652894,0.30562707781791687,0.03,0.42310386896133423,0.03,0.03,0.23499739170074463
1709652894546043694,body,545845686,1709652894,0.2814212441444397,0.03,0.38698795437812805,0.03,0.03,0.20884928107261658
1709652894556122435,body,555910408,1709652894,0.2613118290901184,0.03,0.35434257984161377,0.03,0.03,0.20005348324775696
1709652894566020074,body,565840660,1709652894,0.23091232776641846,0.03,0.3171747326850891,0.03,0.03,0.19122079014778137
1709652894576009088,body,575849000,1709652894,0.19930517673492432,0.03,0.29257628321647644,0.03,0.03,0.17626984417438507
1709652894586076908,body,585877959,1709652894,0.177889883518219,0.03,0.2541217803955078,0.03,0.03,0.15767620503902435
1709652894596029551,body,595848493,1709652894,0.13022500276565552,0.03,0.22484856843948364,0.03,0.03,0.13891161978244781
1709652894605955666,body,605803340,1709652894,0.06685326993465424,0.03,0.20789748430252075,0.03,0.03,0.1111210286617279
1709652894616065906,body,615860049,1709652894,0.03,0.03,0.19039297103881836,0.03,0.03,0.08890347182750702
1709652894626018093,body,625858915,1709652894,0.03,0.048913124948740005,0.18072926998138428,0.03,0.03,0.08673541247844696
1709652894635948760,body,635818841,1709652894,0.03,0.08621609210968018,0.16206973791122437,0.03,0.03,0.08733890950679779
1709652894645949830,body,645820603,1709652894,0.03,0.12550053000450134,0.15803205966949463,0.03,0.03,0.08379153907299042
1709652894656032286,body,655848564,1709652894,0.29614531993865967,0.03,0.03,0.5761769413948059,0.6910403966903687,0.03
1709652894666051920,body,665846606,1709652894,0.24934574961662292,0.03,0.03,0.5739275217056274,0.7046449184417725,0.03
1709652894676092918,body,675881496,1709652894,0.21155688166618347,0.03,0.03,0.5724555253982544,0.7372045516967773,0.03
1709652894686023038,body,685862893,1709652894,0.1904221475124359,0.03,0.03,0.5798071026802063,0.7466733455657959,0.03
1709652894695934990,body,695812890,1709652894,0.18688902258872986,0.03,0.03,0.5787416696548462,0.737769603729248,0.03
1709652894705993914,body,705828983,1709652894,0.16507083177566528,0.03,0.03,0.5766103863716125,0.733195424079895,0.03
1709652894715964621,body,715816955,1709652894,0.147091805934906,0.03,0.03,0.5764908194541931,0.734229326248169,0.03
1709652894725979034,body,725820355,1709652894,0.12659090757369995,0.03,0.03,0.5367242693901062,0.7026693224906921,0.03
1709652894735960979,body,735824859,1709652894,0.10476434230804443,0.03,0.03,0.49536317586898804,0.6530773639678955,0.03
1709652894746099996,body,745868178,1709652894,0.09201487898826599,0.03,0.03,0.45678022503852844,0.585439920425415,0.03
1709652894756041295,body,755859842,1709652894,0.09065210819244385,0.03,0.03,0.3991842567920685,0.4330766797065735,0.03
1709652894766076968,body,765862517,1709652894,0.08857473731040955,0.03,0.03,0.3449403941631317,0.29905232787132263,0.03
1709652894775987663,body,775839578,1709652894,0.08599874377250671,0.03,0.03,0.3082588315010071,0.2154221385717392,0.03
1709652894786042403,body,785879845,1709652894,0.09470129013061523,0.03,0.03,0.27757975459098816,0.1673242747783661,0.03
1709652894796057143,body,795898206,1709652894,0.08349278569221497,0.03,0.03,0.24460506439208984,0.1362546980381012,0.03
1709652894806031874,body,805847883,1709652894,0.0625966489315033,0.03,0.03,0.2058127522468567,0.11539587378501892,0.03
1709652894816057796,body,815842875,1709652894,0.06060919165611267,0.03,0.03,0.17640721797943115,0.07964611053466797,0.03
1709652894826039605,body,825852957,1709652894,0.06353724002838135,0.03,0.03,0.15823282301425934,0.05618038773536682,0.03
1709652894836100671,body,835850337,1709652894,0.0639771819114685,0.03,0.03,0.16126394271850586,0.05142858624458313,0.03
1709652894846071640,body,845879950,1709652894,0.07492837309837341,0.03,0.03,0.1739654392004013,0.051864057779312134,0.03
1709652894855987342,body,855839500,1709652894,0.07488420605659485,0.03,0.03,0.15618343651294708,0.04087528586387634,0.03
1709652894866192346,body,865955609,1709652894,0.03,0.5253391265869141,0.4590553343296051,0.03,0.03,0.7319461107254028
1709652894876101142,body,875909635,1709652894,0.03,0.5139892101287842,0.4381008446216583,0.03,0.03,0.7391268014907837
1709652894886016509,body,885849388,1709652894,0.03,0.5016255378723145,0.4346383213996887,0.03,0.03,0.7508708238601685
1709652894896017698,body,895843015,1709652894,0.03,0.5064656734466553,0.4492924213409424,0.03,0.03,0.7437030076980591
1709652894906086024,body,905913928,1709652894,0.03,0.5054876804351807,0.45153477787971497,0.03,0.03,0.7429236173629761
1709652894916027256,body,915864109,1709652894,0.03,0.4934092164039612,0.43563008308410645,0.03,0.03,0.7428046464920044
1709652894925946443,body,925824214,1709652894,0.03,0.48300549387931824,0.41853076219558716,0.03,0.03,0.7179923057556152
1709652894936095769,body,935845446,1709652894,0.03,0.47848033905029297,0.40753835439682007,0.03,0.03,0.6794536113739014
1709652894946020496,body,945840906,1709652894,0.03,0.4610186815261841,0.38935697078704834,0.03,0.03,0.6525905132293701
1709652894955928331,body,955803177,1709652894,0.03,0.44735339283943176,0.3720170557498932,0.03,0.03,0.5716834664344788
1709652894965996466,body,965836551,1709652894,0.03,0.4284146726131439,0.36433297395706177,0.03,0.03,0.4796614646911621
1709652894975939310,body,975818585,1709652894,0.03,0.4189118444919586,0.3617888391017914,0.03,0.03,0.38346508145332336
1709652894985849607,body,985738278,1709652894,0.03,0.3838103413581848,0.349357008934021,0.03,0.03,0.2399231195449829
1709652894995933898,body,995803212,1709652894,0.03,0.3244331479072571,0.32782426476478577,0.03,0.03,0.16059079766273499
1709652895005965187,body,5831535,1709652895,0.03,0.24890297651290894,0.3112071752548218,0.03,0.03,0.11996009945869446
1709652895015921494,body,15794371,1709652895,0.03,0.12555888295173645,0.2995264232158661,0.03,0.03,0.08653894066810608
1709652895025950343,body,25812963,1709652895,0.03,0.04295510798692703,0.29211893677711487,0.03,0.03,0.06390371918678284
1709652895036016400,body,35851785,1709652895,0.03,0.03,0.2849719524383545,0.03,0.03,0.044285595417022705
1709652895046023987,body,45830490,1709652895,0.04067809879779816,0.03,0.2764790952205658,0.03,0.03,0.032048702239990234
1709652895056033173,body,55849123,1709652895,0.06875276565551758,0.03,0.25568196177482605,0.03,0.03,0.034902602434158325
1709652895066165692,body,65930157,1709652895,0.09408938884735107,0.03,0.23739200830459595,0.03,0.03,0.04178518056869507
1709652895075970472,body,75817699,1709652895,0.03,0.03,0.09746003150939941,0.03,0.9836241006851196,0.03
1709652895085959969,body,85839687,1709652895,0.03,0.03,0.0656011700630188,0.03,0.9933598637580872,0.03
1709652895096094302,body,95871055,1709652895,0.03,0.03,0.0508553683757782,0.03,0.9881139993667603,0.03
1709652895106052728,body,105862133,1709652895,0.03,0.03,0.03513467311859131,0.03,0.9727455973625183,0.03
1709652895116036637,body,115850007,1709652895,0.03,0.03,0.03,0.03,0.9723578095436096,0.03
1709652895126001530,body,125834494,1709652895,0.03,0.03,0.03,0.03,0.9511247873306274,0.03
1709652895136051855,body,135849328,1709652895,0.03,0.03,0.03,0.03,0.9255321621894836,0.03
1709652895146080853,body,145876424,1709652895,0.03,0.03,0.03,0.03,0.8319218754768372,0.03
1709652895156061581,body,155870991,1709652895,0.03,0.03,0.03,0.03,0.7400875687599182,0.03
1709652895166070493,body,165885643,1709652895,0.03,0.03,0.03,0.03,0.5822657346725464,0.03
1709652895175981336,body,175809964,1709652895,0.03,0.03,0.03,0.03,0.43695318698883057,0.03
1709652895185946928,body,185815400,1709652895,0.03,0.03,0.03,0.03,0.3600273132324219,0.03
1709652895196044282,body,195826384,1709652895,0.03,0.06633554399013519,0.03,0.038728535175323486,0.2955942749977112,0.03
1709652895206147830,body,205925084,1709652895,0.03,0.05786404013633728,0.03,0.0779922604560852,0.2391650676727295,0.03
1709652895216023612,body,215850230,1709652895,0.03,0.06461210548877716,0.03,0.12483084201812744,0.1934337019920349,0.03
1709652895226015274,body,225850960,1709652895,0.03,0.10000616312026978,0.03,0.1492685079574585,0.180262953042984,0.03
1709652895236059420,body,235840672,1709652895,0.03,0.1246941015124321,0.03,0.1723499894142151,0.16922670602798462,0.03
1709652895246010045,body,245855510,1709652895,0.03,0.14968299865722656,0.03,0.1921887993812561,0.16423773765563965,0.03
1709652895256069671,body,255896461,1709652895,0.03,0.17306798696517944,0.03,0.21291261911392212,0.16805142164230347,0.03
1709652895265967997,body,265824198,1709652895,0.03,0.23299521207809448,0.03,0.2361571192741394,0.18780088424682617,0.03
1709652895276045385,body,275869077,1709652895,0.03,0.7587442398071289,0.03,0.03,0.03,0.4125204086303711
1709652895285944111,body,285804112,1709652895,0.03,0.7972045540809631,0.03,0.03359973430633545,0.03,0.39017829298973083
1709652895295986918,body,295832009,1709652895,0.03,0.8149517178535461,0.03,0.03992801904678345,0.03,0.36714911460876465
1709652895305964064,body,305815536,1709652895,0.03,0.8182522058486938,0.03,0.04764604568481445,0.03,0.35087811946868896
1709652895315992324,body,315820745,1709652895,0.03,0.8117808103561401,0.03,0.06848818063735962,0.03,0.33986663818359375
1709652895325986762,body,325827280,1709652895,0.03,0.7445771098136902,0.03,0.09209275245666504,0.03,0.29924747347831726
1709652895336063204,body,335812860,1709652895,0.03,0.6927220225334167,0.03,0.0912090539932251,0.03,0.2679230272769928
1709652895346080704,body,345867372,1709652895,0.03,0.6363601684570312,0.03,0.09718787670135498,0.03,0.23841553926467896
1709652895356072253,body,355869150,1709652895,0.03,0.5493809580802917,0.03,0.06773751974105835,0.03,0.20846837759017944
1709652895366115491,body,365903844,1709652895,0.03,0.4957590401172638,0.03,0.061598777770996094,0.03,0.174909770488739
1709652895376079373,body,375834295,1709652895,0.03,0.42636439204216003,0.03,0.05809831619262695,0.03,0.1289670169353485
1709652895385982249,body,385811538,1709652895,0.03,0.36571088433265686,0.03,0.06771379709243774,0.03,0.08619783073663712
1709652895396015833,body,395820196,1709652895,0.03,0.29532551765441895,0.03,0.06512439250946045,0.03,0.05194859206676483
1709652895405962056,body,405820506,1709652895,0.03,0.2523142397403717,0.03,0.056779563426971436,0.03,0.03
1709652895416124410,body,415932970,1709652895,0.03,0.20185622572898865,0.03,0.054345667362213135,0.03,0.03
1709652895426046175,body,425869184,1709652895,0.03,0.1605014204978943,0.03,0.04701220989227295,0.03,0.03
1709652895436042834,body,435861740,1709652895,0.03,0.12857258319854736,0.03,0.03,0.03,0.03
1709652895446091172,body,445915609,1709652895,0.03,0.10162067413330078,0.03,0.03,0.032179996371269226,0.03
1709652895455995973,body,455840709,1709652895,0.03,0.09195435047149658,0.03,0.03,0.03,0.03
1709652895465970260,body,465816104,1709652895,0.03,0.07573521137237549,0.03,0.03,0.03418360650539398,0.03
1709652895475958171,body,475805015,1709652895,0.03,0.07331705093383789,0.03,0.03,0.03,0.03
1709652895485991778,body,485840393,1709652895,0.03,0.03270775079727173,0.03,1.0,0.21290068328380585,0.03
1709652895496010431,body,495843332,1709652895,0.03,0.03,0.03,1.0,0.18178865313529968,0.03
1709652895505995888,body,505832484,1709652895,0.03,0.03,0.03,1.0,0.16129115223884583,0.03
1709652895516000789,body,515828959,1709652895,0.03,0.03,0.03,1.0,0.14171546697616577,0.03
1709652895525983596,body,525829569,1709652895,0.03,0.03,0.03,1.0,0.12160292267799377,0.03
1709652895535917889,body,535798912,1709652895,0.03,0.03,0.03,1.0,0.09825445711612701,0.03
1709652895546023348,body,545855446,1709652895,0.03,0.03,0.03,1.0,0.06339909136295319,0.03
1709652895555935390,body,555804076,1709652895,0.03,0.03,0.03,1.0,0.03916613757610321,0.03
1709652895565971257,body,565806680,1709652895,0.03,0.032323241233825684,0.03,0.9456937313079834,0.03,0.03
1709652895575986031,body,575832616,1709652895,0.03,0.03,0.03,0.8005281686782837,0.03,0.031203359365463257
1709652895585942356,body,585811815,1709652895,0.03,0.03,0.03,0.6173770427703857,0.03,0.05889570713043213
1709652895595939722,body,595811183,1709652895,0.03,0.03,0.03,0.30750274658203125,0.03,0.07254540920257568
1709652895605984793,body,605824935,1709652895,0.03,0.0309104323387146,0.03,0.1655299961566925,0.03,0.0818348228931427
1709652895615933278,body,615803211,1709652895,0.03,0.03,0.03,0.03373304009437561,0.03,0.10029473900794983
1709652895625927006,body,625806459,1709652895,0.03,0.05068153142929077,0.07064750790596008,0.03,0.03,0.10494211316108704
1709652895635953445,body,635804746,1709652895,0.03,0.07669073343276978,0.1674867570400238,0.03,0.03,0.09810656309127808
1709652895645935229,body,645817277,1709652895,0.03,0.10078978538513184,0.22368189692497253,0.03,0.03,0.06727570295333862
1709652895655941147,body,655811225,1709652895,0.03,0.14947587251663208,0.2845257818698883,0.03,0.03,0.03
1709652895665938806,body,665812051,1709652895,0.03,0.18091124296188354,0.3645745813846588,0.03,0.03,0.03
1709652895676049842,body,675862875,1709652895,0.03,0.21444830298423767,0.4430282413959503,0.03,0.03,0.03
1709652895685932815,body,685803010,1709652895,0.03,0.2581702172756195,0.4775421917438507,0.03,0.04755377769470215,0.03
1709652895695915384,body,695789473,1709652895,0.9704707860946655,0.03,0.7282286882400513,0.03,0.03,0.871533215045929
1709652895705938248,body,705782149,1709652895,0.9090646505355835,0.03,0.7282286882400513,0.03,0.03,0.7985844016075134
1709652895715938903,body,715801629,1709652895,0.8582635521888733,0.03,0.7282286882400513,0.03,0.03,0.7325160503387451
1709652895725891388,body,725769444,1709652895,0.7957869172096252,0.03,0.7282286882400513,0.03,0.03,0.6672359704971313
1709652895735926941,body,735798984,1709652895,0.745376467704773,0.03,0.7282286882400513,0.03,0.03,0.5774415731430054
1709652895745936520,body,745813352,1709652895,0.6422222852706909,0.03,0.6977180242538452,0.03,0.03,0.49688708782196045
1709652895755938956,body,755799696,1709652895,0.5398885011672974,0.03,0.6106399297714233,0.03,0.03,0.4254673421382904
1709652895765929182,body,765774932,1709652895,0.4791848659515381,0.03,0.5362503528594971,0.03,0.03,0.37204888463020325
1709652895775937465,body,775809748,1709652895,0.4032832682132721,0.03,0.46195343136787415,0.03,0.03,0.3037789463996887
1709652895785949052,body,785807341,1709652895,0.30456048250198364,0.03,0.39806023240089417,0.03,0.03,0.2180875837802887
1709652895796020301,body,795802492,1709652895,0.23402053117752075,0.03,0.3218736946582794,0.03,0.03,0.15549296140670776
1709652895805912793,body,805798651,1709652895,0.20736941695213318,0.03,0.25659728050231934,0.03,0.03,0.11345046758651733
1709652895815911103,body,815788019,1709652895,0.18641239404678345,0.03,0.2038385272026062,0.03,0.03,0.1150326132774353
1709652895825901335,body,825791748,1709652895,0.1596967875957489,0.03,0.15750077366828918,0.03,0.03,0.09200191497802734
1709652895835929011,body,835811018,1709652895,0.14219900965690613,0.03,0.10565716028213501,0.03,0.03,0.08082759380340576
1709652895846069056,body,845856531,1709652895,0.11832422018051147,0.03,0.0764676034450531,0.03,0.03,0.06820762157440186
1709652895855971417,body,855830580,1709652895,0.09837144613265991,0.03,0.05127906799316406,0.03,0.03,0.056170880794525146
1709652895866004452,body,865833615,1709652895,0.09410136938095093,0.03,0.03,0.03,0.03,0.035220980644226074
1709652895875950397,body,875814367,1709652895,0.09597927331924438,0.03,0.03,0.03,0.03,0.03
1709652895886011042,body,885854134,1709652895,0.10178202390670776,0.03,0.03,0.07218384742736816,0.03,0.03
1709652895896039263,body,895838962,1709652895,0.03,1.0,0.09547018259763718,0.03,0.03,0.03
1709652895905988468,body,905830589,1709652895,0.03,1.0,0.07339294999837875,0.03,0.03,0.03
1709652895916073221,body,915875112,1709652895,0.03,1.0,0.04787097126245499,0.03,0.03,0.03
1709652895926054206,body,925848477,1709652895,0.03,1.0,0.03,0.046189792454242706,0.03999298810958862,0.03
1709652895936046161,body,935849014,1709652895,0.03,1.0,0.03,0.08456011116504669,0.05569404363632202,0.03
1709652895946003049,body,945841403,1709652895,0.03,1.0,0.03,0.14649584889411926,0.06253743171691895,0.03
1709652895956028481,body,955845027,1709652895,0.03,1.0,0.03,0.19195398688316345,0.058771371841430664,0.03
1709652895966242981,body,966007595,1709652895,0.03,1.0,0.03,0.21310460567474365,0.057212233543395996,0.03
1709652895976103519,body,975906945,1709652895,0.03,1.0,0.03,0.24870210886001587,0.034955382347106934,0.03
1709652895986136742,body,985889272,1709652895,0.03,0.9441540241241455,0.03,0.278930127620697,0.03174233436584473,0.03
1709652895996117811,body,995898932,1709652895,0.03,0.6792735457420349,0.03,0.315385103225708,0.03259056806564331,0.03
1709652896005976361,body,5831564,1709652896,0.03,0.517449140548706,0.03,0.3373072147369385,0.03,0.03
1709652896015961812,body,15832601,1709652896,0.03,0.390935480594635,0.03,0.3354283571243286,0.03,0.03
1709652896026022267,body,25857858,1709652896,0.03,0.2782146632671356,0.03,0.33330655097961426,0.03,0.03
1709652896036071840,body,35856882,1709652896,0.03,0.17534083127975464,0.03,0.3126547634601593,0.03,0.03479266166687012
1709652896045936368,body,45802218,1709652896,0.03,0.08093500137329102,0.03,0.28532901406288147,0.03,0.06148260831832886
1709652896055998859,body,55832269,1709652896,0.03,0.03,0.03,0.2219727337360382,0.03,0.10462260246276855
1709652896066110210,body,65904987,1709652896,0.06664752960205078,0.03,0.03,0.11486980319023132,0.03,0.12921041250228882
1709652896075928952,body,75813990,1709652896,0.08254551887512207,0.03,0.03205254673957825,0.03,0.03,0.1325346827507019
1709652896085949504,body,85812324,1709652896,0.1074291467666626,0.03,0.11807479709386826,0.03,0.03,0.1626042127609253
1709652896096028875,body,95831566,1709652896,0.1542149782180786,0.03,0.1703333556652069,0.03,0.03,0.19871872663497925
1709652896105940087,body,105788278,1709652896,0.5451362133026123,0.03,1.0,0.03,1.0,0.03
1709652896115980534,body,115814513,1709652896,0.5512479543685913,0.03,1.0,0.03,1.0,0.03
1709652896125946938,body,125820691,1709652896,0.5512479543685913,0.03,1.0,0.03,0.9639819860458374,0.03
1709652896135953104,body,135801514,1709652896,0.5512479543685913,0.03,1.0,0.03,0.9326539039611816,0.03
1709652896145928574,body,145794407,1709652896,0.5325931310653687,0.03,1.0,0.03,0.9187654256820679,0.03
1709652896156041468,body,155864329,1709652896,0.5243168473243713,0.03,1.0,0.03,0.871001660823822,0.03
1709652896166092969,body,165884492,1709652896,0.49189430475234985,0.03,1.0,0.03,0.8132280111312866,0.03
1709652896175971475,body,175829166,1709652896,0.48448067903518677,0.03,1.0,0.03,0.6306426525115967,0.03
1709652896186074619,body,185887086,1709652896,0.44733595848083496,0.03,1.0,0.03,0.4985896050930023,0.03
1709652896195928584,body,195806405,1709652896,0.4049159288406372,0.03,1.0,0.03,0.39584881067276,0.03
1709652896205961693,body,205819543,1709652896,0.36692655086517334,0.03,1.0,0.03,0.29650554060935974,0.03
1709652896216112732,body,215863189,1709652896,0.31722593307495117,0.03,1.0,0.03,0.23043134808540344,0.03
1709652896225993270,body,225835605,1709652896,0.29311758279800415,0.03,0.9068853259086609,0.03,0.17908629775047302,0.03
1709652896235958531,body,235820432,1709652896,0.25105196237564087,0.03,0.589707612991333,0.03,0.150842547416687,0.03
1709652896245967187,body,245818955,1709652896,0.21397322416305542,0.03,0.4056556820869446,0.03,0.13421326875686646,0.03
1709652896256005802,body,255852494,1709652896,0.17409777641296387,0.03,0.2646254301071167,0.03,0.13388711214065552,0.03
1709652896265939892,body,265811388,1709652896,0.12046509981155396,0.03,0.12437301874160767,0.03,0.1692499816417694,0.03
1709652896275978442,body,275820616,1709652896,0.07031497359275818,0.03,0.03,0.03,0.19375517964363098,0.03
1709652896285989812,body,285836007,1709652896,0.03,0.03,0.03,0.08527034521102905,0.2202119529247284,0.03
1709652896296073666,body,295879701,1709652896,0.03,0.03,0.03,0.16550886631011963,0.24083435535430908,0.03
1709652896306031340,body,305854532,1709652896,0.9251903295516968,0.03,0.03,1.0,0.03,0.3072986304759979
1709652896316080148,body,315852893,1709652896,0.861186683177948,0.03,0.03,1.0,0.03,0.26208066940307617
1709652896326028990,body,325828511,1709652896,0.8305795192718506,0.03,0.03,1.0,0.03,0.22044962644577026
1709652896336057186,body,335859042,1709652896,0.7591171860694885,0.03,0.03,1.0,0.03,0.16919055581092834
1709652896346355604,body,345918596,1709652896,0.7059850096702576,0.03,0.03,1.0,0.03,0.11218565702438354
1709652896356025688,body,355844079,1709652896,0.5907949805259705,0.03,0.03,1.0,0.03,0.03764718770980835
1709652896366014599,body,365845269,1709652896,0.4468441307544708,0.03,0.03,1.0,0.10017964243888855,0.03
1709652896376064764,body,375843661,1709652896,0.3224990963935852,0.03,0.03,1.0,0.1394360065460205,0.03
1709652896386046068,body,385861069,1709652896,0.2436251938343048,0.03,0.03,1.0,0.15258243680000305,0.03
1709652896396003734,body,395835288,1709652896,0.19885128736495972,0.03,0.03,1.0,0.1728033572435379,0.03
1709652896406017893,body,405844119,1709652896,0.16864296793937683,0.03,0.03,0.943860650062561,0.1653086543083191,0.03
1709652896416085718,body,415870099,1709652896,0.15966597199440002,0.03,0.03,0.8479585647583008,0.15721985697746277,0.03
1709652896426081988,body,425881327,1709652896,0.1254780888557434,0.03,0.03,0.7179540395736694,0.18054133653640747,0.03
1709652896436161523,body,435934869,1709652896,0.11972233653068542,0.03,0.03,0.5827065706253052,0.1677468717098236,0.03
1709652896446351361,body,445999972,1709652896,0.12478011846542358,0.03,0.03,0.3371966481208801,0.19846317172050476,0.03
1709652896456176763,body,455894058,1709652896,0.12919080257415771,0.03,0.03,0.15725180506706238,0.1995963752269745,0.03
1709652896466113352,body,465922843,1709652896,0.13872921466827393,0.03,0.03,0.052906036376953125,0.20879492163658142,0.03
1709652896476035504,body,475852470,1709652896,0.1455274224281311,0.03,0.03,0.03,0.2034827619791031,0.03
1709652896486054320,body,485876789,1709652896,0.1545930802822113,0.03,0.0774177610874176,0.03,0.2116178721189499,0.03
1709652896496074892,body,495878931,1709652896,0.15557515621185303,0.03,0.11883792281150818,0.03,0.2209654152393341,0.03
1709652896506052853,body,505843809,1709652896,0.16866087913513184,0.03,0.12303748726844788,0.03,0.2140655368566513,0.03
1709652896516028025,body,515864839,1709652896,0.03,0.5835123062133789,0.9241891503334045,0.03,0.17210450768470764,0.03
1709652896526019542,body,525844919,1709652896,0.03,0.5862164497375488,0.91556715965271,0.03,0.14146876335144043,0.03
1709652896536066782,body,535861505,1709652896,0.03,0.5927980542182922,0.9189996123313904,0.03,0.13394945859909058,0.03
1709652896546151765,body,545922686,1709652896,0.03,0.5944465398788452,0.9141741394996643,0.03,0.0813094973564148,0.03
1709652896555952651,body,555817239,1709652896,0.03,0.6006831526756287,0.9077745079994202,0.03,0.030967647209763527,0.03
1709652896566012792,body,565850927,1709652896,0.03,0.6066321134567261,0.8926534652709961,0.03,0.03,0.03
1709652896576093807,body,575867915,1709652896,0.03,0.6079132556915283,0.8439404964447021,0.03,0.03,0.04430773854255676
1709652896585956734,body,585813701,1709652896,0.03,0.5989471077919006,0.8024306297302246,0.03,0.03,0.06887354701757431
1709652896595977350,body,595820588,1709652896,0.03,0.5753981471061707,0.7222152948379517,0.03,0.03,0.0901174321770668
1709652896606058135,body,605891292,1709652896,0.03,0.5469503402709961,0.6267853379249573,0.03,0.03,0.09047790616750717
1709652896616040715,body,615861752,1709652896,0.03,0.5253518223762512,0.4941348135471344,0.03,0.03,0.09636915475130081
1709652896626102457,body,625876550,1709652896,0.03,0.5053623914718628,0.2721579670906067,0.03,0.03,0.08640031516551971
1709652896636135390,body,635922973,1709652896,0.03,0.47565388679504395,0.1457403302192688,0.03,0.03,0.0629107728600502
1709652896646014898,body,645847385,1709652896,0.03,0.4572252631187439,0.05603411793708801,0.03,0.03,0.03
1709652896656033992,body,655844209,1709652896,0.03,0.44299206137657166,0.03,0.03,0.05189044028520584,0.03
1709652896666086284,body,665874367,1709652896,0.03,0.42505747079849243,0.03,0.04974162578582764,0.09373167157173157,0.03
1709652896675987217,body,675826152,1709652896,0.03,0.40592432022094727,0.03,0.062117964029312134,0.10200179368257523,0.03
1709652896685930088,body,685801384,1709652896,0.03,0.372103214263916,0.03,0.08266279101371765,0.119965560734272,0.03
1709652896695984194,body,695817943,1709652896,0.03,0.35503220558166504,0.03,0.06596115231513977,0.11818887293338776,0.03
1709652896705974676,body,705827967,1709652896,0.03,0.3446393609046936,0.03,0.054234445095062256,0.12539511919021606,0.03
1709652896715944773,body,715801897,1709652896,0.03,0.30128830671310425,0.03,0.03,0.14493736624717712,0.03
1709652896726032504,body,725864926,1709652896,0.19528305530548096,0.03,0.03,0.39406532049179077,0.03,0.5989730358123779
1709652896735958857,body,735813062,1709652896,0.30148372054100037,0.03,0.03,0.3929656744003296,0.03,0.5908914804458618
1709652896745956626,body,745809973,1709652896,0.34088456630706787,0.03,0.03,0.38006722927093506,0.03,0.581013023853302
1709652896756051171,body,755861778,1709652896,0.3752422034740448,0.03,0.03,0.38672786951065063,0.03,0.5618603825569153
1709652896766128078,body,765932981,1709652896,0.36018139123916626,0.03,0.03,0.3706551790237427,0.03,0.549945056438446
1709652896775929406,body,775801205,1709652896,0.32147300243377686,0.03,0.03,0.34539133310317993,0.03,0.5213896632194519
1709652896785939508,body,785813650,1709652896,0.2988511323928833,0.03,0.03,0.3287860155105591,0.03,0.5024878978729248
1709652896796106667,body,795876615,1709652896,0.21663670241832733,0.03,0.03,0.29248756170272827,0.03,0.4873402714729309
1709652896805962433,body,805816710,1709652896,0.18046501278877258,0.03,0.03,0.26003652811050415,0.03,0.4766097068786621
1709652896815944145,body,815810543,1709652896,0.15481987595558167,0.03,0.03,0.2499494105577469,0.03,0.44269895553588867
1709652896826075694,body,825863651,1709652896,0.15204493701457977,0.03,0.03,0.23463822901248932,0.03,0.41260671615600586
1709652896836025808,body,835850276,1709652896,0.13665159046649933,0.03,0.03,0.2166713923215866,0.03,0.3848205506801605
1709652896846026416,body,845856776,1709652896,0.12445037066936493,0.03,0.03,0.1983310729265213,0.03,0.3472723960876465
1709652896856144668,body,855938862,1709652896,0.1067255437374115,0.03,0.03,0.175699383020401,0.03,0.3227550983428955
1709652896866049879,body,865847249,1709652896,0.11518870294094086,0.03,0.03,0.15500836074352264,0.03,0.3081378936767578
1709652896876054146,body,875868536,1709652896,0.13223671913146973,0.03,0.03,0.1493901014328003,0.03,0.27988314628601074
1709652896886095295,body,885889333,1709652896,0.14435063302516937,0.03,0.03,0.13870613276958466,0.03,0.26079925894737244
1709652896896043744,body,895857520,1709652896,0.17184758186340332,0.03,0.03,0.13617993891239166,0.03,0.23521852493286133
1709652896906077906,body,905881398,1709652896,0.19494110345840454,0.03,0.03,0.13535811007022858,0.03,0.21645241975784302
1709652896916155920,body,915921615,1709652896,0.21616606414318085,0.03,0.03,0.1268780678510666,0.03,0.19317185878753662
1709652896926115584,body,925928565,1709652896,0.03,0.15303711593151093,0.5103757381439209,0.03,1.0,0.03
1709652896936019551,body,935850041,1709652896,0.03,0.13789762556552887,0.4979235529899597,0.03,1.0,0.03
1709652896946095372,body,945860163,1709652896,0.03,0.06787261366844177,0.4866514801979065,0.03,1.0,0.03
1709652896956117296,body,955937846,1709652896,0.03,0.03,0.4885765314102173,0.03,1.0,0.03
1709652896966117164,body,965885512,1709652896,0.03,0.03,0.47652482986450195,0.03,1.0,0.03
1709652896976020804,body,975837422,1709652896,0.03,0.03,0.47842544317245483,0.03,1.0,0.03
1709652896986113260,body,985886374,1709652896,0.03390052914619446,0.03,0.46453985571861267,0.03,1.0,0.03
1709652896996029202,body,995867729,1709652896,0.04107317328453064,0.03,0.4349413216114044,0.03,1.0,0.03
1709652897006068761,body,5886458,1709652897,0.049747586250305176,0.03,0.4336852431297302,0.03,1.0,0.03
1709652897016079023,body,15872102,1709652897,0.053052693605422974,0.03,0.420305073261261,0.03,1.0,0.03
1709652897026133703,body,25920025,1709652897,0.03,0.03,0.3981347680091858,0.03,0.9729519486427307,0.03
1709652897035959337,body,35815519,1709652897,0.03,0.03,0.3791835308074951,0.03,0.8590241074562073,0.03
1709652897045999529,body,45848588,1709652897,0.03,0.03,0.3403547704219818,0.03,0.6297016143798828,0.03
1709652897055981483,body,55833113,1709652897,0.03,0.03,0.2918330132961273,0.03,0.49544695019721985,0.03
1709652897065995577,body,65841933,1709652897,0.03,0.044934164732694626,0.2452215850353241,0.03,0.39583149552345276,0.03
1709652897075992260,body,75825924,1709652897,0.03,0.07115393131971359,0.18195217847824097,0.03,0.3097516596317291,0.03
