log_time_ns,header.frame_id,header.stamp.nanosec,header.stamp.sec,motor_a_1,motor_a_2,motor_b_1,motor_b_2,motor_c_1,motor_c_2
1709651571230207968,body,230122873,1709651571,0.13116130232810974,0.03,0.03,0.18625348806381226,0.17478422820568085,0.03
1709651571240210144,body,240126811,1709651571,0.141373410820961,0.03,0.03,0.19099931418895721,0.17826981842517853,0.03
1709651571250193788,body,250127576,1709651571,0.14424613118171692,0.03,0.03,0.19378280639648438,0.18666480481624603,0.03
1709651571260307595,body,260154644,1709651571,0.14537757635116577,0.03,0.03,0.1991254985332489,0.19928228855133057,0.03
1709651571270152138,body,270090705,1709651571,0.14033827185630798,0.03,0.03,0.18774928152561188,0.1743452548980713,0.03
1709651571280199220,body,280136781,1709651571,0.1436074674129486,0.03,0.03,0.18346354365348816,0.1632445752620697,0.03
1709651571290136731,body,290081546,1709651571,0.14386695623397827,0.03,0.03,0.17187707126140594,0.13997989892959595,0.03
1709651571300180038,body,300095998,1709651571,0.15401104092597961,0.03,0.03,0.2046690434217453,0.20339906215667725,0.03
1709651571310243396,body,310166022,1709651571,0.1507110446691513,0.03,0.03,0.2112838327884674,0.21145254373550415,0.03
1709651571320161306,body,320089323,1709651571,0.14244242012500763,0.03,0.03,0.19120752811431885,0.1602124273777008,0.03
1709651571330169689,body,330107731,1709651571,0.1436903476715088,0.03,0.03,0.1788708120584488,0.13902603089809418,0.03
1709651571340198413,body,340120807,1709651571,0.14718949794769287,0.03,0.03,0.16930681467056274,0.12616851925849915,0.03
1709651571350160460,body,350092317,1709651571,0.6912041902542114,0.03,0.03,0.365420401096344,0.617399275302887,0.03
1709651571360125262,body,360074365,1709651571,0.6912516951560974,0.03,0.03,0.3782244920730591,0.6220614910125732,0.03
1709651571370141553,body,370088152,1709651571,0.689960241317749,0.03,0.03,0.3790546655654907,0.6271904706954956,0.03
1709651571380204903,body,380108816,1709651571,0.6948655247688293,0.03,0.03,0.3857629895210266,0.6483522057533264,0.03
1709651571390145208,body,390079848,1709651571,0.6901935338973999,0.03,0.03,0.3800935447216034,0.6490066051483154,0.03
1709651571400171196,body,400103245,1709651571,0.6906139254570007,0.03,0.03,0.38049471378326416,0.6514370441436768,0.03
1709651571410167127,body,410099500,1709651571,0.699717104434967,0.03,0.03,0.36655113101005554,0.6181166768074036,0.03
1709651571420189950,body,420081004,1709651571,0.6936208009719849,0.03,0.03,0.3620326519012451,0.6292663216590881,0.03
1709651571430154590,body,430098016,1709651571,0.7003489136695862,0.03,0.03,0.3787626624107361,0.6454549431800842,0.03
1709651571440178395,body,440115300,1709651571,0.6963293552398682,0.03,0.03,0.37208250164985657,0.6302734017372131,0.03
1709651571450122029,body,450066322,1709651571,0.6989828944206238,0.03,0.03,0.37398481369018555,0.627073347568512,0.03
1709651571460198585,body,460097168,1709651571,0.6855579018592834,0.03,0.03,0.3760228157043457,0.623042643070221,0.03
1709651571470241279,body,470129030,1709651571,0.6829057931900024,0.03,0.03,0.3714633285999298,0.59876948595047,0.03
1709651571480149384,body,480088782,1709651571,0.6456601023674011,0.03,0.03,0.3593212366104126,0.5439106822013855,0.03
1709651571490195668,body,490092431,1709651571,0.5603733062744141,0.03,0.03,0.3295247256755829,0.4207872152328491,0.03
1709651571500189618,body,500125275,1709651571,0.46167778968811035,0.03,0.03,0.3081797957420349,0.33330607414245605,0.03
1709651571510158625,body,510079327,1709651571,0.3550263047218323,0.03,0.03,0.2896243929862976,0.22679269313812256,0.03
1709651571520143081,body,520060441,1709651571,0.29912692308425903,0.03,0.03,0.2663222551345825,0.17934027314186096,0.03
1709651571530172152,body,530101929,1709651571,0.23840582370758057,0.03,0.03,0.26028209924697876,0.14140748977661133,0.03
1709651571540192208,body,540092060,1709651571,0.18530970811843872,0.03,0.03,0.2609720528125763,0.11141389608383179,0.03
1709651571550127828,body,550065659,1709651571,0.14972305297851562,0.03,0.03,0.23148955404758453,0.0588650107383728,0.03
1709651571560148091,body,560081269,1709651571,0.05663427710533142,0.03,0.6160606741905212,0.03,0.03,0.9114372730255127
1709651571570192795,body,570112029,1709651571,0.048101186752319336,0.03,0.6340199112892151,0.03,0.03,0.9230614900588989
1709651571580190158,body,580087994,1709651571,0.03,0.03,0.6919727921485901,0.03,0.03,0.9758771657943726
1709651571590166381,body,590107173,1709651571,0.03,0.03,0.7447536587715149,0.03,0.03,1.0
1709651571600187314,body,600086456,1709651571,0.03,0.03,0.7260289192199707,0.03,0.03,1.0
1709651571610192577,body,610110665,1709651571,0.04001474380493164,0.03,0.6520224213600159,0.03,0.03,1.0
1709651571620183359,body,620095511,1709651571,0.06463289260864258,0.03,0.5526880025863647,0.03,0.03,0.9640342593193054
1709651571630383635,body,630252934,1709651571,0.07286003232002258,0.03,0.5406519174575806,0.03,0.03,0.960245668888092
1709651571640154263,body,640085169,1709651571,0.08326518535614014,0.03,0.4937870502471924,0.03,0.03,0.9023835062980652
1709651571650173382,body,650100479,1709651571,0.08380010724067688,0.03,0.4723659157752991,0.03,0.03,0.8728502988815308
1709651571660250403,body,660170449,1709651571,0.0845390260219574,0.03,0.40207311511039734,0.03,0.03,0.7775340676307678
1709651571670150969,body,670089024,1709651571,0.09751135110855103,0.03,0.3688301146030426,0.03,0.03,0.7308753728866577
1709651571680178741,body,680106426,1709651571,0.09615892171859741,0.03,0.32334843277931213,0.03,0.03,0.5826404094696045
1709651571690143337,body,690085576,1709651571,0.1000470519065857,0.03,0.30939745903015137,0.03,0.03,0.40780842304229736
1709651571700204044,body,700132726,1709651571,0.09876188635826111,0.03,0.2995990812778473,0.03,0.03,0.349875807762146
1709651571710151606,body,710094438,1709651571,0.08921357989311218,0.03,0.2857917249202728,0.03,0.03,0.25401240587234497
1709651571720139777,body,720078471,1709651571,0.09650000929832458,0.03,0.27080821990966797,0.03,0.03,0.1566578447818756
1709651571730182385,body,730110094,1709651571,0.0925745964050293,0.03,0.26545703411102295,0.03,0.03,0.11544129252433777
1709651571740202365,body,740120823,1709651571,0.10269278287887573,0.03,0.25134557485580444,0.03,0.03,0.08255818486213684
1709651571750148430,body,750092181,1709651571,0.10172080993652344,0.03,0.24326765537261963,0.03,0.03,0.06531774997711182
1709651571760209768,body,760139277,1709651571,0.03,0.6475507020950317,0.03,0.03,0.08839669823646545,0.03
1709651571770165385,body,770100283,1709651571,0.03,0.6625235080718994,0.03,0.03,0.09607478976249695,0.03
1709651571780144426,body,780072518,1709651571,0.03,0.6687047481536865,0.03,0.03,0.10479503870010376,0.03
1709651571790157556,body,790093261,1709651571,0.03,0.6841371059417725,0.03,0.03,0.11983460187911987,0.03
1709651571800164401,body,800081281,1709651571,0.03,0.694025993347168,0.03,0.03,0.11906588077545166,0.03
1709651571810198354,body,810125393,1709651571,0.03,0.6991592645645142,0.03,0.03,0.10281926393508911,0.03
1709651571820257732,body,820148254,1709651571,0.03,0.6947046518325806,0.03,0.03,0.0954708456993103,0.03
1709651571830162862,body,830083927,1709651571,0.03,0.6896446943283081,0.03,0.03,0.08943396806716919,0.03
1709651571840171842,body,840085748,1709651571,0.03,0.6730047464370728,0.03,0.03,0.08830037713050842,0.03
1709651571850162947,body,850096853,1709651571,0.03,0.6503481864929199,0.03,0.03,0.08386695384979248,0.03
1709651571860185714,body,860092113,1709651571,0.03,0.6293575763702393,0.03,0.03,0.0817733108997345,0.03
1709651571870132859,body,870072817,1709651571,0.03,0.5384320020675659,0.03,0.03468087315559387,0.07718554139137268,0.03
1709651571880164834,body,880080645,1709651571,0.03,0.5088091492652893,0.03,0.03902602195739746,0.07599493861198425,0.03
1709651571890168929,body,890100822,1709651571,0.03,0.4395982027053833,0.03,0.042781710624694824,0.07600963115692139,0.03
1709651571900165776,body,900090781,1709651571,0.03,0.29887861013412476,0.03,0.04304555058479309,0.08758187294006348,0.03
1709651571910127822,body,910065411,1709651571,0.03,0.14832289516925812,0.03,0.05590900778770447,0.08933719992637634,0.03
1709651571920184418,body,920114247,1709651571,0.03,0.11263783276081085,0.03,0.05411466956138611,0.0872272253036499,0.03
1709651571930167223,body,930098186,1709651571,0.03,0.044920533895492554,0.03,0.06050226092338562,0.08237606287002563,0.03
1709651571940202526,body,940095583,1709651571,0.03,0.03,0.03,0.04826858639717102,0.09179186820983887,0.03
1709651571950176112,body,950106321,1709651571,0.03,0.03,0.03,0.05172976851463318,0.09073293209075928,0.03
1709651571960140606,body,960071327,1709651571,0.05969545245170593,0.03,0.03,0.05350738763809204,0.08725190162658691,0.03
1709651571970188576,body,970113996,1709651571,0.4407641589641571,0.03,0.03,0.5305333137512207,0.6495120525360107,0.03
1709651571980256719,body,980099931,1709651571,0.45268571376800537,0.03,0.03,0.5305245518684387,0.6464019417762756,0.03
1709651571990140101,body,990075283,1709651571,0.46061789989471436,0.03,0.03,0.5235645174980164,0.6468595266342163,0.03
1709651572000171852,body,92254,1709651572,0.4707445502281189,0.03,0.03,0.526482343673706,0.6318937540054321,0.03
1709651572010184874,body,10112756,1709651572,0.47407761216163635,0.03,0.03,0.5273340940475464,0.6259151101112366,0.03
1709651572020200985,body,20121529,1709651572,0.4869217872619629,0.03,0.03,0.5311919450759888,0.5812188386917114,0.03
1709651572030209316,body,30116771,1709651572,0.48858726024627686,0.03,0.03,0.5345409512519836,0.5662351846694946,0.03
1709651572040148865,body,40086105,1709651572,0.46839720010757446,0.03,0.03,0.5430434346199036,0.5101947784423828,0.03
1709651572050202125,body,50131127,1709651572,0.4625248312950134,0.03,0.03,0.5483055710792542,0.4898814260959625,0.03
1709651572060202202,body,60125421,1709651572,0.4418735206127167,0.03,0.03,0.5532307028770447,0.4115830957889557,0.03
1709651572070153294,body,70086687,1709651572,0.39871591329574585,0.03,0.03,0.5673685669898987,0.3523494601249695,0.03
1709651572080193206,body,80112918,1709651572,0.379760205745697,0.03,0.03,0.571399986743927,0.3280196487903595,0.03
1709651572090168182,body,90104306,1709651572,0.3113023042678833,0.03,0.03,0.5911160111427307,0.23123055696487427,0.03
1709651572100217679,body,100096613,1709651572,0.2902606129646301,0.03,0.03,0.6086284518241882,0.1678253412246704,0.03
1709651572110205155,body,110130026,1709651572,0.17990784347057343,0.03,0.03,0.6209437847137451,0.08732261508703232,0.03
1709651572120195066,body,120100241,1709651572,0.09235735237598419,0.03,0.03,0.6265141367912292,0.05581139028072357,0.03
1709651572130145309,body,130074608,1709651572,0.03016239032149315,0.03,0.03,0.6232032775878906,0.04774181544780731,0.03
1709651572140153040,body,140086239,1709651572,0.03,0.05570906400680542,0.03,0.6204044818878174,0.034735411405563354,0.03
1709651572150183448,body,150108979,1709651572,0.03,0.11244161427021027,0.03,0.5964822769165039,0.03857846558094025,0.03
1709651572160180319,body,160067485,1709651572,0.03,0.1568222939968109,0.03,0.5545178055763245,0.03,0.03
1709651572170168107,body,170088632,1709651572,0.03,0.15423181653022766,0.03,0.5271729230880737,0.03312160074710846,0.03
1709651572180243397,body,180131872,1709651572,0.03,0.4647310972213745,0.03,0.4388081431388855,0.5412281155586243,0.03
1709651572190187756,body,190106112,1709651572,0.03,0.44798338413238525,0.03,0.3697563707828522,0.562174379825592,0.03
1709651572200155947,body,200097700,1709651572,0.03,0.44947686791419983,0.03,0.32065221667289734,0.5479719638824463,0.03
1709651572210227680,body,210132502,1709651572,0.03,0.43542101979255676,0.03,0.30126166343688965,0.5390088558197021,0.03
1709651572220194487,body,220102411,1709651572,0.03,0.39260023832321167,0.03,0.24941563606262207,0.533627450466156,0.03
1709651572230138879,body,230074185,1709651572,0.03,0.3603522777557373,0.03,0.16281695663928986,0.537879228591919,0.03
1709651572240166723,body,240093410,1709651572,0.03,0.32287824153900146,0.03,0.10317167639732361,0.5214253664016724,0.03
1709651572250173741,body,250097892,1709651572,0.03,0.2741737961769104,0.03,0.0865999311208725,0.5062025189399719,0.03
1709651572260209607,body,260098611,1709651572,0.03,0.1608223170042038,0.03437204658985138,0.03,0.46321672201156616,0.03
1709651572270233721,body,270145402,1709651572,0.03,0.1327987015247345,0.08103202283382416,0.03,0.4452837407588959,0.03
1709651572280164261,body,280096791,1709651572,0.03,0.0763411819934845,0.13293978571891785,0.03,0.40896111726760864,0.03
1709651572290150349,body,290074275,1709651572,0.03,0.03852970898151398,0.1109863668680191,0.03,0.36664947867393494,0.03
1709651572300283010,body,300127394,1709651572,0.03,0.03,0.1263066828250885,0.03,0.3500422537326813,0.03
1709651572310126366,body,310071690,1709651572,0.03,0.03,0.12592171132564545,0.03,0.3260330557823181,0.03
1709651572320163638,body,320086780,1709651572,0.03,0.03,0.05632036551833153,0.03,0.2897111177444458,0.03
1709651572330183539,body,330108773,1709651572,0.03,0.03,0.05878904089331627,0.03,0.2675835192203522,0.03
1709651572340263312,body,340114221,1709651572,0.03,0.03,0.03,0.05742688104510307,0.20774757862091064,0.03
1709651572350169275,body,350094628,1709651572,0.0358971506357193,0.03,0.03,0.08353376388549805,0.18482619524002075,0.03
1709651572360181687,body,360122886,1709651572,0.03057020902633667,0.03,0.03,0.12202437222003937,0.15459519624710083,0.03
1709651572370169147,body,370101618,1709651572,0.037999168038368225,0.03,0.03,0.13298849761486053,0.14244407415390015,0.03
1709651572380192572,body,380097690,1709651572,0.03,0.03,0.03,0.14818167686462402,0.1329525113105774,0.03
1709651572390158597,body,390073034,1709651572,0.9009920358657837,0.03,0.03,0.03,0.03,0.2491828203201294
1709651572400251679,body,400163049,1709651572,0.8974944353103638,0.03,0.03,0.03,0.03,0.26169174909591675
1709651572410195535,body,410123839,1709651572,0.9073680639266968,0.03,0.03,0.03,0.03,0.2719220519065857
1709651572420193618,body,420089458,1709651572,0.9279792308807373,0.03,0.03,0.03,0.03,0.2768810987472534
1709651572430316540,body,430228024,1709651572,0.9343634843826294,0.03,0.03,0.04226461052894592,0.03,0.2778710126876831
1709651572440146368,body,440088188,1709651572,0.9459187984466553,0.03,0.03,0.09122785925865173,0.03,0.2798466086387634
1709651572450154986,body,450076284,1709651572,0.943008303642273,0.03,0.03,0.10795718431472778,0.03,0.2848165035247803
1709651572460210780,body,460114803,1709651572,0.9145916104316711,0.03,0.03,0.11548563838005066,0.03,0.27395129203796387
1709651572470163958,body,470105769,1709651572,0.8230403661727905,0.03,0.03,0.14060112833976746,0.03,0.2568124532699585
1709651572480153301,body,480088811,1709651572,0.6944629549980164,0.03,0.03,0.14671829342842102,0.03,0.2361602783203125
1709651572490167756,body,490089089,1709651572,0.48346248269081116,0.03,0.03,0.15199288725852966,0.03,0.21983951330184937
1709651572500219113,body,500122153,1709651572,0.39325305819511414,0.03,0.03,0.1723347306251526,0.03,0.207769513130188
1709651572510148447,body,510079109,1709651572,0.3164916932582855,0.03,0.03,0.17974233627319336,0.03,0.23022091388702393
1709651572520156095,body,520075631,1709651572,0.2612765431404114,0.03,0.03,0.18621882796287537,0.03,0.23939144611358643
1709651572530165872,body,530097969,1709651572,0.24195155501365662,0.03,0.03,0.1961226761341095,0.03,0.2456115484237671
1709651572540146519,body,540079101,1709651572,0.20606455206871033,0.03,0.03,0.19664376974105835,0.03,0.263464093208313
1709651572550166435,body,550089936,1709651572,0.17077451944351196,0.03,0.03,0.2153829038143158,0.03,0.26576679944992065
1709651572560189201,body,560128503,1709651572,0.15917015075683594,0.03,0.03,0.27237072587013245,0.03,0.24512702226638794
1709651572570180312,body,570107110,1709651572,0.14417994022369385,0.03,0.03,0.2947479486465454,0.03,0.2283945083618164
1709651572580163896,body,580072390,1709651572,0.13115650415420532,0.03,0.03,0.28935205936431885,0.03,0.2406327724456787
1709651572590201929,body,590115456,1709651572,0.03,1.0,0.03,0.3424678444862366,0.03,1.0
1709651572600173437,body,600094003,1709651572,0.03,1.0,0.03,0.3583676815032959,0.03,1.0
1709651572610187652,body,610103737,1709651572,0.03,1.0,0.03,0.3464990258216858,0.03,1.0
1709651572620264111,body,620120123,1709651572,0.03,1.0,0.03,0.3213372230529785,0.03,1.0
1709651572630158128,body,630086611,1709651572,0.03,1.0,0.03,0.30778616666793823,0.03,1.0
1709651572640140594,body,640079572,1709651572,0.03,1.0,0.03,0.3092944025993347,0.03,1.0
1709651572650148713,body,650075351,1709651572,0.03,1.0,0.03,0.2985931634902954,0.03,1.0
1709651572660190043,body,660085702,1709651572,0.03,1.0,0.03,0.28970590233802795,0.03,1.0
1709651572670138625,body,670084126,1709651572,0.03,0.9881114363670349,0.03,0.27507680654525757,0.03,1.0
1709651572680185233,body,680102446,1709651572,0.03,0.6190194487571716,0.045655518770217896,0.03,0.03,0.613644003868103
1709651572690152223,body,690105560,1709651572,0.03,0.45558953285217285,0.07304911315441132,0.03,0.03,0.4995266795158386
1709651572700212543,body,700112250,1709651572,0.03,0.7210216522216797,0.03,0.23596331477165222,0.03,0.719315767288208
1709651572710178324,body,710118376,1709651572,0.03,0.3616392910480499,0.03,0.20033368468284607,0.03,0.5564013719558716
1709651572720189745,body,720103758,1709651572,0.03,0.3110666871070862,0.03,0.19787082076072693,0.03,0.523307204246521
1709651572730155403,body,730077278,1709651572,0.03,0.20380499958992004,0.03,0.1654094159603119,0.03,0.42890849709510803
1709651572740162926,body,740066132,1709651572,0.03,0.0831189751625061,0.03,0.1239173412322998,0.03,0.34379032254219055
1709651572750318595,body,750236762,1709651572,0.03,0.050578951835632324,0.03,0.11437898874282837,0.03,0.319487601518631
1709651572760180926,body,760102842,1709651572,0.07720756530761719,0.03,0.03,0.07732802629470825,0.03,0.2985462546348572
1709651572770139505,body,770080888,1709651572,0.12538933753967285,0.03,0.03,0.0481758713722229,0.03,0.31010937690734863
1709651572780290291,body,780164047,1709651572,0.15001052618026733,0.03,0.03,0.03,0.03,0.3039725422859192
1709651572790136055,body,790065752,1709651572,0.16183054447174072,0.03,0.08302204310894012,0.03,0.03,0.30375218391418457
1709651572800168269,body,800091461,1709651572,0.37043800950050354,0.03,0.03,0.5260863900184631,0.9557316303253174,0.03
1709651572810195300,body,810086074,1709651572,0.38615384697914124,0.03,0.03,0.4367215633392334,0.8988143801689148,0.03
1709651572820211089,body,820106256,1709651572,0.3964366018772125,0.03,0.03,0.403939813375473,0.8769748210906982,0.03
1709651572830147945,body,830078461,1709651572,0.41750994324684143,0.03,0.03,0.3782764971256256,0.8509905338287354,0.03
1709651572840144997,body,840071092,1709651572,0.42272093892097473,0.03,0.03,0.3621777296066284,0.8338960409164429,0.03
1709651572850163605,body,850091651,1709651572,0.41671082377433777,0.03,0.03,0.3007255792617798,0.7775941491127014,0.03
1709651572860186536,body,860066218,1709651572,0.38951632380485535,0.03,0.03,0.1892949342727661,0.638227105140686,0.03
1709651572870118642,body,870061487,1709651572,0.3347701132297516,0.03,0.03,0.11790713667869568,0.5334428548812866,0.03
1709651572880235892,body,880122591,1709651572,0.30834659934043884,0.03,0.03,0.08939459919929504,0.49055537581443787,0.03
1709651572890151267,body,890083824,1709651572,0.24883434176445007,0.03,0.03,0.03846663236618042,0.299658864736557,0.03
1709651572900186403,body,900091785,1709651572,0.20160552859306335,0.03,0.03,0.03,0.22417181730270386,0.03
1709651572910347412,body,910205581,1709651572,0.17027083039283752,0.03,0.03890043497085571,0.03,0.19959917664527893,0.03
1709651572920225012,body,920126007,1709651572,0.07547533512115479,0.03,0.09883123636245728,0.03,0.13724681735038757,0.03
1709651572930137442,body,930075844,1709651572,0.03,0.03,0.12142908573150635,0.03,0.0961875319480896,0.03
1709651572940202572,body,940122498,1709651572,0.03,0.03,0.13847321271896362,0.03,0.08161738514900208,0.03
1709651572950229348,body,950078389,1709651572,0.03,0.04700976610183716,0.15316683053970337,0.03,0.054177939891815186,0.03
1709651572960250148,body,960130960,1709651572,0.03,0.08799117803573608,0.156313955783844,0.03,0.03,0.03
1709651572970141600,body,970071999,1709651572,0.03,0.13421979546546936,0.1709212064743042,0.03,0.03856965899467468,0.03
1709651572980228768,body,980104793,1709651572,0.03,0.1598660945892334,0.1776772141456604,0.03,0.033238887786865234,0.03
1709651572990150072,body,990084447,1709651572,0.03,0.23320075869560242,0.20779556035995483,0.03,0.06892359256744385,0.03
1709651573000188780,body,94756,1709651573,0.03,0.4289993643760681,0.6485450267791748,0.03,0.03,0.9935497641563416
1709651573010217071,body,10161288,1709651573,0.03,0.468200147151947,0.6645894050598145,0.03,0.03,0.9809658527374268
1709651573020203544,body,20075756,1709651573,0.03,0.5770233273506165,0.6784347891807556,0.03,0.03,0.939119815826416
1709651573030150880,body,30080673,1709651573,0.03,0.6102983355522156,0.6766172051429749,0.03,0.03,0.9252592325210571
1709651573040155177,body,40080370,1709651573,0.03,0.6325632333755493,0.6752505302429199,0.03,0.03,0.91557776927948
1709651573050182532,body,50108107,1709651573,0.03,0.6749805212020874,0.651005208492279,0.03,0.03,0.8626163005828857
1709651573060191214,body,60101208,1709651573,0.03,0.6886656284332275,0.6143759489059448,0.03,0.03,0.7915582656860352
1709651573070191204,body,70112291,1709651573,0.03,0.6898108720779419,0.5971894860267639,0.03,0.03,0.7522987723350525
1709651573080139587,body,80069534,1709651573,0.03,0.6667178273200989,0.5243231058120728,0.03,0.03,0.5444126725196838
1709651573090191515,body,90130458,1709651573,0.03,0.5633217096328735,0.4587355852127075,0.03,0.03,0.3772183656692505
1709651573100188314,body,100102463,1709651573,0.03,0.5119054317474365,0.43666166067123413,0.03,0.03,0.3424540162086487
1709651573110138965,body,110077887,1709651573,0.03,0.43071451783180237,0.3900417685508728,0.03,0.03,0.2543178200721741
1709651573120167620,body,120092313,1709651573,0.03,0.34261536598205566,0.33851826190948486,0.03,0.03,0.1814042329788208
1709651573130151184,body,130091848,1709651573,0.03,0.31545490026474,0.32952558994293213,0.03,0.03,0.157650887966156
1709651573140175336,body,140093344,1709651573,0.03,0.2669391632080078,0.3064829707145691,0.03,0.03,0.07631486654281616
1709651573150147889,body,150076068,1709651573,0.03,0.24781760573387146,0.2930331230163574,0.03,0.03,0.049779534339904785
1709651573160210425,body,160148896,1709651573,0.03,0.18123698234558105,0.2439039796590805,0.03,0.03,0.03
1709651573170163837,body,170089802,1709651573,0.03,0.1550453007221222,0.2247321754693985,0.03,0.03,0.03
1709651573180199749,body,180088585,1709651573,0.03,0.09422412514686584,0.18060444295406342,0.03,0.03,0.03
1709651573190151604,body,190076651,1709651573,0.03,0.0792197585105896,0.17992772161960602,0.03,0.03,0.03
1709651573200180767,body,200093787,1709651573,0.03,0.05944544076919556,0.1760045737028122,0.03,0.03,0.03
1709651573210198297,body,210125399,1709651573,0.03,0.11744838953018188,1.0,0.03,0.12256810069084167,0.03
1709651573220191996,body,220085420,1709651573,0.03,0.10072261095046997,1.0,0.03,0.10571721196174622,0.03
1709651573230296066,body,230212884,1709651573,0.03,0.0905829668045044,1.0,0.03,0.0939306914806366,0.03
1709651573240149077,body,240088348,1709651573,0.03,0.09238487482070923,1.0,0.03,0.07345721125602722,0.03
1709651573250146299,body,250075007,1709651573,0.03,0.08408719301223755,1.0,0.03,0.07073614001274109,0.03
1709651573260330877,body,260155264,1709651573,0.03,0.07608312368392944,0.9794352054595947,0.03,0.06322935223579407,0.03
1709651573270161834,body,270075468,1709651573,0.03,0.06084179878234863,0.7100555896759033,0.03,0.03,0.03
1709651573280152195,body,280075411,1709651573,0.03,0.039964914321899414,0.5849199891090393,0.03,0.03,0.03
1709651573290169640,body,290106621,1709651573,0.03,0.03,0.45175328850746155,0.03,0.03,0.03
1709651573300169280,body,300094901,1709651573,0.03,0.03,0.4081953763961792,0.03,0.03,0.03
1709651573310197423,body,310077488,1709651573,0.03,0.03198873996734619,0.33949771523475647,0.03,0.03,0.04298606514930725
1709651573320184399,body,320090172,1709651573,0.03,0.040412843227386475,0.24236619472503662,0.03,0.03,0.08002433180809021
1709651573330154778,body,330077460,1709651573,0.03,0.05039483308792114,0.2165292501449585,0.03,0.03,0.09669655561447144
1709651573340213405,body,340103319,1709651573,0.03,0.07013475894927979,0.1477680802345276,0.03,0.03,0.13455110788345337
1709651573350160362,body,350076029,1709651573,0.03,0.07839453220367432,0.1264747977256775,0.03,0.03,0.1430056393146515
1709651573360185916,body,360097795,1709651573,0.03,0.0935894250869751,0.0900145173072815,0.03,0.03,0.14993149042129517
1709651573370152908,body,370073265,1709651573,0.03,0.10814696550369263,0.05420500040054321,0.03,0.03,0.15218308568000793
1709651573380164076,body,380090852,1709651573,0.03,0.12068754434585571,0.043947041034698486,0.03,0.03,0.15755754709243774
1709651573390295093,body,390205321,1709651573,0.03,0.12069886922836304,0.03269928693771362,0.03,0.03,0.14903229475021362
1709651573400140502,body,400086644,1709651573,0.03,0.13186302781105042,0.030789315700531006,0.03,0.03,0.13322940468788147
1709651573410134277,body,410082123,1709651573,0.03,0.1337513029575348,0.03,0.03,0.03,0.13109660148620605
1709651573420343378,body,420166575,1709651573,0.5188074707984924,0.03,0.03,0.23191726207733154,0.5034355521202087,0.03
1709651573430148601,body,430087726,1709651573,0.5204951167106628,0.03,0.03,0.24148857593536377,0.5168240070343018,0.03
1709651573440158494,body,440067748,1709651573,0.5308013558387756,0.03,0.03,0.24648809432983398,0.5135818123817444,0.03
1709651573450176681,body,450104067,1709651573,0.5462173223495483,0.03,0.03,0.25044339895248413,0.5296878814697266,0.03
1709651573460167175,body,460080880,1709651573,0.5466752052307129,0.03,0.03,0.24711459875106812,0.5493481159210205,0.03
1709651573470143939,body,470080019,1709651573,0.5358783602714539,0.03,0.03,0.2445506453514099,0.5635691285133362,0.03
1709651573480141478,body,480079336,1709651573,0.5283262729644775,0.03,0.03,0.24349331855773926,0.5708603858947754,0.03
1709651573490148511,body,490073801,1709651573,0.5209439396858215,0.03,0.03,0.24195313453674316,0.5691690444946289,0.03
1709651573500153342,body,500086764,1709651573,0.5022207498550415,0.03,0.03,0.22968459129333496,0.5477393865585327,0.03
1709651573510159584,body,510087763,1709651573,0.49451836943626404,0.03,0.03,0.23342835903167725,0.541418731212616,0.03
1709651573520192274,body,520095252,1709651573,0.44388920068740845,0.03,0.03,0.22601318359375,0.5181463956832886,0.03
1709651573530168423,body,530105644,1709651573,0.3897242546081543,0.03,0.03,0.22439312934875488,0.5120108127593994,0.03
1709651573540155931,body,540066141,1709651573,0.32875341176986694,0.03,0.03,0.23464375734329224,0.49239957332611084,0.03
1709651573550239819,body,550168905,1709651573,0.30052003264427185,0.03,0.03,0.234505295753479,0.4779834449291229,0.03
1709651573560133534,body,560080577,1709651573,0.20237167179584503,0.03,0.03,0.23755139112472534,0.44382935762405396,0.03
1709651573570179860,body,570093963,1709651573,0.15030013024806976,0.03,0.03,0.23018205165863037,0.4355129599571228,0.03
1709651573580259677,body,580146113,1709651573,0.03,0.03,0.03,0.23656558990478516,0.41045138239860535,0.03
1709651573590147103,body,590084496,1709651573,0.03,0.12011106312274933,0.03,0.24632853269577026,0.3973851203918457,0.03
1709651573600159815,body,600082422,1709651573,0.03,0.22512783110141754,0.03,0.24003398418426514,0.3906581401824951,0.03
1709651573610163089,body,610104297,1709651573,0.03,0.32218137383461,0.03,0.21790361404418945,0.3410307765007019,0.03
1709651573620185448,body,620108351,1709651573,0.03,0.348995178937912,0.03,0.20808732509613037,0.31548556685447693,0.03
1709651573630151986,body,630089104,1709651573,0.03,0.7266668081283569,0.03,0.5280781984329224,0.15610912442207336,0.03
1709651573640145500,body,640070875,1709651573,0.03,0.7758776545524597,0.03,0.5229357481002808,0.15129615366458893,0.03
1709651573650192235,body,650097793,1709651573,0.03,0.7965809106826782,0.03,0.5113657712936401,0.1371520459651947,0.03
1709651573660212575,body,660077794,1709651573,0.03,0.8325082063674927,0.03,0.4701419770717621,0.03,0.03
1709651573670148712,body,670076190,1709651573,0.03,0.8266602754592896,0.03,0.45875194668769836,0.06768745183944702,0.03
1709651573680188604,body,680119817,1709651573,0.03,0.8212448358535767,0.03,0.45323440432548523,0.03,0.03
1709651573690135689,body,690082556,1709651573,0.03,0.8037474751472473,0.03,0.40398648381233215,0.11012215912342072,0.03
1709651573700186841,body,700090075,1709651573,0.03,0.7815769910812378,0.03,0.3699806034564972,0.14908158779144287,0.03
1709651573710237949,body,710187114,1709651573,0.03,0.7728222012519836,0.03,0.35336169600486755,0.15204058587551117,0.03
1709651573720148044,body,720069968,1709651573,0.03,0.7167599201202393,0.03,0.30192455649375916,0.18419711291790009,0.03
1709651573730134666,body,730076789,1709651573,0.03,0.6631237268447876,0.03,0.26252278685569763,0.19582431018352509,0.03
1709651573740203461,body,740134444,1709651573,0.03,0.589959979057312,0.03,0.2299574911594391,0.20983737707138062,0.03
1709651573750158443,body,750074534,1709651573,0.03,0.46815863251686096,0.03,0.1975610852241516,0.23635181784629822,0.03
1709651573760200021,body,760134207,1709651573,0.03,0.2699042856693268,0.03,0.15365076065063477,0.2677037715911865,0.03
1709651573770145973,body,770089799,1709651573,0.03,0.20392997562885284,0.03,0.13735195994377136,0.265303373336792,0.03
1709651573780200684,body,780086194,1709651573,0.03,0.11189983785152435,0.03,0.10592880845069885,0.2587365210056305,0.03
1709651573790142604,body,790078565,1709651573,0.03,0.03,0.03,0.08260080218315125,0.27990901470184326,0.03
1709651573800133174,body,800080553,1709651573,0.03,0.03,0.03,0.07048812508583069,0.2740946412086487,0.03
1709651573810192291,body,810103395,1709651573,0.036357879638671875,0.03,0.03,0.06885629892349243,0.2705223858356476,0.03
1709651573820167362,body,820075111,1709651573,0.04911625385284424,0.03,0.03,0.06161731481552124,0.2566487491130829,0.03
1709651573830138804,body,830070240,1709651573,0.0681108832359314,0.03,0.03,0.04662245512008667,0.24914763867855072,0.03
1709651573840182181,body,840095848,1709651573,0.3870793581008911,0.03,0.49488160014152527,0.03,0.03,0.12973777949810028
1709651573850184857,body,850096808,1709651573,0.3856740891933441,0.03,0.48478755354881287,0.03,0.03,0.16562169790267944
1709651573860196688,body,860120763,1709651573,0.373555988073349,0.03,0.4799731373786926,0.03,0.03,0.2164662927389145
1709651573870214020,body,870153402,1709651573,0.3811500072479248,0.03,0.4881114661693573,0.03,0.03,0.22695909440517426
1709651573880173914,body,880094956,1709651573,0.37892410159111023,0.03,0.471135675907135,0.03,0.03,0.2627982497215271
1709651573890130700,body,890071055,1709651573,0.36065927147865295,0.03,0.4502703547477722,0.03,0.03,0.2657018303871155
1709651573900171578,body,900115300,1709651573,0.3599472641944885,0.03,0.43886640667915344,0.03,0.03,0.26365238428115845
1709651573910139615,body,910071179,1709651573,0.3472691476345062,0.03,0.416720986366272,0.03,0.03,0.2635604441165924
1709651573920168992,body,920088240,1709651573,0.33454063534736633,0.03,0.397721529006958,0.03,0.03,0.2859703600406647
1709651573930156739,body,930089222,1709651573,0.3133580684661865,0.03,0.3626331388950348,0.03,0.03,0.24474182724952698
1709651573940166165,body,940075776,1709651573,0.3069039285182953,0.03,0.3465483486652374,0.03,0.03,0.2465931624174118
1709651573950138298,body,950080792,1709651573,0.27174174785614014,0.03,0.3098195195198059,0.03,0.03,0.23503443598747253
1709651573960175540,body,960087293,1709651573,0.2635147273540497,0.03,0.2954223155975342,0.03,0.03,0.23219668865203857
1709651573970214399,body,970128927,1709651573,0.24245810508728027,0.03,0.2711673080921173,0.03,0.03,0.22014263272285461
1709651573980160626,body,980094118,1709651573,0.21202793717384338,0.03,0.24583101272583008,0.03,0.03,0.2126174420118332
1709651573990133708,body,990072756,1709651573,0.16582536697387695,0.03,0.19893264770507812,0.03,0.03,0.1650564819574356
1709651574000202739,body,113343,1709651574,0.14930316805839539,0.03,0.18667864799499512,0.03,0.03,0.15398652851581573
1709651574010188074,body,10122792,1709651574,0.10022923350334167,0.03,0.17055457830429077,0.03,0.03,0.15802545845508575
1709651574020217802,body,20095408,1709651574,0.07779745757579803,0.03,0.15918266773223877,0.03,0.03,0.14640572667121887
1709651574030341707,body,30242220,1709651574,0.0383705236017704,0.03,0.14077156782150269,0.03,0.03,0.11381196975708008
1709651574040154358,body,40083226,1709651574,0.03,0.05966797098517418,0.12957823276519775,0.03,0.03,0.12572845816612244
1709651574050178639,body,50104821,1709651574,0.37294772267341614,0.03,0.03,0.5990601778030396,0.652076005935669,0.03
1709651574060228325,body,60140741,1709651574,0.3616759181022644,0.03,0.03,0.6086644530296326,0.6654379963874817,0.03
1709651574070150014,body,70075259,1709651574,0.3327785134315491,0.03,0.03,0.6355445981025696,0.7140111923217773,0.03
1709651574080152033,body,80083685,1709651574,0.2678605914115906,0.03,0.03,0.6381011605262756,0.7498703002929688,0.03
1709651574090152120,body,90077008,1709651574,0.2597416639328003,0.03,0.03,0.6357340812683105,0.7590469121932983,0.03
1709651574100148767,body,100093240,1709651574,0.22555235028266907,0.03,0.03,0.6237056851387024,0.7609639167785645,0.03
1709651574110188699,body,110123322,1709651574,0.19342970848083496,0.03,0.03,0.6005532741546631,0.7460711002349854,0.03
1709651574120159382,body,120091315,1709651574,0.15258115530014038,0.03,0.03,0.5670547485351562,0.7259763479232788,0.03
1709651574130179885,body,130096733,1709651574,0.13503015041351318,0.03,0.03,0.5505571961402893,0.7143235206604004,0.03
1709651574140152138,body,140079572,1709651574,0.09453317523002625,0.03,0.03,0.5019654035568237,0.6554667949676514,0.03
1709651574150196261,body,150137357,1709651574,0.07737499475479126,0.03,0.03,0.47762829065322876,0.6054770946502686,0.03
1709651574160187704,body,160117916,1709651574,0.0824662446975708,0.03,0.03,0.4684869647026062,0.5315264463424683,0.03
1709651574170143208,body,170079452,1709651574,0.07021316885948181,0.03,0.03,0.42461293935775757,0.3989322781562805,0.03
1709651574180178601,body,180092785,1709651574,0.059600263833999634,0.03,0.03,0.39082083106040955,0.30769112706184387,0.03
1709651574190272321,body,190164113,1709651574,0.04360365867614746,0.03,0.03,0.3505280911922455,0.2150987684726715,0.03
1709651574200164814,body,200082032,1709651574,0.03,0.03,0.03,0.2964613437652588,0.13291501998901367,0.03
1709651574210134100,body,210073943,1709651574,0.03,0.03,0.03,0.27348142862319946,0.10737094283103943,0.03
1709651574220204785,body,220103260,1709651574,0.03,0.03,0.03,0.24811694025993347,0.08191236853599548,0.03
1709651574230181175,body,230102711,1709651574,0.03,0.03,0.03,0.23437002301216125,0.04111683368682861,0.03
1709651574240140778,body,240079496,1709651574,0.03,0.03,0.03,0.21247166395187378,0.03,0.03
1709651574250146868,body,250085317,1709651574,0.03,0.03,0.03,0.1954137682914734,0.03,0.03
1709651574260193318,body,260090500,1709651574,0.03,0.5837213397026062,0.40139472484588623,0.03,0.03,0.7830862998962402
1709651574270178046,body,270081378,1709651574,0.03,0.5696752667427063,0.3986116051673889,0.03,0.03,0.7973619103431702
1709651574280162349,body,280077167,1709651574,0.03,0.5626948475837708,0.42940735816955566,0.03,0.03,0.7978403568267822
1709651574290156311,body,290073538,1709651574,0.03,0.5623921155929565,0.4493377208709717,0.03,0.03,0.8068847060203552
1709651574300174963,body,300105612,1709651574,0.03,0.5645706653594971,0.5001852512359619,0.03,0.03,0.8019596338272095
1709651574310158542,body,310092817,1709651574,0.03,0.5591983795166016,0.4932143986225128,0.03,0.03,0.8055957555770874
1709651574320160371,body,320087847,1709651574,0.03,0.5460318326950073,0.48861777782440186,0.03,0.03,0.7875980138778687
1709651574330158280,body,330062594,1709651574,0.03,0.5206117630004883,0.44571372866630554,0.03,0.03,0.7728948593139648
1709651574340184599,body,340093429,1709651574,0.03,0.4716812074184418,0.40788590908050537,0.03,0.03,0.7112197875976562
1709651574350278299,body,350151002,1709651574,0.03,0.4570857286453247,0.3988209068775177,0.03,0.03,0.6915651559829712
1709651574360178485,body,360084363,1709651574,0.03,0.4105975031852722,0.33935174345970154,0.03,0.03,0.5901579260826111
1709651574370167757,body,370082245,1709651574,0.03,0.3561334013938904,0.3135603666305542,0.03,0.03,0.5062118172645569
1709651574380213898,body,380121270,1709651574,0.03,0.33987194299697876,0.3058360815048218,0.03,0.03,0.46217507123947144
1709651574390191067,body,390097096,1709651574,0.03,0.28203436732292175,0.2782421410083771,0.03,0.03,0.3509172201156616
1709651574400163517,body,400079586,1709651574,0.03,0.18427161872386932,0.25604718923568726,0.03,0.03,0.2310785949230194
1709651574410198818,body,410128268,1709651574,0.03,0.03,0.2483554482460022,0.03,0.03,0.14010058343410492
1709651574420175981,body,420083680,1709651574,0.03,0.03,0.23070824146270752,0.03,0.03,0.0960281491279602
1709651574430209911,body,430096283,1709651574,0.03591756522655487,0.03,0.22475743293762207,0.03,0.03,0.07227125763893127
1709651574440191040,body,440122224,1709651574,0.08042402565479279,0.03,0.19350361824035645,0.03,0.03,0.03
1709651574450159961,body,450079317,1709651574,0.0882503092288971,0.03,0.19552850723266602,0.03,0.03,0.03
1709651574460150037,body,460074929,1709651574,0.10688245296478271,0.03,0.18701234459877014,0.03,0.03,0.03
1709651574470140294,body,470080092,1709651574,0.047259241342544556,0.03,0.049626559019088745,0.03,1.0,0.03
1709651574480216017,body,480135328,1709651574,0.04850664734840393,0.03,0.047704458236694336,0.03,1.0,0.03
1709651574490192559,body,490108813,1709651574,0.048849135637283325,0.03,0.03,0.03,1.0,0.03
1709651574500212329,body,500090364,1709651574,0.047661393880844116,0.03,0.03,0.03,0.9967122077941895,0.03
1709651574510253943,body,510130228,1709651574,0.05104139447212219,0.03,0.03,0.03,0.9884217381477356,0.03
1709651574520171392,body,520084514,1709651574,0.05385968089103699,0.03,0.03,0.03,0.9515310525894165,0.03
1709651574530159796,body,530079697,1709651574,0.06049633026123047,0.03,0.03,0.03,0.9414010047912598,0.03
1709651574540141805,body,540075461,1709651574,0.052179038524627686,0.03,0.03,0.03,0.8403085470199585,0.03
1709651574550143954,body,550073235,1709651574,0.05189406871795654,0.03,0.03,0.03533142805099487,0.7998512387275696,0.03
1709651574560162246,body,560090502,1709651574,0.04548156261444092,0.03,0.03,0.03266716003417969,0.6587774157524109,0.03
1709651574570178520,body,570112910,1709651574,0.03,0.03,0.03,0.05578351020812988,0.45722317695617676,0.03
1709651574580206548,body,580111628,1709651574,0.030030786991119385,0.03,0.03,0.0721387267112732,0.4127024710178375,0.03
1709651574590163788,body,590090386,1709651574,0.03,0.03,0.03,0.10567229986190796,0.3128800690174103,0.03
1709651574600145719,body,600089170,1709651574,0.03,0.03,0.03,0.1386244297027588,0.2609959840774536,0.03
1709651574610152457,body,610076127,1709651574,0.03,0.03,0.03,0.15269607305526733,0.24245697259902954,0.03
1709651574620145531,body,620085036,1709651574,0.03,0.06403088569641113,0.03,0.19321197271347046,0.2276282012462616,0.03
1709651574630150778,body,630083429,1709651574,0.03,0.10749299824237823,0.03,0.24950045347213745,0.21022170782089233,0.03
1709651574640176348,body,640108060,1709651574,0.03,0.12366566061973572,0.03,0.2639927268028259,0.21438094973564148,0.03
1709651574650146963,body,650077164,1709651574,0.03,0.15734225511550903,0.03,0.2796354293823242,0.21135258674621582,0.03
1709651574660153668,body,660090202,1709651574,0.03,0.21133564412593842,0.03,0.3177337050437927,0.19779711961746216,0.03
1709651574670237401,body,670161258,1709651574,0.03,0.6513398289680481,0.03,0.0961189866065979,0.03,0.41788333654403687
1709651574680193097,body,680110610,1709651574,0.03,0.687340497970581,0.03,0.10491025447845459,0.03,0.40672779083251953
1709651574690111143,body,690059243,1709651574,0.03,0.7530480623245239,0.03,0.16293400526046753,0.03,0.34599459171295166
1709651574700218467,body,700100907,1709651574,0.03,0.7673351764678955,0.03,0.1852213740348816,0.03,0.32274600863456726
1709651574710153444,body,710090665,1709651574,0.03,0.7935616970062256,0.03,0.20537662506103516,0.03,0.2897169589996338
1709651574720141556,body,720083782,1709651574,0.03,0.7757388353347778,0.03,0.1680724024772644,0.03,0.27971482276916504
1709651574730168342,body,730103764,1709651574,0.03,0.7501717805862427,0.03,0.17658936977386475,0.03,0.2470649778842926
1709651574740140079,body,740084876,1709651574,0.03,0.7028242945671082,0.03,0.1757071614265442,0.03,0.2372833788394928
1709651574750158103,body,750081628,1709651574,0.03,0.5671309232711792,0.03,0.20897823572158813,0.03,0.17456242442131042
1709651574760127009,body,760072351,1709651574,0.03,0.5082664489746094,0.03,0.21256917715072632,0.03,0.12265492230653763
1709651574770192794,body,770111463,1709651574,0.03,0.476104736328125,0.03,0.21381503343582153,0.03,0.08116448670625687
1709651574780147105,body,780080797,1709651574,0.03,0.39026787877082825,0.03,0.20672065019607544,0.03,0.03
1709651574790123241,body,790070442,1709651574,0.03,0.32896190881729126,0.03,0.22290045022964478,0.03,0.03
1709651574800158398,body,800099422,1709651574,0.03,0.3048676550388336,0.03,0.2008991241455078,0.03565609082579613,0.03
1709651574810152097,body,810088982,1709651574,0.03,0.27275002002716064,0.03,0.17810529470443726,0.06717288494110107,0.03
1709651574820157014,body,820087410,1709651574,0.03,0.25006216764450073,0.03,0.150809645652771,0.12233669310808182,0.03
1709651574830214411,body,830138114,1709651574,0.03,0.2193494737148285,0.03,0.14219963550567627,0.12875452637672424,0.03
1709651574840187808,body,840081706,1709651574,0.03,0.18558508157730103,0.03,0.11316019296646118,0.13378672301769257,0.03
1709651574850157123,body,850091506,1709651574,0.03,0.16494148969650269,0.03,0.11754125356674194,0.1453021764755249,0.03
1709651574860192671,body,860106687,1709651574,0.03,0.15483951568603516,0.03,0.1303490400314331,0.14970293641090393,0.03
1709651574870152046,body,870082112,1709651574,0.03,0.1313120722770691,0.03,0.10565119981765747,0.1466600000858307,0.03
1709651574880158043,body,880079903,1709651574,0.03,0.1001015305519104,0.03,1.0,0.35277557373046875,0.03
1709651574890163331,body,890098293,1709651574,0.03,0.08400440216064453,0.03,1.0,0.3477720022201538,0.03
1709651574900186437,body,900116023,1709651574,0.03,0.07830274105072021,0.03,1.0,0.3421015739440918,0.03
1709651574910146035,body,910069614,1709651574,0.03,0.05893009901046753,0.03,1.0,0.25568974018096924,0.03
1709651574920195846,body,920104950,1709651574,0.03,0.05165684223175049,0.03,1.0,0.21669012308120728,0.03
1709651574930203028,body,930103113,1709651574,0.03,0.048695385456085205,0.03,1.0,0.20531979203224182,0.03
1709651574940154750,body,940075406,1709651574,0.03,0.045294106006622314,0.03,1.0,0.1551571488380432,0.03
1709651574950177321,body,950109332,1709651574,0.03,0.052580416202545166,0.03,1.0,0.06048031151294708,0.03
1709651574960160233,body,960093930,1709651574,0.03,0.04350024461746216,0.03,1.0,0.0406528115272522,0.03
1709651574970155925,body,970094880,1709651574,0.03,0.0371781587600708,0.03,0.841252863407135,0.03,0.03
1709651574980208986,body,980117723,1709651574,0.03,0.03500950336456299,0.03,0.7836586236953735,0.03,0.03
1709651574990217499,body,990126637,1709651574,0.03,0.035056471824645996,0.03,0.6242020130157471,0.03,0.045856624841690063
1709651575000145726,body,83319,1709651575,0.03,0.039327263832092285,0.03,0.3026576042175293,0.03,0.06022581458091736
1709651575010151195,body,10077069,1709651575,0.03,0.0560680627822876,0.03,0.0899907648563385,0.03,0.07557284832000732
1709651575020157180,body,20088937,1709651575,0.03,0.0699804425239563,0.03,0.03,0.03,0.0820620059967041
1709651575030167429,body,30094351,1709651575,0.03,0.0963708758354187,0.08920952677726746,0.03,0.03,0.08254760503768921
1709651575040164853,body,40082619,1709651575,0.03,0.1294899582862854,0.20693781971931458,0.03,0.03,0.05215206742286682
1709651575050181964,body,50088097,1709651575,0.03,0.14378559589385986,0.22266176342964172,0.03,0.03,0.03433212637901306
1709651575060191341,body,60128342,1709651575,0.03,0.18158882856369019,0.31178590655326843,0.03,0.03,0.03
1709651575070170466,body,70091274,1709651575,0.03,0.21718567609786987,0.38474240899086,0.03,0.03,0.03
1709651575080144869,body,80089341,1709651575,1.0,0.03,0.6780951023101807,0.03,0.03,0.9266618490219116
1709651575090169619,body,90079415,1709651575,1.0,0.03,0.6872897148132324,0.03,0.03,0.9030325412750244
1709651575100179448,body,100073048,1709651575,0.9688061475753784,0.03,0.669495701789856,0.03,0.03,0.8640844821929932
1709651575110163406,body,110074675,1709651575,0.9213011264801025,0.03,0.6772143840789795,0.03,0.03,0.8276631832122803
1709651575120181204,body,120097205,1709651575,0.8529077768325806,0.03,0.6659263372421265,0.03,0.03,0.7561429142951965
1709651575130153106,body,130085502,1709651575,0.7250522375106812,0.03,0.6324862241744995,0.03,0.03,0.5602262020111084
1709651575140155120,body,140085263,1709651575,0.5736929774284363,0.03,0.570999026298523,0.03,0.03,0.46612340211868286
1709651575150201823,body,150106375,1709651575,0.509567379951477,0.03,0.5459088087081909,0.03,0.03,0.4251469373703003
1709651575160179831,body,160094956,1709651575,0.42428773641586304,0.03,0.4829604923725128,0.03,0.03,0.35172027349472046
1709651575170170632,body,170089213,1709651575,0.3455965220928192,0.03,0.40657004714012146,0.03,0.03,0.29274311661720276
1709651575180147541,body,180092877,1709651575,0.28393104672431946,0.03,0.3416062891483307,0.03,0.03,0.22328880429267883
1709651575190141737,body,190080746,1709651575,0.19361570477485657,0.03,0.24834036827087402,0.03,0.03,0.1482229232788086
1709651575200134707,body,200074023,1709651575,0.15592947602272034,0.03,0.19005975127220154,0.03,0.03,0.11654460430145264
1709651575210138185,body,210085424,1709651575,0.12334555387496948,0.03,0.14313361048698425,0.03,0.03,0.1048312783241272
1709651575220154138,body,220083688,1709651575,0.11231338977813721,0.03,0.11727005243301392,0.03,0.03,0.0986790657043457
1709651575230280195,body,230183357,1709651575,0.08825457096099854,0.03,0.07143229246139526,0.03,0.03,0.07443642616271973
1709651575240132924,body,240071800,1709651575,0.07561260461807251,0.03,0.04632842540740967,0.03,0.03,0.07684528827667236
1709651575250206814,body,250107679,1709651575,0.08227145671844482,0.03,0.03,0.03,0.03,0.07963335514068604
1709651575260140724,body,260078859,1709651575,0.08758431673049927,0.03,0.03,0.056908607482910156,0.03,0.07181227207183838
1709651575270182280,body,270121496,1709651575,0.08442747592926025,0.03,0.03,0.09508000314235687,0.03,0.06795185804367065
1709651575280183739,body,280101869,1709651575,0.03,1.0,0.06739860028028488,0.03,0.03,0.06870198249816895
1709651575290183803,body,290112931,1709651575,0.03,1.0,0.032824501395225525,0.03,0.03,0.05745595693588257
1709651575300143531,body,300076971,1709651575,0.03,1.0,0.03,0.03,0.03,0.0512537956237793
1709651575310270416,body,310159998,1709651575,0.03,1.0,0.03,0.03,0.03,0.050555288791656494
1709651575320189847,body,320101642,1709651575,0.03,1.0,0.03,0.06752874702215195,0.03,0.03490382432937622
1709651575330156232,body,330078043,1709651575,0.03,1.0,0.03,0.10626283288002014,0.03,0.030599117279052734
1709651575340138858,body,340078754,1709651575,0.03,1.0,0.03,0.17050793766975403,0.03,0.04501605033874512
1709651575350167894,body,350095398,1709651575,0.03,1.0,0.03,0.19114825129508972,0.03,0.053147971630096436
1709651575360181554,body,360120951,1709651575,0.03,1.0,0.03,0.24172043800354004,0.03,0.053664445877075195
1709651575370164965,body,370098100,1709651575,0.03,1.0,0.03,0.27660614252090454,0.03,0.04639148712158203
1709651575380197590,body,380087972,1709651575,0.03,0.9772319793701172,0.03,0.29866066575050354,0.03,0.04750865697860718
1709651575390138709,body,390077127,1709651575,0.03,0.6384403109550476,0.03,0.3500829339027405,0.03,0.05111879110336304
1709651575400148620,body,400069041,1709651575,0.03,0.568800151348114,0.03,0.35667431354522705,0.03,0.06501996517181396
1709651575410206701,body,410107580,1709651575,0.03,0.44315066933631897,0.03,0.3687437176704407,0.03,0.09552198648452759
1709651575420205888,body,420109532,1709651575,0.03,0.3412528336048126,0.03,0.35630014538764954,0.03,0.11081290245056152
1709651575430141311,body,430075401,1709651575,0.03,0.26087653636932373,0.03,0.3349004089832306,0.03,0.13251221179962158
1709651575440198724,body,440117149,1709651575,0.03,0.19765043258666992,0.03,0.29924505949020386,0.03,0.16058087348937988
1709651575450164862,body,450088377,1709651575,0.03,0.10341405868530273,0.03,0.23054355382919312,0.03,0.1736031174659729
1709651575460179349,body,460079590,1709651575,0.03,0.046101152896881104,0.03,0.2283746302127838,0.03,0.16053402423858643
1709651575470233309,body,470157482,1709651575,0.03,0.03,0.03,0.21046268939971924,0.03,0.1711166501045227
1709651575480174578,body,480091620,1709651575,0.038906633853912354,0.03,0.03,0.14218586683273315,0.03,0.20444324612617493
1709651575490174192,body,490090536,1709651575,0.4341980218887329,0.03,0.9087497591972351,0.03,1.0,0.03
1709651575500155133,body,500084292,1709651575,0.44230884313583374,0.03,0.9442367553710938,0.03,1.0,0.03
1709651575510177180,body,510129339,1709651575,0.4904584288597107,0.03,1.0,0.03,0.9969115257263184,0.03
1709651575520129261,body,520076156,1709651575,0.5012331008911133,0.03,1.0,0.03,0.9582223892211914,0.03
1709651575530157491,body,530093541,1709651575,0.5103309154510498,0.03,1.0,0.03,0.9311728477478027,0.03
1709651575540222820,body,540083841,1709651575,0.5015795826911926,0.03,1.0,0.03,0.8912920951843262,0.03
1709651575550189150,body,550098704,1709651575,0.4926694631576538,0.03,1.0,0.03,0.8524766564369202,0.03
1709651575560180017,body,560091807,1709651575,0.47437864542007446,0.03,1.0,0.03,0.77512127161026,0.03
1709651575570193230,body,570107987,1709651575,0.4652848243713379,0.03,1.0,0.03,0.6316161155700684,0.03
1709651575580164351,body,580074906,1709651575,0.44981563091278076,0.03,1.0,0.03,0.5077318549156189,0.03
1709651575590167514,body,590083250,1709651575,0.4369027614593506,0.03,1.0,0.03,0.3950348496437073,0.03
1709651575600164274,body,600093195,1709651575,0.4114024043083191,0.03,1.0,0.03,0.2877703607082367,0.03
1709651575610170766,body,610091262,1709651575,0.38476085662841797,0.03,0.935511589050293,0.03,0.20589643716812134,0.03
1709651575620125411,body,620063895,1709651575,0.3255162835121155,0.03,0.5427539348602295,0.03,0.13702136278152466,0.03
1709651575630298134,body,630172160,1709651575,0.313440203666687,0.03,0.4570845067501068,0.03,0.10786634683609009,0.03
1709651575640158862,body,640092979,1709651575,0.2772822976112366,0.03,0.2291085124015808,0.03,0.06622260808944702,0.03
1709651575650134838,body,650074975,1709651575,0.2359207272529602,0.03,0.07316708564758301,0.03,0.06695622205734253,0.03
1709651575660295242,body,660133710,1709651575,0.21398478746414185,0.03,0.03,0.03,0.0727609395980835,0.03
1709651575670180108,body,670103707,1709651575,0.13888031244277954,0.03,0.03,0.197343111038208,0.0916711688041687,0.03
1709651575680163496,body,680090506,1709651575,0.03420218825340271,0.03,0.03,0.21698343753814697,0.17285290360450745,0.03
1709651575690179468,body,690078332,1709651575,0.03,0.030762940645217896,0.03,0.21698343753814697,0.21591946482658386,0.03
1709651575700179071,body,700102769,1709651575,0.9113792181015015,0.03,0.03,1.0,0.03,0.33510223031044006
1709651575710150711,body,710071503,1709651575,0.8323789834976196,0.03,0.03,1.0,0.03,0.2851150929927826
1709651575720177950,body,720121444,1709651575,0.7504439353942871,0.03,0.03,1.0,0.03,0.20813918113708496
1709651575730163094,body,730082117,1709651575,0.7137328386306763,0.03,0.03,1.0,0.03,0.18730062246322632
1709651575740189196,body,740077225,1709651575,0.6189254522323608,0.03,0.03,1.0,0.03,0.09829990565776825
1709651575750157328,body,750092155,1709651575,0.563498854637146,0.03,0.03,1.0,0.03,0.057566702365875244
1709651575760337574,body,760194768,1709651575,0.4316149353981018,0.03,0.03,1.0,0.031602028757333755,0.03
1709651575770138232,body,770066295,1709651575,0.3343348801136017,0.03,0.03,1.0,0.20108003914356232,0.03
1709651575780200079,body,780093310,1709651575,0.25107765197753906,0.03,0.03,1.0,0.27562347054481506,0.03
1709651575790171831,body,790099652,1709651575,0.19352474808692932,0.03,0.03,1.0,0.30692780017852783,0.03
1709651575800161964,body,800094161,1709651575,0.13716021180152893,0.03,0.03,1.0,0.3140614926815033,0.03
1709651575810128331,body,810063303,1709651575,0.10102730989456177,0.03,0.03,0.9853460788726807,0.30634844303131104,0.03
1709651575820133526,body,820074061,1709651575,0.07895204424858093,0.03,0.03,0.867404043674469,0.32837986946105957,0.03
1709651575830139864,body,830082292,1709651575,0.0649971067905426,0.03,0.03,0.8099002838134766,0.33693090081214905,0.03
1709651575840158583,body,840077074,1709651575,0.055612802505493164,0.03,0.03,0.7069752216339111,0.345856636762619,0.03
1709651575850173198,body,850092669,1709651575,0.052900850772857666,0.03,0.03,0.5504555702209473,0.3334294557571411,0.03
1709651575860199236,body,860103286,1709651575,0.058512210845947266,0.03,0.03,0.21295411884784698,0.3255137503147125,0.03
1709651575870183095,body,870093436,1709651575,0.07281902432441711,0.03,0.03,0.15313847362995148,0.31830236315727234,0.03
1709651575880177044,body,880106849,1709651575,0.0659598708152771,0.03,0.03,0.03,0.32610464096069336,0.03
1709651575890153813,body,890088071,1709651575,0.07664275169372559,0.03,0.052488625049591064,0.03,0.29450055956840515,0.03
1709651575900160889,body,900091190,1709651575,0.08279839158058167,0.03,0.07136556506156921,0.03,0.2965525984764099,0.03
1709651575910141225,body,910075509,1709651575,0.03,0.669727623462677,0.8873512744903564,0.03,0.24273541569709778,0.03
1709651575920233910,body,920149727,1709651575,0.03,0.6687048673629761,0.8972874879837036,0.03,0.22868797183036804,0.03
1709651575930172750,body,930099468,1709651575,0.03,0.6701101064682007,0.912824273109436,0.03,0.2126431167125702,0.03
1709651575940229293,body,940087097,1709651575,0.03,0.6696473360061646,0.9162876605987549,0.03,0.18425077199935913,0.03
1709651575950319859,body,950232310,1709651575,0.03,0.6617297530174255,0.8932881355285645,0.03,0.15191617608070374,0.03
1709651575960129514,body,960061550,1709651575,0.03,0.667102575302124,0.8929966688156128,0.03,0.12461981922388077,0.03
1709651575970161797,body,970082583,1709651575,0.03,0.6692742705345154,0.8838084936141968,0.03,0.03,0.03
1709651575980266308,body,980145063,1709651575,0.03,0.6596266031265259,0.872867226600647,0.03,0.03,0.03
1709651575990145335,body,990086120,1709651575,0.03,0.6385324597358704,0.8322643041610718,0.03,0.03,0.06689560413360596
1709651576000176351,body,100872,1709651576,0.03,0.6183097958564758,0.8025943636894226,0.03,0.03,0.07335060834884644
1709651576010160396,body,10091297,1709651576,0.03,0.5937694311141968,0.7443801164627075,0.03,0.03,0.07933846861124039
1709651576020197581,body,20078191,1709651576,0.03,0.5573720932006836,0.6793407201766968,0.03,0.03,0.10257367789745331
1709651576030189937,body,30112898,1709651576,0.03,0.4924536347389221,0.4985182285308838,0.03,0.03,0.06877477467060089
1709651576040129408,body,40071325,1709651576,0.03,0.45067906379699707,0.3114919662475586,0.03,0.03,0.09575575590133667
1709651576050201948,body,50132559,1709651576,0.03,0.39946359395980835,0.20610447227954865,0.03,0.03,0.09667688608169556
1709651576060235928,body,60147969,1709651576,0.03,0.3520747423171997,0.12568515539169312,0.03,0.03,0.0680210292339325
1709651576070155818,body,70096808,1709651576,0.03,0.3334326148033142,0.10210230946540833,0.03,0.03,0.057161182165145874
1709651576080188013,body,80114237,1709651576,0.03,0.27397820353507996,0.049450039863586426,0.03,0.03,0.04872041940689087
1709651576090161727,body,90078762,1709651576,0.03,0.19487351179122925,0.03,0.03,0.03,0.05644313246011734
1709651576100138371,body,100082119,1709651576,0.03,0.16176418960094452,0.03,0.03,0.03,0.03
1709651576110272651,body,110179821,1709651576,0.3148821294307709,0.03,0.03,0.37785112857818604,0.03,0.7656318545341492
1709651576120163436,body,120099331,1709651576,0.37350764870643616,0.03,0.03,0.3706745505332947,0.03,0.8075296878814697
1709651576130128867,body,130062223,1709651576,0.390607625246048,0.03,0.03,0.3716391324996948,0.03,0.8173472285270691
1709651576140208679,body,140119947,1709651576,0.41650885343551636,0.03,0.03,0.3744291067123413,0.03,0.8186119794845581
1709651576150153018,body,150088268,1709651576,0.41741886734962463,0.03,0.03,0.37062013149261475,0.03,0.7924185991287231
1709651576160197095,body,160118302,1709651576,0.4307478666305542,0.03,0.03,0.37034451961517334,0.03,0.7576208710670471
1709651576170141402,body,170078592,1709651576,0.4173053801059723,0.03,0.03,0.3683990240097046,0.03,0.6390626430511475
1709651576180210481,body,180082794,1709651576,0.4104478061199188,0.03,0.03,0.36921435594558716,0.03,0.5968348383903503
1709651576190147487,body,190076301,1709651576,0.40585047006607056,0.03,0.03,0.36492764949798584,0.03,0.543196976184845
1709651576200146687,body,200064488,1709651576,0.383208304643631,0.03,0.03,0.34224432706832886,0.03,0.47048619389533997
1709651576210163850,body,210088239,1709651576,0.36844536662101746,0.03,0.03,0.33643198013305664,0.03,0.4020806550979614
1709651576220127837,body,220061223,1709651576,0.3461146056652069,0.03,0.03,0.3113830089569092,0.03,0.3241250216960907
1709651576230135560,body,230058587,1709651576,0.3483846187591553,0.03,0.03,0.30425208806991577,0.03,0.3035694658756256
1709651576240175811,body,240102395,1709651576,0.33299773931503296,0.03,0.03,0.2913622260093689,0.03,0.24993345141410828
1709651576250168426,body,250093695,1709651576,0.3139336407184601,0.03,0.03,0.26994073390960693,0.03,0.2119990587234497
1709651576260206184,body,260094503,1709651576,0.31692469120025635,0.03,0.03,0.24736924469470978,0.03,0.18781346082687378
1709651576270230821,body,270114231,1709651576,0.3301922678947449,0.03,0.03,0.21871431171894073,0.03,0.17682021856307983
1709651576280227791,body,280105846,1709651576,0.3286312520503998,0.03,0.03,0.19502770900726318,0.03,0.16674965620040894
1709651576290184827,body,290109192,1709651576,0.3290746510028839,0.03,0.03,0.2032523900270462,0.03,0.11457741260528564
1709651576300238578,body,300138638,1709651576,0.33993637561798096,0.03,0.03,0.20400239527225494,0.03,0.10935544967651367
1709651576310158332,body,310099415,1709651576,0.34977394342422485,0.03,0.03,0.19483090937137604,0.03,0.10700094699859619
1709651576320136149,body,320077965,1709651576,0.03,0.03,0.4186207950115204,0.03,1.0,0.03
1709651576330176338,body,330066584,1709651576,0.03,0.03,0.4131839871406555,0.03,1.0,0.03
1709651576340203657,body,340088496,1709651576,0.03,0.03,0.4053623676300049,0.03,1.0,0.03
1709651576350199091,body,350127361,1709651576,0.03,0.07130807638168335,0.44186702370643616,0.03,1.0,0.03
1709651576360181250,body,360097465,1709651576,0.03,0.06393283605575562,0.4365111291408539,0.03,1.0,0.03
1709651576370180584,body,370095550,1709651576,0.03,0.04874015226960182,0.4175136387348175,0.03,1.0,0.03
1709651576380147008,body,380086690,1709651576,0.03,0.03,0.3892357349395752,0.03,1.0,0.03
1709651576390163073,body,390099414,1709651576,0.03,0.03,0.3833768963813782,0.03,1.0,0.03
1709651576400156975,body,400085058,1709651576,0.03,0.03,0.3829423189163208,0.03,1.0,0.03
1709651576410168162,body,410094918,1709651576,0.03,0.03,0.35288482904434204,0.03,1.0,0.03
1709651576420168850,body,420082818,1709651576,0.03,0.03,0.3152208626270294,0.03,1.0,0.03
1709651576430212277,body,430121074,1709651576,0.03,0.03,0.30421876907348633,0.03,0.9901200532913208,0.03
1709651576440158072,body,440081674,1709651576,0.03,0.08091780543327332,0.26381900906562805,0.03,0.7830706834793091,0.03
1709651576450140220,body,450074102,1709651576,0.03,0.14677411317825317,0.2378537952899933,0.03,0.6336327195167542,0.03
1709651576460223871,body,460080906,1709651576,0.03,0.19407859444618225,0.22437945008277893,0.03,0.5431652665138245,0.03
