log_time_ns,header.frame_id,header.stamp.nanosec,header.stamp.sec,pose.orientation.roll,pose.orientation.pitch,pose.orientation.yaw,pose.orientation.w,pose.orientation.x,pose.orientation.y,pose.orientation.z,pose.position.x,pose.position.y,pose.position.z
1709651570790106321,,788520097,1709651570,-0.003243189728433675,0.0035757284625080707,-0.4870394931199614,-0.9704932570457458,0.0011426579440012574,-0.0021261086221784353,0.2411164790391922,-0.03706026077270508,0.0019214153289794922,0.0
1709651570793755081,,792686700,1709651570,-0.003032422467120624,0.0032934437642916353,-0.48612218209846003,-0.9706040024757385,0.0010753169190138578,-0.001963228452950716,0.24067182838916779,-0.03716397285461426,0.0018630027770996094,0.0
1709651570797541245,,796853303,1709651570,-0.003565533688004986,0.0035719098880578897,-0.486796463729359,-0.9705223441123962,0.001299797440879047,-0.002162958960980177,0.24099820852279663,-0.03730368614196777,0.0018799304962158203,0.0
1709651570802004299,,801019906,1709651570,-0.0039059976745415555,0.0036214951887654865,-0.4875301582544065,-0.9704335331916809,0.0014582187868654728,-0.002228581579402089,0.2413538098335266,-0.037431955337524414,0.0018873214721679688,0.0
1709651570806327112,,805186748,1709651570,-0.004445791839446066,0.0041936869688466594,-0.48835869455529063,-0.9703327417373657,0.0016500180354341865,-0.0025720419362187386,0.2417544275522232,-0.03757739067077637,0.0019118785858154297,0.0
1709651570812525330,,809353351,1709651570,-0.004038564263278877,0.003896149814421221,-0.4889356872711432,-0.9702634811401367,0.0014877254143357277,-0.002378891920670867,0.24203523993492126,-0.037703752517700195,0.001920938491821289,0.0
1709651570814380478,,813519954,1709651570,-0.004423857123492926,0.004258535688521076,-0.4897016199305557,-0.9701701402664185,0.0016297902911901474,-0.00260194786824286,0.24240586161613464,-0.037835121154785156,0.0019533634185791016,0.0
1709651570819089592,,817686557,1709651570,-0.004445793147096188,0.004273794277108423,-0.4904038045299853,-0.9700849652290344,0.0016376645071431994,-0.002612583339214325,0.24274641275405884,-0.03796052932739258,0.0019659996032714844,0.0
1709651570822722457,,821853399,1709651570,-0.0044696357457329255,0.004273794038825338,-0.49098372234783577,-0.9700145125389099,0.0016484707593917847,-0.0026159551925957203,0.24302765727043152,-0.03807854652404785,0.0019807815551757812,0.0
1709651570826420134,,826020002,1709651570,-0.004139655721468208,0.004029660865029471,-0.49162208325875495,-0.969937264919281,0.0015173102729022503,-0.0024579365272074938,0.24333800375461578,-0.038193464279174805,0.0019898414611816406,0.0
1709651571097025960,,830186605,1709651570,-0.004409562781558964,0.00474681302476296,-0.49312182765974294,-0.9697538018226624,0.001558819436468184,-0.0028397405985742807,0.24406395852565765,-0.03835344314575195,0.0020236968994140625,0.0
1709651571097159630,,834353208,1709651570,-0.0043599700168584525,0.004750627818579573,-0.493945423243927,-0.9696531295776367,0.001533139729872346,-0.0028361703734844923,0.24446336925029755,-0.038469791412353516,0.0020503997802734375,0.0
1709651571097189839,,838520050,1709651570,-0.004500165095561753,0.00490702562563205,-0.494801305028153,-0.969548225402832,0.0015807388117536902,-0.0029298088047653437,0.2448778748512268,-0.03859210014343262,0.0020775794982910156,0.0
1709651571097776254,,926019906,1709651570,-0.0039632348736759505,0.004636195877024411,-0.5144814332682649,-0.9670923352241516,0.0013266545720398426,-0.0027459636330604553,0.2544074058532715,-0.04128146171569824,0.0026886463165283203,0.0
1709651571097816803,,930186748,1709651570,-0.0040280832013725905,0.004533198199133774,-0.514267700515756,-0.9671196341514587,0.001371402875520289,-0.002704261802136898,0.25430408120155334,-0.041442155838012695,0.0026688575744628906,0.0
1709651571097848850,,934353351,1709651570,-0.0039718144980837025,0.0044492766504645315,-0.5145418143758926,-0.9670848250389099,0.001354500651359558,-0.0026567119639366865,0.25443682074546814,-0.04157233238220215,0.0026743412017822266,0.0
1709651571097879015,,938519954,1709651570,-0.004549752919655855,0.004681961153820335,-0.5142708463206952,-0.9671187400817871,0.0016047406243160367,-0.0028425310738384724,0.2543046772480011,-0.04166436195373535,0.002583742141723633,0.0
1709651571097913689,,942686557,1709651570,-0.006155773221302667,0.005219781925359474,-0.51409844334911,-0.9671385884284973,0.0023132427595555782,-0.0033066067844629288,0.2542179822921753,-0.04173874855041504,0.0026209354400634766,0.0
1709651571097945702,,946853399,1709651570,-0.00521447964768361,0.005048151208458552,-0.5164119708321642,-0.9668449759483337,0.0018762871623039246,-0.003106137039139867,0.2553383708000183,-0.04194068908691406,0.0026237964630126953,0.0
1709651571097975461,,951020002,1709651570,-0.004890229844582125,0.005143526667133619,-0.5167160578724979,-0.9668064117431641,0.0017068873858079314,-0.0031111061107367277,0.2554857134819031,-0.04203963279724121,0.0026357173919677734,0.0
1709651571098005285,,955186605,1709651570,-0.004868293947470396,0.005116824800428449,-0.5180280665593028,-0.9666386246681213,0.0016976636834442616,-0.0030965106561779976,0.256119966506958,-0.04218435287475586,0.002675771713256836,0.0
1709651571098038717,,959353208,1709651570,-0.005166800948391615,0.005219812506651405,-0.5201968849437207,-0.9663599133491516,0.0018252942245453596,-0.003186494577676058,0.25716742873191833,-0.04227805137634277,0.0027618408203125,0.0
1709651571098068576,,963520050,1709651570,-0.005134383630771129,0.005502097258731522,-0.5214799557045582,-0.9661945104598999,0.0017712023109197617,-0.003319856943562627,0.25778692960739136,-0.0423886775970459,0.0028090476989746094,0.0
1709651571098821673,,51019906,1709651571,-0.005263095078503526,0.004052528139242905,-0.5380135117022188,-0.9640315175056458,0.001998370513319969,-0.002652776660397649,0.2657674252986908,-0.045186519622802734,0.003393888473510742,0.0
1709651571098865906,,55186748,1709651571,-0.005104780641459378,0.0039800518795385965,-0.5386227833716979,-0.9639506340026855,0.0019309006165713072,-0.002597393235191703,0.2660614252090454,-0.045319318771362305,0.0034248828887939453,0.0
1709651571098905524,,59353351,1709651571,-0.005216364368530801,0.004105933421980169,-0.5391732785348831,-0.9638772010803223,0.001967198681086302,-0.002673450391739607,0.2663263976573944,-0.04546618461608887,0.003442049026489258,0.0
1709651571098938828,,63519954,1709651571,-0.005387085485965344,0.004559872742371989,-0.5398784237628804,-0.9637828469276428,0.001987997442483902,-0.002915655029937625,0.2666652500629425,-0.04564261436462402,0.0034608840942382812,0.0
1709651571098977817,,67686557,1709651571,-0.005710382388942278,0.004529346231103847,-0.5405814271242861,-0.9636886715888977,0.0021468268241733313,-0.002944805659353733,0.26700359582901,-0.04577922821044922,0.0034847259521484375,0.0
1709651571099010429,,71853399,1709651571,-0.005226861353668,0.00439203133544914,-0.5414635547422726,-0.9635714292526245,0.0019309361232444644,-0.0028149422723799944,0.26742953062057495,-0.04591012001037598,0.003505229949951172,0.0
1709651571099043300,,76020002,1709651571,-0.0070894447537639925,0.005513473864759398,-0.5412660741350387,-0.9635947942733765,0.002678696298971772,-0.0036040223203599453,0.2673293650150299,-0.04599881172180176,0.0035011768341064453,0.0
1709651571099082311,,80186605,1709651571,-0.007605405014065161,0.005856765111643831,-0.5415766938415594,-0.9635521769523621,0.0028807991184294224,-0.003838831325992942,0.2674773335456848,-0.04610705375671387,0.0035076141357421875,0.0
1709651571099113929,,84353208,1709651571,-0.0077341482980247695,0.005746137375336746,-0.5422785252161034,-0.9634581804275513,0.0029562863055616617,-0.00380378938280046,0.2678154408931732,-0.04623603820800781,0.003538846969604492,0.0
1709651571099152980,,88520050,1709651571,-0.007418477559502248,0.005765223935230392,-0.5439857364128204,-0.9632296562194824,0.002798442728817463,-0.0037731032352894545,0.2686383128166199,-0.046402931213378906,0.0035963058471679688,0.0
1709651571099512127,,92686653,1709651571,-0.005511078344295302,0.0051282499003703404,-0.5449783800247396,-0.9630990624427795,0.001963780028745532,-0.003211100585758686,0.2691209018230438,-0.04655122756958008,0.003668546676635742,0.0
1709651571099541510,,96853256,1709651571,-0.0034301236900627385,0.004514135075206619,-0.54710183505803,-0.9628148674964905,0.0010415369179099798,-0.0026364654768258333,0.2701472043991089,-0.04672098159790039,0.0037851333618164062,0.0
1709651571104423592,,101020097,1709651571,-0.0037009667599028294,0.004357729161385434,-0.5492691803932683,-0.962521493434906,0.0011902338592335582,-0.002599045867100358,0.27119025588035583,-0.046916961669921875,0.0038602352142333984,0.0
1709651571111151127,,105186700,1709651571,-0.003491153116168144,0.004128851779739745,-0.5504271733388303,-0.9623646140098572,0.0011188695207238197,-0.0024610948748886585,0.27174803614616394,-0.04703688621520996,0.0039288997650146484,0.0
1709651571115146185,,109353303,1709651571,-0.0037209873571302445,0.003907597693562298,-0.5506713939084762,-0.9623314738273621,0.0012592338025569916,-0.0023860137443989515,0.27186551690101624,-0.0471491813659668,0.003945350646972656,0.0
1709651571115514556,,113519906,1709651571,-0.0031077701486030736,0.0038923476753052718,-0.5509132073373812,-0.9622990489006042,0.0009659701609052718,-0.002295436104759574,0.2719825804233551,-0.04725146293640137,0.00395512580871582,0.0
1709651571121059908,,117686748,1709651571,-0.0031611741884620117,0.003728315588276465,-0.5510348349758223,-0.9622824788093567,0.001013837638311088,-0.002223836723715067,0.2720412313938141,-0.047370195388793945,0.003961086273193359,0.0
1709651571123057393,,121853351,1709651571,-0.0028703005400557507,0.0036329518103474867,-0.5509419939581961,-0.9622952938079834,0.0008869572775438428,-0.002138347364962101,0.27199697494506836,-0.04749488830566406,0.0039675235748291016,0.0
1709651571128367553,,126019954,1709651571,-0.0019347390969731374,0.003556666177976379,-0.5532882793983624,-0.9619760513305664,0.0004448723921086639,-0.0019749305211007595,0.2731266915798187,-0.04772520065307617,0.004069328308105469,0.0
1709651571131372037,,130186557,1709651571,-0.002279018813169886,0.0036634746065330563,-0.5546630283076114,-0.961787760257721,0.000594455108512193,-0.0020737294107675552,0.2737874686717987,-0.04791450500488281,0.004129886627197266,0.0
1709651571135107768,,134353399,1709651571,-0.002901775474983781,0.003949570265222551,-0.5534149937154589,-0.9619580507278442,0.0008562025614082813,-0.0022960281930863857,0.2731862962245941,-0.04799222946166992,0.0040667057037353516,0.0
1709651571140328820,,138520002,1709651571,-0.003673304781453583,0.004029668361626603,-0.5518618196306435,-0.9621694684028625,0.001218245248310268,-0.0024389936588704586,0.2724381685256958,-0.04805588722229004,0.0040018558502197266,0.0
1709651571143443550,,142686605,1709651571,-0.00205680855129166,0.003285822333596706,-0.5526168818735009,-0.962067723274231,0.0005411988822743297,-0.0018611468840390444,0.2728038430213928,-0.04819846153259277,0.004054546356201172,0.0
1709651571149637117,,146853208,1709651571,-0.0011870484207736074,0.0018553166208274035,-0.5537719267265345,-0.9619109630584717,0.00031733137439005077,-0.0010545713594183326,0.27336084842681885,-0.04849743843078613,0.004060506820678711,0.0
1709651571152743916,,151020050,1709651571,9.278457187735665e-05,0.0006079117932222622,-0.5559058385573271,-0.9616190791130066,-0.00012801347475033253,-0.0002795603359118104,0.2743877172470093,-0.0487363338470459,0.004132986068725586,0.0
1709651571156183201,,155186653,1709651571,-5.122029164067623e-05,0.0010046402188707228,-0.5567909335703517,-0.9614974856376648,-0.00011342013021931052,-0.0004900175845250487,0.2748132050037384,-0.0488736629486084,0.004163265228271484,0.0
1709651571160293406,,159353256,1709651571,-2.6424775217165495e-05,0.0007528705003132007,-0.5572793104704508,-0.9614304900169373,-9.08349611563608e-05,-0.00036555033875629306,0.27504798769950867,-0.048998355865478516,0.004181623458862305,0.0
1709651571164072008,,163520097,1709651571,-0.00013895838816324607,0.0010275285496814358,-0.557553959632437,-0.9613925814628601,-7.458089385181665e-05,-0.0005130484933033586,0.27517998218536377,-0.049127817153930664,0.0041980743408203125,0.0
1709651571168240899,,167686700,1709651571,0.00019959618585678858,0.0013555927893619997,-0.5587134319615115,-0.9612328410148621,-0.00028282293351367116,-0.0006240021320991218,0.27573734521865845,-0.049318790435791016,0.004240512847900391,0.0
1709651571172391503,,171853303,1709651571,-0.0011975387062083645,0.0018209844441638891,-0.5581663996821409,-0.9613080024719238,0.00032478448702022433,-0.0010402090847492218,0.2754737436771393,-0.049408674240112305,0.004200458526611328,0.0
1709651571176652671,,176019906,1709651571,-0.0019280553717950528,0.002034604758950111,-0.5573441842165543,-0.9614208936691284,0.000646997825242579,-0.0012432396179065108,0.2750779986381531,-0.04948902130126953,0.00415492057800293,0.0
1709651571182555461,,180186748,1709651571,-0.003173563574306114,0.00292341814534887,-0.5568307301813045,-0.9614905714988708,0.0011239516315981746,-0.0018415178637951612,0.2748295068740845,-0.049581289291381836,0.00412440299987793,0.0
1709651571185273848,,184353351,1709651571,-0.004093872562243256,0.003625306950853242,-0.5567752902237719,-0.9614971876144409,0.0014699979219585657,-0.0023053698241710663,0.2748011350631714,-0.04968380928039551,0.004132509231567383,0.0
1709651571189472770,,188519954,1709651571,-0.004488707430590482,0.004266163389893933,-0.5577256050639585,-0.961365818977356,0.0015704899560660124,-0.0026684566400945187,0.2752566337585449,-0.049866437911987305,0.004155874252319336,0.0
1709651571193453891,,192686557,1709651571,-0.00431608720808807,0.004041101748041346,-0.5583037284421197,-0.9612864851951599,0.0015177569584921002,-0.0025369550567120314,0.27553504705429077,-0.050006866455078125,0.004179477691650391,0.0
1709651571197358886,,196853399,1709651571,-0.004090063229956817,0.003915222124966311,-0.559156952370514,-0.9611691832542419,0.001425419352017343,-0.002445921301841736,0.2759455442428589,-0.05016684532165527,0.0042266845703125,0.0
1709651571201545313,,201020002,1709651571,-0.004490619408659273,0.004445453032108949,-0.5602595618027713,-0.9610162377357483,0.0015432412037625909,-0.002756858244538307,0.2764741778373718,-0.05030632019042969,0.004287004470825195,0.0
1709651571205615979,,205186605,1709651571,-0.004147287664620769,0.004201320410345691,-0.5611723415338269,-0.9608902931213379,0.0014108336763456464,-0.0025927340611815453,0.2769135534763336,-0.050452470779418945,0.004314422607421875,0.0
1709651571212798464,,209353208,1709651571,-0.003988027798273983,0.0044721654225656216,-0.5616610807541568,-0.9608225226402283,0.0012961565516889095,-0.0027011260390281677,0.27714821696281433,-0.05059075355529785,0.004340410232543945,0.0
1709651571215000655,,213520050,1709651571,-0.0046250938552485224,0.004731549679815166,-0.5623670379874892,-0.9607240557670593,0.0015652363654226065,-0.0029145698063075542,0.27748608589172363,-0.050724029541015625,0.004367351531982422,0.0
1709651571218965259,,217686653,1709651571,-0.0051086178980751405,0.004945157561968257,-0.5628892077553476,-0.9606508612632751,0.001767059788107872,-0.003084725933149457,0.2777358889579773,-0.0508575439453125,0.004380464553833008,0.0
1709651571222388029,,221853256,1709651571,-0.00487782974249681,0.005048160718675719,-0.5634074910131477,-0.9605790376663208,0.0016410979442298412,-0.0031025768257677555,0.27798500657081604,-0.050975799560546875,0.004404306411743164,0.0
1709651571226433342,,226020097,1709651571,-0.004572655010508726,0.005319007429932517,-0.5640784097505792,-0.9604856371879578,0.0014558081747964025,-0.003190733026713133,0.27830731868743896,-0.05112338066101074,0.004433393478393555,0.0
1709651571230976094,,230186700,1709651571,-0.004410523879013735,0.0051282783755348905,-0.5646261057619584,-0.9604097008705139,0.0014036450302228332,-0.0030769603326916695,0.27857086062431335,-0.051284074783325195,0.004456281661987305,0.0
1709651571234820305,,234353303,1709651571,-0.004843503523034721,0.0053762204472819165,-0.5651482986011245,-0.960336446762085,0.0015761775430291891,-0.003256741911172867,0.27882054448127747,-0.05141305923461914,0.004473209381103516,0.0
1709651571239132641,,238519906,1709651571,-0.0037810834521113997,0.004708678420386152,-0.5670627792560401,-0.9600704908370972,0.0011564336018636823,-0.0027892054058611393,0.27974221110343933,-0.05161905288696289,0.004534244537353516,0.0
1709651571244748035,,242686748,1709651571,-0.003086790167867607,0.004010602692127753,-0.5692545143175166,-0.9597642421722412,0.0009182081557810307,-0.00235800095833838,0.2807958424091339,-0.0518040657043457,0.0046274662017822266,0.0
1709651571248371553,,246853351,1709651571,-0.002536519940674045,0.004373003817000719,-0.5709316325955914,-0.9595282673835754,0.000601203297264874,-0.002455158857628703,0.2816008925437927,-0.05196738243103027,0.004701137542724609,0.0
1709651571252266333,,251019954,1709651571,-0.0024869423598222876,0.005540298071892526,-0.5723991764966717,-0.9593202471733093,0.00041085161501541734,-0.0030085050966590643,0.2823038399219513,-0.05214095115661621,0.00475001335144043,0.0
1709651571256035886,,255186557,1709651571,-0.002928500278532402,0.005479258151715704,-0.573164491973744,-0.9592121839523315,0.0006301015964709222,-0.0030417945235967636,0.2826702892780304,-0.05226635932922363,0.0047719478607177734,0.0
1709651571259956400,,259353399,1709651571,-0.002570867222953567,0.005483077894569077,-0.573650881082487,-0.9591435194015503,0.0004573108453769237,-0.0029931915923953056,0.28290408849716187,-0.05239415168762207,0.004786014556884766,0.0
1709651571264028008,,263520002,1709651571,-0.002916110374268297,0.006009496905586458,-0.5736846352631015,-0.9591379165649414,0.0005483590066432953,-0.0032944914419203997,0.2829191982746124,-0.0525202751159668,0.00479435920715332,0.0
1709651571268164361,,267686605,1709651571,-0.0049102812919117715,0.006078114588353335,-0.57235419012547,-0.959324836730957,0.001497394870966673,-0.003608495695516467,0.28227755427360535,-0.05257701873779297,0.004778861999511719,0.0
1709651571274948474,,271853208,1709651571,-0.00483781319768334,0.006440509684733035,-0.5723862207773817,-0.9593200087547302,0.0014114236691966653,-0.0037721164990216494,0.2822924554347992,-0.0527348518371582,0.0047435760498046875,0.0
1709651571277081508,,276020050,1709651571,-0.0051429906431149815,0.006326058885167927,-0.5718076167206773,-0.9594014286994934,0.0015750479651615024,-0.0037598388735204935,0.28201454877853394,-0.052791595458984375,0.004725456237792969,0.0
1709651571281713705,,280186653,1709651571,-0.005820132536227794,0.006844826371864324,-0.5714791418911187,-0.9594465494155884,0.0018273930763825774,-0.0041038719937205315,0.2818547189235687,-0.05291628837585449,0.004731416702270508,0.0
1709651571285316900,,284353256,1709651571,-0.006626996062678147,0.0075962700860861465,-0.5727103737895319,-0.9592710733413696,0.0021057387348264456,-0.004579360131174326,0.2824420630931854,-0.053121328353881836,0.00473475456237793,0.0
1709651571289037414,,288520097,1709651571,-0.0038745932964297856,0.006905925602279394,-0.5771729357658915,-0.958641529083252,0.000874471093993634,-0.0038615060038864613,0.2845887839794159,-0.05341315269470215,0.004927396774291992,0.0
1709651571293190637,,292686700,1709651571,-0.002945681415502261,0.006310858402164553,-0.5807049364541832,-0.9581385850906372,0.0005078193498775363,-0.003445001319050789,0.2862837612628937,-0.053671836853027344,0.0050923824310302734,0.0
1709651571299737254,,296853303,1709651571,-0.0029389999845950885,0.006047644343341432,-0.5819857048901246,-0.9579553604125977,0.0005401716916821897,-0.003318294184282422,0.28689759969711304,-0.053832054138183594,0.005128383636474609,0.0
1709651571302847743,,301019906,1709651571,-0.0024211391779668193,0.005635666415330722,-0.5828971166694534,-0.9578251838684082,0.0003498388978186995,-0.003046839265152812,0.2873353660106659,-0.05397772789001465,0.005179405212402344,0.0
1709651571306157921,,305186748,1709651571,-0.002301927899995486,0.0055937067319209955,-0.5835677750099382,-0.9577288627624512,0.0002977662952616811,-0.00300971744582057,0.2876567542552948,-0.05411982536315918,0.005208730697631836,0.0
1709651571310431987,,309353351,1709651571,-0.0025765916418609073,0.005704328005001187,-0.5830202837802516,-0.9578073620796204,0.00041423129732720554,-0.0031020811293274164,0.28739404678344727,-0.05421137809753418,0.005185127258300781,0.0
1709651571314024725,,313519954,1709651571,-0.003861219438156581,0.0060476249771220045,-0.581258832171703,-0.9580591917037964,0.0009831509087234735,-0.0034502188209444284,0.28654786944389343,-0.05426192283630371,0.005093097686767578,0.0
1709651571318192789,,317686557,1709651571,-0.004891224389133734,0.0066045369732891665,-0.5791010585886716,-0.9583665132522583,0.0014009277801960707,-0.0038630578201264143,0.2855113446712494,-0.05428910255432129,0.005002260208129883,0.0
1709651571322342923,,321853399,1709651571,-0.0057981912615166125,0.006638838210230474,-0.5783140035639167,-0.9584780931472778,0.0018322115065529943,-0.004008247517049313,0.2851323187351227,-0.054378509521484375,0.004975557327270508,0.0
1709651571326416737,,326020002,1709651571,-0.006142495532437758,0.007115653221665626,-0.578807453553495,-0.9584068059921265,0.001928175799548626,-0.0042863162234425545,0.2853671610355377,-0.05452299118041992,0.004999876022338867,0.0
1709651571330936382,,330186605,1709651571,-0.005930726972651851,0.005952197925322111,-0.5791345605089425,-0.9583615660667419,0.0019921083003282547,-0.003698897548019886,0.2855265736579895,-0.05468559265136719,0.005037546157836914,0.0
1709651571338230059,,334353208,1709651571,-0.005612196426981371,0.0060208726536311674,-0.5800180469470063,-0.9582355618476868,0.001828041160479188,-0.0036871384363621473,0.28595036268234253,-0.054857492446899414,0.005068063735961914,0.0
1709651571339470854,,338520050,1709651571,-0.006004175258800585,0.0063145850060217406,-0.5812735677745057,-0.9580552577972412,0.0019714105874300003,-0.00388514157384634,0.2865505516529083,-0.05503129959106445,0.005136251449584961,0.0
1709651571344515991,,342686653,1709651571,-0.005789595569205793,0.006360369087006838,-0.5822488958386397,-0.9579155445098877,0.0018601702759042382,-0.0038772369734942913,0.2870180606842041,-0.055196523666381836,0.0051784515380859375,0.0
1709651571348111544,,346853256,1709651571,-0.00590403815075395,0.00633366262911559,-0.5824325570620821,-0.9578890800476074,0.0019184598932042718,-0.0038810456171631813,0.28710585832595825,-0.055336713790893555,0.005185127258300781,0.0
1709651571351649769,,351020097,1709651571,-0.0061033626965043605,0.006371802199802321,-0.581823822287871,-0.957976222038269,0.002009645337238908,-0.003927314188331366,0.2868138253688812,-0.0554966926574707,0.0051631927490234375,0.0
1709651571355620274,,355186700,1709651571,-0.005418614580618188,0.006478637476127251,-0.5816980224035243,-0.957994818687439,0.0016665812581777573,-0.0038801839109510183,0.28675469756126404,-0.05562949180603027,0.00517725944519043,0.0
1709651571359654824,,359353303,1709651571,-0.0055721623076298785,0.006600699160424614,-0.5820046487069833,-0.9579505324363708,0.0017220210283994675,-0.003960930276662111,0.28690105676651,-0.05576896667480469,0.005196571350097656,0.0
1709651571367197700,,363519906,1709651571,-0.004146358288865221,0.005399124627817279,-0.5828142929936482,-0.9578365683555603,0.0012101838365197182,-0.003181364154443145,0.28729331493377686,-0.055925607681274414,0.005242109298706055,0.0
1709651571369684505,,367686748,1709651571,-0.004593635154646133,0.005284674792431261,-0.5831213992849057,-0.957792341709137,0.001440343912690878,-0.003191022900864482,0.28743982315063477,-0.05604982376098633,0.005255937576293945,0.0
1709651571373423644,,371853351,1709651571,-0.0051334480604652705,0.0061124408246408255,-0.5848985880952992,-0.9575353264808655,0.0015766292344778776,-0.0036664188373833895,0.28828856348991394,-0.05628061294555664,0.00532221794128418,0.0
1709651571377095211,,376019954,1709651571,-0.005212637308143797,0.007077543735393414,-0.5874370396580206,-0.9571674466133118,0.0014701653271913528,-0.004141760058701038,0.2895018458366394,-0.05651521682739258,0.005441427230834961,0.0
1709651571380734092,,380186557,1709651571,-0.0037362887370019733,0.0061620682230822815,-0.5882470732144861,-0.9570520520210266,0.0008947180467657745,-0.003490288509055972,0.2898937463760376,-0.05662178993225098,0.005483865737915039,0.0
1709651571384962816,,384353399,1709651571,-0.0033214204828351437,0.0055364703345981,-0.5881813709195498,-0.9570624232292175,0.0007869772962294519,-0.003130764700472355,0.28986379504203796,-0.05671048164367676,0.005462169647216797,0.0
1709651571388965367,,388520002,1709651571,-0.003364340351456281,0.005746276573215188,-0.5894335298726002,-0.956880509853363,0.0007750802324153483,-0.0032378695905208588,0.2904626131057739,-0.05692720413208008,0.005537986755371094,0.0
1709651571393298893,,392686605,1709651571,-0.003471168445949531,0.006440545156920654,-0.5904742240754663,-0.9567283987998962,0.0007234924705699086,-0.0035859260242432356,0.2909594178199768,-0.05713224411010742,0.0056111812591552734,0.0
1709651571399061630,,396853208,1709651571,-0.005394816850269687,0.007676434128004695,-0.5910730979532494,-0.956638514995575,0.0014625567710027099,-0.004457414615899324,0.29124006628990173,-0.05725502967834473,0.00564265251159668,0.0
1709651571401654650,,401020050,1709651571,-0.005145823280020696,0.005410543673871729,-0.5888316781738988,-0.9569671750068665,0.0016771776136010885,-0.003335463348776102,0.29017218947410583,-0.05726003646850586,0.005486249923706055,0.0
1709651571406442523,,405186653,1709651571,-0.0034301364225202105,0.005280885081840601,-0.5899817165191152,-0.9568014144897461,0.0008733222493901849,-0.00302500301040709,0.29072532057762146,-0.05745959281921387,0.005461692810058594,0.0
1709651571409905074,,409353256,1709651571,-0.003091592324859967,0.006097233514987243,-0.5916914539467686,-0.9565517902374268,0.0005898145609535277,-0.0033668370451778173,0.2915427088737488,-0.05755925178527832,0.005579948425292969,0.0
1709651571414046177,,413520097,1709651571,-0.00418072076398309,0.006535895617088709,-0.5935310516671385,-0.9562821984291077,0.0010433353018015623,-0.0037363620940595865,0.2924199104309082,-0.05776333808898926,0.005712032318115234,0.0
1709651571418258863,,417686700,1709651571,-0.00360089603533414,0.007466689053649742,-0.5933167351449654,-0.9563124179840088,0.0006304390844888985,-0.004096567165106535,0.2923172414302826,-0.05792403221130371,0.005753755569458008,0.0
1709651571422466514,,421853303,1709651571,-0.004268504290842703,0.007993092657196445,-0.5947888622625359,-0.9560959339141846,0.0008694453281350434,-0.004446486476808786,0.2930188477039337,-0.05817818641662598,0.0058269500732421875,0.0
1709651571428754073,,426019906,1709651571,-0.0028598486183993373,0.006337561292426959,-0.5961156321179095,-0.9559041857719421,0.00043631470180116594,-0.003448972012847662,0.2936581075191498,-0.05838298797607422,0.0058329105377197266,0.0
1709651571431173663,,430186748,1709651571,-0.004595583112068735,0.006757131952288709,-0.5943585598919268,-0.9561605453491211,0.0012077345745638013,-0.00390330096706748,0.2928144335746765,-0.0582883358001709,0.005727529525756836,0.0
1709651571435630948,,434353351,1709651571,-0.0036495161162475483,0.006726641558076624,-0.5947487984722487,-0.9561039209365845,0.0007591709727421403,-0.0037503608036786318,0.2930028438568115,-0.05844521522521973,0.00581669807434082,0.0
1709651571439140843,,438519954,1709651571,-0.0028350802630397872,0.007737550595487017,-0.5956311506052715,-0.9559732675552368,0.00021990812092553824,-0.004114407114684582,0.29342490434646606,-0.058676958084106445,0.0058746337890625,0.0
1709651571443123527,,442686557,1709651571,-0.004265662931188339,0.008557662617437508,-0.5957373065528404,-0.9559559226036072,0.0007831310504116118,-0.004716332070529461,0.2934713065624237,-0.05886697769165039,0.005836963653564453,0.0
1709651571447396982,,446853399,1709651571,-0.0030267870792982194,0.008248713205822163,-0.5967328905421929,-0.9558106064796448,0.00023412812151946127,-0.0043869903311133385,0.2939504086971283,-0.05895376205444336,0.00587010383605957,0.0
1709651571451515434,,451020002,1709651571,-0.0005938823362341451,0.00854248058772851,-0.5970791655235502,-0.9557586908340454,-0.000972469337284565,-0.004169635009020567,0.29412078857421875,-0.059107065200805664,0.0060040950775146484,0.0
1709651571457395764,,455186605,1709651571,-0.003919496752036393,0.009408347009227425,-0.5939981857190731,-0.9562093615531921,0.0004972487804479897,-0.00507171219214797,0.2926393747329712,-0.05918002128601074,0.005968332290649414,0.0
1709651571460802533,,459353208,1709651571,-0.0009219486447772895,0.007184447133882605,-0.5906110010929143,-0.9567074775695801,-0.000604432774707675,-0.0035708777140825987,0.2910286486148834,-0.059197425842285156,0.005788087844848633,0.0
1709651571465205074,,463520050,1709651571,-0.0011670488587540691,0.007089078346836656,-0.5870116670833534,-0.9572299718856812,-0.00046690108138136566,-0.0035617691464722157,0.28930604457855225,-0.05913424491882324,0.005759239196777344,0.0
1709651571469206955,,467686653,1709651571,-0.0014522045521030264,0.007066187804535075,-0.5833516689560426,-0.9577578902244568,-0.00032053605536930263,-0.0035926545970141888,0.2875533401966095,-0.05925607681274414,0.005873680114746094,0.0
1709651571472609193,,471853256,1709651571,-0.0019967557218321537,0.0063070568433875275,-0.57682310858598,-0.9586925506591797,6.018149360897951e-05,-0.003307238221168518,0.28442516922950745,-0.059285879135131836,0.005781650543212891,0.0
1709651571476583877,,476020097,1709651571,-0.002747312659504173,0.006299416978417978,-0.568649178932757,-0.9598469734191895,0.00043497903971001506,-0.003408564953133464,0.28050339221954346,-0.05917644500732422,0.0056302547454833984,0.0
1709651571480874032,,480186700,1709651571,-0.0006930584725944573,0.006646575703327005,-0.5623191868880264,-0.9607292413711548,-0.0005891899927519262,-0.003288941690698266,0.2774672508239746,-0.059062957763671875,0.0056841373443603516,0.0
1709651571487202462,,484353303,1709651571,-0.0036457033387922284,0.006825822275428106,-0.5536419697596713,-0.9619235992431641,0.0008207008941099048,-0.003781147301197052,0.2732910215854645,-0.0588834285736084,0.005631923675537109,0.0
1709651571490185744,,488519906,1709651571,-0.0026643274308673567,0.005406782884456003,-0.5399596169763399,-0.9637728333473206,0.0005628773360513151,-0.0029607617761939764,0.26670730113983154,-0.05852055549621582,0.005457162857055664,0.0
1709651571494077817,,492686748,1709651571,-0.003591345656140755,0.0069364499505793695,-0.5262676818085585,-0.9655738472938538,0.000831744575407356,-0.003815900534391403,0.2600997984409332,-0.05829977989196777,0.005345582962036133,0.0
1709651571497757955,,496853351,1709651571,-0.0038631678769705112,0.007581123161753969,-0.5119594363378325,-0.9674088954925537,0.0009088893420994282,-0.004156093113124371,0.25318393111228943,-0.05791068077087402,0.005235195159912109,0.0
1709651571501923814,,501019954,1709651571,-0.003708642679562564,0.006627457809937932,-0.4936746333297641,-0.9696845412254333,0.000988437794148922,-0.0036663576029241085,0.24433064460754395,-0.05760765075683594,0.0050106048583984375,0.0
1709651571505836977,,505186557,1709651571,-0.002353429068825502,0.005731035398996574,-0.47986965782903435,-0.9713496565818787,0.00046204254613257945,-0.0030630570836365223,0.23763489723205566,-0.05729484558105469,0.005064249038696289,0.0
1709651571509694870,,509353399,1709651571,-0.003460687698356114,0.006921192796526031,-0.4629121861158071,-0.9733274579048157,0.0008903496782295406,-0.0037652321625500917,0.22938749194145203,-0.05689835548400879,0.004977226257324219,0.0
1709651571514051624,,513520002,1709651571,-0.0030763308898234427,0.006017124270900539,-0.4421854134534429,-0.9756539463996887,0.0008409532601945102,-0.0032726323697715998,0.21929007768630981,-0.05626845359802246,0.0050199031829833984,0.0
1709651571520786804,,517686605,1709651571,-0.0026137851351455787,0.005628035394038952,-0.423230225423038,-0.9776890873908997,0.0006866813637316227,-0.0030257366597652435,0.21003463864326477,-0.05580496788024902,0.005063295364379883,0.0
1709651571522810744,,521853208,1709651571,-0.0024439992139020407,0.002850945715435985,-0.4014939475910939,-0.9799165725708008,0.0009132168488577008,-0.001640512840822339,0.19939929246902466,-0.05527305603027344,0.004860639572143555,0.0
1709651571527384884,,526020050,1709651571,-0.004870183712184469,0.004403483281843334,-0.3818551373970533,-0.9818243980407715,0.001973012462258339,-0.002623829757794738,0.1897633969783783,-0.054622650146484375,0.0048754215240478516,0.0
1709651571531060610,,530186653,1709651571,-0.0013615691804502342,0.0004743970167001191,-0.36028897645016916,-0.9838176965713501,0.0006272686296142638,-0.0003553373389877379,0.17917150259017944,-0.05406451225280762,0.0050525665283203125,0.0
1709651571534978511,,534353256,1709651571,-0.002264699168627505,0.0006994627226852531,-0.3351739416320313,-0.985989511013031,0.0010581488022580743,-0.0005337113980203867,0.16680310666561127,-0.05341315269470215,0.004962444305419922,0.0
1709651571539069691,,538520097,1709651571,-0.0016867720621795432,-0.0005097937744661423,-0.3120085837076229,-0.9878556728363037,0.0008727476233616471,0.00012076255370629951,0.15537241101264954,-0.052605628967285156,0.005049943923950195,0.0
1709651571543232123,,542686700,1709651571,-0.003359520682435935,0.0015119867434644357,-0.2863797733860963,-0.989764392375946,0.0015546871582046151,-0.0009879586286842823,0.14269956946372986,-0.051804542541503906,0.005034923553466797,0.0
1709651571547596327,,546853303,1709651571,-0.0021025789902010174,0.002095639637867166,-0.25897431948672445,-0.9916273355484009,0.0009071872918866575,-0.0011747952084988356,0.12912437319755554,-0.05089306831359863,0.005105733871459961,0.0
1709651571553571919,,551019906,1709651571,-0.00208255297283446,0.0024771078050185953,-0.2349271968078775,-0.9931079149246216,0.000888949609361589,-0.0013520490610972047,0.11719223111867905,-0.05015087127685547,0.005293607711791992,0.0
1709651571556584760,,555186748,1709651571,-0.0024916863161710233,0.0032514877085284334,-0.20740334440716363,-0.994625985622406,0.0010708580957725644,-0.001745972316712141,0.10351366549730301,-0.04934072494506836,0.0053365230560302734,0.0
1709651571560347519,,559353351,1709651571,-0.0017144388936194016,0.003461301180122137,-0.18130860511157576,-0.9958920478820801,0.000697022071108222,-0.001801146543584764,0.09052853286266327,-0.04843306541442871,0.005536317825317383,0.0
1709651571564136465,,563519954,1709651571,-0.0014626585757313382,1.3749014142654457e-06,-0.1538979060424957,-0.9970406889915466,0.0007291122456081212,-5.690490434062667e-05,0.07687301188707352,-0.047448158264160156,0.005617618560791016,0.0
1709651571568211523,,567686557,1709651571,-0.001888951646882913,0.0010237119603957237,-0.1268307071953508,-0.9979894161224365,0.000910139293409884,-0.0005706809461116791,0.06337233632802963,-0.04666543006896973,0.005711078643798828,0.0
1709651571572325079,,571853399,1709651571,-0.0007216536994490422,-0.0008111556467440742,-0.09682943402560959,-0.998828113079071,0.00038003225927241147,0.0003876400296576321,0.04839594289660454,-0.04555249214172363,0.006020784378051758,0.0
1709651571576774978,,576020002,1709651571,-0.0007063946808361472,0.0007528701084824228,-0.06905953008752247,-0.9994038343429565,0.00033999112201854587,-0.00038840400520712137,0.03452276438474655,-0.04442000389099121,0.006236553192138672,0.0
1709651571583362319,,580186605,1709651571,0.0016796992129018487,-0.001154476531225222,-0.04177821240973748,-0.9997813105583191,-0.000827609037514776,0.0005946545279584825,0.020887091755867004,-0.0433957576751709,0.00656890869140625,0.0
1709651571585265968,,584353208,1709651571,0.0009034112958281113,-0.0027490211346388664,-0.013641562169325083,-0.9999757409095764,-0.00044231952051632106,0.0013775589177384973,0.0068200998939573765,-0.0423736572265625,0.0067179203033447266,0.0
1709651571590193686,,588520050,1709651571,0.00020150354468238303,-0.001013334539494142,0.016542606517364375,-0.9999657273292542,-0.0001049390557454899,0.0005058165406808257,-0.00827125832438469,-0.0413668155670166,0.006939411163330078,0.0
1709651571593723351,,592686653,1709651571,-0.0006920938349954603,-0.0036416591462847168,0.04312612888859855,-0.9997658133506775,0.0003067062934860587,0.0018278664210811257,-0.021560726687312126,-0.0404057502746582,0.00714874267578125,0.0
1709651571597745639,,596853256,1709651571,-0.0012070740364282459,-0.0008683754850033321,0.07046842574115246,-0.9993790984153748,0.0005878672236576676,0.00045517890248447657,-0.03522665053606033,-0.039476871490478516,0.007406473159790039,0.0
1709651571601670626,,601020097,1709651571,-0.00039358954281510224,-0.0007310470927930421,0.0991847245239353,-0.998770534992218,0.0001784330524969846,0.0003748296294361353,-0.04957195743918419,-0.03853106498718262,0.007586479187011719,0.0
1709651571608696324,,605186700,1709651571,-0.0008179758962596937,-0.001837309011221188,0.12323379303540265,-0.9981018900871277,0.0003516427823342383,0.0009420954738743603,-0.06157750263810158,-0.03771662712097168,0.007919073104858398,0.0
1709651571610494939,,609353303,1709651571,-0.0009619846548675955,-0.0033479278947147924,0.14957217597165656,-0.9972033500671387,0.00035457470221444964,0.0017052219482138753,-0.07471548020839691,-0.03676748275756836,0.00812983512878418,0.0
1709651571614944322,,613519906,1709651571,-0.0011994473090720533,-0.0023332179533664126,0.17664084133915806,-0.9961014986038208,0.0004944842075929046,0.0012149603571742773,-0.08820486813783646,-0.03587794303894043,0.008443593978881836,0.0
1709651571619000129,,617686748,1709651571,-0.0009209857369878644,-0.005598598997844844,0.2017591271162979,-0.9949120879173279,0.00017623690655454993,0.0028314392548054457,-0.10070686042308807,-0.035147666931152344,0.008632421493530273,0.0
1709651571622441995,,621853351,1709651571,-0.0008542204011341344,-0.0038247653502394216,0.22730050538539853,-0.9935469627380371,0.00020747898088302463,0.0019484807271510363,-0.11340472102165222,-0.03415679931640625,0.008884429931640625,0.0
1709651571626501761,,626019954,1709651571,-0.0008294274248559538,-0.004663997916068321,0.25485843448711026,-0.9918892979621887,0.00011498914682306349,0.0023657919373363256,-0.12708330154418945,-0.03334856033325195,0.009029626846313477,0.0
1709651571630861352,,630186557,1709651571,0.0004561366824013281,-0.0030770863711366775,0.27499486696423125,-0.9905609488487244,-0.00043679523514583707,0.0014927617739886045,-0.13706476986408234,-0.032769203186035156,0.009503602981567383,0.0
1709651571635040956,,634353399,1709651571,-0.000344001579769555,-0.004362639269544362,0.30197526910433353,-0.9886208176612854,-0.00015805843577254564,0.002182372147217393,-0.1504138559103012,-0.03209495544433594,0.009695768356323242,0.0
1709651571639310933,,638520002,1709651571,-0.00164671917953685,-0.0014634665773086575,0.32513897591442203,-0.9868141412734985,0.0006940688472241163,0.0008553491206839681,-0.16185365617275238,-0.03162550926208496,0.010030269622802734,0.0
1709651571644696396,,642686605,1709651571,-0.002557476683441098,0.0005735776855279299,0.34683314243771646,-0.9850000739097595,0.001309043145738542,-6.184251833474264e-05,-0.17254889011383057,-0.031224966049194336,0.01023101806640625,0.0
1709651571648180313,,646853208,1709651571,-0.00199766972779348,0.0001844800040146141,0.3681048885941736,-0.9831095933914185,0.0009988457895815372,9.211976430378854e-05,-0.18301506340503693,-0.03090667724609375,0.010435342788696289,0.0
1709651571652177923,,651020050,1709651571,-0.0013939936808257743,3.9521854674814316e-05,0.3916342500613242,-0.9808887243270874,0.0006875213584862649,0.00011623009049799293,-0.19456808269023895,-0.03053736686706543,0.010659933090209961,0.0
1709651571655863503,,655186653,1709651571,-0.00219984907543802,-0.00041442617830365056,0.4120515607494724,-0.9788511395454407,0.0010342728346586227,0.00042784371180459857,-0.20457099378108978,-0.030254840850830078,0.010801553726196289,0.0
1709651571659895415,,659353256,1709651571,-0.0006129344635832369,0.0005583205764801814,0.43197827324223337,-0.9767647385597229,0.0003591743006836623,-0.0002069938345812261,-0.21431376039981842,-0.030137300491333008,0.010982275009155273,0.0
1709651571664279973,,663520097,1709651571,-0.0024306593029250877,-0.004244370288780153,0.4526187263921979,-0.9744988083839417,0.0007081566145643592,0.0023407668340951204,-0.22437934577465057,-0.03000497817993164,0.010949850082397461,0.0
1709651571668955677,,667686700,1709651571,-0.0031773898720925267,-0.004015480606629992,0.46934487319628504,-0.9725881814956665,0.0010782981989905238,0.002322114771232009,-0.23252053558826447,-0.030081510543823242,0.011154651641845703,0.0
1709651571673169814,,671853303,1709651571,-0.00146364071608343,-0.00627761062108978,0.4864311688560218,-0.9705641865730286,-4.5622349716722965e-05,0.0032226594630628824,-0.24082131683826447,-0.030167102813720703,0.011303424835205078,0.0
1709651571677262281,,676019906,1709651571,-0.001877545693940033,-0.006468340525147712,0.5034323965509957,-0.968481719493866,0.00010366240894654766,0.003366058459505439,-0.24906207621097565,-0.03031754493713379,0.0113983154296875,0.0
1709651571681306659,,680186748,1709651571,-0.0009715403175337973,-0.007063440962859322,0.5178924268432301,-0.9666546583175659,-0.00043476573773659766,0.0035383531358093023,-0.2560587525367737,-0.030492305755615234,0.011462211608886719,0.0
1709651571684952260,,684353351,1709651571,-0.0007674445541383962,-0.0062585415175510205,0.5328135188467565,-0.9647186994552612,-0.00045364719699136913,0.0031198952347040176,-0.26326417922973633,-0.030802249908447266,0.011518001556396484,0.0
1709651571689026303,,688519954,1709651571,-0.0008790182922540829,-0.004393155609059577,0.545263751626484,-0.9630634784698486,-0.0001681902795098722,0.002233791397884488,-0.26926541328430176,-0.031299591064453125,0.011549711227416992,0.0
1709651571693155846,,692686557,1709651571,-0.0014398002559578922,-0.006483602889806751,0.5589105544404263,-0.9612011909484863,-0.00020222256716806442,0.00331460265442729,-0.2758283317089081,-0.031673431396484375,0.011528968811035156,0.0
1709651571697402371,,696853399,1709651571,-0.0004594028989306053,-0.006502686098690363,0.5707451355293297,-0.9595520496368408,-0.0006948894588276744,0.003184506669640541,-0.2815127372741699,-0.03232932090759277,0.01170039176940918,0.0
1709651571704005524,,701020002,1709651571,-0.0008799890137810018,-0.007681422473990062,0.5834745741397094,-0.957738995552063,-0.0006832494982518256,0.00380496378056705,-0.28761276602745056,-0.032829999923706055,0.011484384536743164,0.0
1709651571706205243,,705186605,1709651571,-0.0015990608561117414,-0.005838919414210075,0.5932122990402463,-0.9563302993774414,-8.867238648235798e-05,0.0030256561003625393,-0.2922726571559906,-0.03343796730041504,0.011492729187011719,0.0
1709651571710573726,,709353208,1709651571,-0.00297331628043932,-0.005041632705824841,0.6042043067073252,-0.9547101855278015,0.0006693156901746988,0.0028489718679338694,-0.29752296209335327,-0.034090280532836914,0.01138615608215332,0.0
1709651571714295044,,713520050,1709651571,-0.003867856168019353,-0.003946807932048037,0.6125054374548197,-0.953467607498169,0.0012489819200709462,0.00246463087387383,-0.30148303508758545,-0.03494095802307129,0.011255264282226562,0.0
1709651571718089633,,717686653,1709651571,-0.00472995073248359,-0.0013642716759513466,0.6221705109795773,-0.9519995450973511,0.0020426628179848194,0.0013732919469475746,-0.30608952045440674,-0.035814523696899414,0.011194467544555664,0.0
1709651571722456014,,721853256,1709651571,-0.004521123843783993,-0.0037141029979338444,0.6323433540045078,-0.9504300355911255,0.0015710947336629033,0.0024678721092641354,-0.3109249472618103,-0.0364840030670166,0.01101064682006836,0.0
1709651571726654362,,726020097,1709651571,-0.0044944330760902824,-0.004416000531044595,0.6414712110356758,-0.9490007162094116,0.001436507678590715,0.002803859068080783,-0.3152584433555603,-0.03746366500854492,0.01099252700805664,0.0
1709651571730821772,,730186700,1709651571,-0.0038831035132668636,-0.003160985453766075,0.64778074070007,-0.9480025172233582,0.0013375944690778852,0.002116221934556961,-0.31825312972068787,-0.03838825225830078,0.010743141174316406,0.0
1709651571734802292,,734353303,1709651571,-0.0035931934843959133,-0.0038323713251019603,0.6558694186087282,-0.9467074871063232,0.001083671348169446,0.002392728812992573,-0.32208409905433655,-0.03932476043701172,0.010500431060791016,0.0
1709651571739108428,,738519906,1709651571,-0.004322735374971114,-0.0017648139952270514,0.6643776869577324,-0.945328950881958,0.0017554413061589003,0.001539013464935124,-0.32611027359962463,-0.04034686088562012,0.010175943374633789,0.0
1709651571743178972,,742686748,1709651571,-0.00486632280260705,-0.0005250470895543666,0.6726122856422861,-0.9439775347709656,0.0022102203220129013,0.00105076446197927,-0.3300008177757263,-0.0414121150970459,0.009970903396606445,0.0
1709651571750526814,,746853351,1709651571,-0.002742494266926879,-0.001921225402330981,0.6796950471809334,-0.9428046345710754,0.0009726048447191715,0.0013627656735479832,-0.3333416283130646,-0.042465925216674805,0.009840011596679688,0.0
1709651571752618206,,751019954,1709651571,-0.0042769504457946675,0.00010437029740228255,0.6878374595082134,-0.9414383769035339,0.002030841540545225,0.0006719191442243755,-0.3371782600879669,-0.04351973533630371,0.00957179069519043,0.0
1709651571756258174,,755186557,1709651571,-0.0042588321343123865,-0.0003190569180308429,0.6964147241934568,-0.9399839639663696,0.0019471863051876426,0.0008765385136939585,-0.3412121832370758,-0.04457211494445801,0.009363651275634766,0.0
1709651571760332628,,759353399,1709651571,-0.002402028913081664,0.0012182597278038094,0.7037347413405562,-0.9387297034263611,0.0013373659458011389,-0.00015787742449901998,-0.3446517288684845,-0.04580521583557129,0.009182453155517578,0.0
1709651571764017475,,763520002,1709651571,-0.00270721101498572,0.002446586734284854,0.7107500431272674,-0.9375139474868774,0.0016946601681411266,-0.0006758801755495369,-0.34794294834136963,-0.04690051078796387,0.008786439895629883,0.0
1709651571768271656,,767686605,1709651571,-0.003727638207808844,0.001191552619506219,0.7184732905997372,-0.9361633658409119,0.001954292180016637,9.749890159582719e-05,-0.3515600562095642,-0.04800271987915039,0.008560657501220703,0.0
1709651571772334564,,771853208,1709651571,-0.004923545000967325,-0.0009065120481096106,0.7278510619785439,-0.9345042705535889,0.0021392065100371838,0.00129982503131032,-0.3559432327747345,-0.04919791221618652,0.008121490478515625,0.0
1709651571776531935,,776020050,1709651571,-0.0016362274191519038,0.00027221807125812816,0.7338275587601683,-0.9334386587142944,0.0008124862797558308,0.000166437603184022,-0.3587363064289093,-0.05053591728210449,0.007951736450195312,0.0
1709651571780520536,,780186653,1709651571,-0.0031726022740411527,0.00177901532600575,0.7422453350472372,-0.9319188594818115,0.001800895668566227,-0.00025365912006236613,-0.36266258358955383,-0.05164599418640137,0.007676839828491211,0.0
1709651571784978631,,784353256,1709651571,-0.0015380137081729204,0.004414974460010727,0.7501481193549048,-0.9304773807525635,0.0015242371009662747,-0.0017723031342029572,-0.3663420081138611,-0.052860260009765625,0.007376432418823242,0.0
1709651571789039866,,788520097,1709651571,-0.003657108837376137,0.005055815394266157,0.7597800420789954,-0.9286991953849792,0.0026355739682912827,-0.0016696162056177855,-0.3708208203315735,-0.05399823188781738,0.006958484649658203,0.0
1709651571795717998,,792686700,1709651571,-0.0010621179928040788,0.0023779300581536432,0.7658994295272269,-0.9275654554367065,0.0009368584724143147,-0.0009044093312695622,-0.3736584186553955,-0.05516695976257324,0.0066585540771484375,0.0
1709651571797885196,,796853303,1709651571,-0.002331459977604162,0.0019735683338959905,0.7740455948898067,-0.9260353446006775,0.0014519528485834599,-0.0004738129791803658,-0.377433717250824,-0.05650448799133301,0.0062847137451171875,0.0
1709651571802081354,,801019906,1709651571,-0.0020959117223917608,0.003587182728763318,0.7865243234727095,-0.9236612319946289,0.0016552670858800411,-0.0012550940737128258,-0.38320448994636536,-0.05749225616455078,0.005904197692871094,0.0
1709651571805868237,,805186748,1709651571,-0.002563205511971572,0.002355035767494068,0.7952538563471752,-0.9219805598258972,0.0016375856939703226,-0.0005893732886761427,-0.38723230361938477,-0.05871868133544922,0.005457162857055664,0.0
1709651571809991942,,809353351,1709651571,-0.0026442699898911013,0.0026678390985974652,0.8037672224955918,-0.9203234910964966,0.0017385591054335237,-0.0007104832911863923,-0.3911535143852234,-0.05992913246154785,0.005041837692260742,0.0
1709651571814020119,,813519954,1709651571,-0.0024459098268653097,0.003354483476363623,0.8111512577071596,-0.918872594833374,0.0017854926409199834,-0.0010586610296741128,-0.39454880356788635,-0.06108593940734863,0.004620552062988281,0.0
1709651571818272339,,817686557,1709651571,-0.002060630727479785,0.004228051898280343,0.8189329611371093,-0.9173300266265869,0.001786775072105229,-0.0015290759038180113,-0.39812085032463074,-0.06219482421875,0.004184246063232422,0.0
1709651571822510442,,821853399,1709651571,-0.0015484967470447148,0.003137052698012098,0.8261998702166202,-0.91587895154953,0.0013388032093644142,-0.001125760143622756,-0.40145090222358704,-0.06330156326293945,0.0037937164306640625,0.0
1709651571828393508,,826020002,1709651571,-0.0005385486029539715,0.0017980969277347006,0.832032428585577,-0.9147055745124817,0.0006096299039199948,-0.0007135460036806762,-0.40411972999572754,-0.06443548202514648,0.0035109519958496094,0.0
1709651571831496909,,830186605,1709651571,-0.0016753519059219766,0.005349572836816703,0.8369378663938755,-0.9137077331542969,0.0018523215549066663,-0.0021035827230662107,-0.4063624143600464,-0.0655975341796875,0.003008604049682617,0.0
1709651571835673290,,834353208,1709651571,-0.0007454998661309565,0.003491822129422737,0.8416134165284567,-0.9127579927444458,0.0010534294415265322,-0.001441329368390143,-0.4084968566894531,-0.06663966178894043,0.002499103546142578,0.0
1709651571839191684,,838520050,1709651571,-0.0004393664200369098,0.0016989153268994273,0.8461321620277256,-0.9118340611457825,0.0005490662879310548,-0.00068437191657722,-0.41055813431739807,-0.06769895553588867,0.0019578933715820312,0.0
1709651571843190343,,842686653,1709651571,-0.001723970558556303,0.002576291396812118,0.8502174727424989,-0.9109923243522644,0.0013165191048756242,-0.000817992608062923,-0.4124203622341156,-0.06880497932434082,0.0014770030975341797,0.0
1709651571847256527,,846853256,1709651571,-0.0014235728243301095,0.004540860941001387,0.8560445032240351,-0.909785270690918,0.0015899648424237967,-0.0017701670294627547,-0.41507256031036377,-0.06963109970092773,0.0008227825164794922,0.0
1709651571851575076,,851020097,1709651571,-0.0010907367991500254,0.004567564970398213,0.858609384611556,-0.909252405166626,0.0014464753912761807,-0.0018495365511626005,-0.4162386655807495,-0.07059645652770996,0.00020623207092285156,0.0
1709651571855533584,,855186700,1709651571,-0.001230931457236158,0.005124509199485297,0.8605916843675415,-0.9088385701179504,0.001628176192753017,-0.002071948256343603,-0.4171396791934967,-0.071441650390625,-0.0005784034729003906,0.0
1709651571859783885,,859353303,1709651571,-0.0013291639038382473,0.005452573955771031,0.861018195960561,-0.9087491631507874,0.0017417077906429768,-0.002200167626142502,-0.4173334836959839,-0.07241535186767578,-0.0011432170867919922,0.0
1709651571863904555,,863519906,1709651571,-0.0004899115221142548,0.0019812029174250123,0.8615736128513506,-0.9086369276046753,0.0006362369167618454,-0.0007978074136190116,-0.4175858497619629,-0.07325911521911621,-0.0017042160034179688,0.0
1709651571868554384,,867686748,1709651571,-0.0005604843020715871,0.0027059948444005063,0.8609321538593736,-0.9087703227996826,0.0008192738750949502,-0.0011126215104013681,-0.41729435324668884,-0.07395625114440918,-0.002542734146118164,0.0
1709651571874287549,,871853351,1709651571,-0.0012213958226738402,0.005303800517038332,0.8600422518529697,-0.9089528918266296,0.0016606453573331237,-0.00215586693957448,-0.4168899357318878,-0.07477164268493652,-0.0032858848571777344,0.0
1709651571877112543,,876019954,1709651571,-0.00035735122718938124,0.002892915125004263,0.8580333252849972,-0.9093741178512573,0.0007641756092198193,-0.0012410474009811878,-0.4159765839576721,-0.07549142837524414,-0.003977060317993164,0.0
1709651571881546330,,880186557,1709651571,-0.00022574383570992814,0.0031904625564657747,0.8544939538809745,-0.9101088643074036,0.0007637361413799226,-0.0014050648314878345,-0.4143664240837097,-0.07622289657592773,-0.00487828254699707,0.0
1709651571885413191,,884353399,1709651571,8.992480489150445e-05,0.0048612985318238575,0.8514736264692924,-0.9107319712638855,0.0009628889965824783,-0.002232243539765477,-0.41299062967300415,-0.07690930366516113,-0.005673885345458984,0.0
1709651571890675661,,888520002,1709651571,-0.0008284715457923145,0.003953400029536127,0.8454275812574937,-0.9119768738746643,0.0011886880965903401,-0.0016327730845659971,-0.41023677587509155,-0.07755279541015625,-0.006453275680541992,0.0
1709651571893468413,,892686605,1709651571,-0.0020091189294919472,0.002332149885020649,0.8405126482148673,-0.9129828214645386,0.0013928981497883797,-0.0006547530647367239,-0.4079950749874115,-0.07826781272888184,-0.00731658935546875,0.0
1709651571898564436,,896853208,1709651571,2.5073885413951116e-05,0.003365938773249054,0.8355127042044336,-0.9140003323554993,0.0006713395705446601,-0.0015433221124112606,-0.4057101607322693,-0.07883334159851074,-0.008303165435791016,0.0
1709651571901509351,,901020050,1709651571,-0.0014559975581670632,0.004533230941608433,0.8301348475607668,-0.9150859713554382,0.0015801971312612295,-0.0017805868992581964,-0.403251975774765,-0.07929277420043945,-0.009362220764160156,0.0
1709651571905485541,,905186653,1709651571,-0.001162267882604087,0.005456388460013498,0.8234823597425375,-0.9164211750030518,0.0016244009602814913,-0.0022676107473671436,-0.40020549297332764,-0.07976722717285156,-0.01034402847290039,0.0
1709651571909784114,,909353256,1709651571,-0.0008895034176202743,0.002763214827918504,0.8145445479263884,-0.9182035326957703,0.0009556356817483902,-0.0010924291564151645,-0.3961063325405121,-0.08038139343261719,-0.011322498321533203,0.0
1709651571913912978,,913520097,1709651571,-0.002522225492963168,0.005288529668267368,0.8065382213276511,-0.9197778701782227,0.0021976251155138016,-0.0019372518872842193,-0.3924286663532257,-0.08079028129577637,-0.012241363525390625,0.0
1709651571918223647,,917686700,1709651571,-0.003472088938314528,0.0047239429442946035,0.7972883834801499,-0.9215826988220215,0.0025167546700686216,-0.0015028828056529164,-0.3881712853908539,-0.08115172386169434,-0.013454198837280273,0.0
1709651571922432238,,921853303,1709651571,-0.0019213945504972523,0.004441673841153204,0.7897886144514084,-0.9230337142944336,0.0017411354929208755,-0.0016803230391815305,-0.38471147418022156,-0.08164453506469727,-0.01442861557006836,0.0
1709651571926492171,,926019906,1709651571,-0.0013568051709135452,0.002656401977017556,0.7751757350180983,-0.9258220791816711,0.001130082062445581,-0.0009732726612128317,-0.37795671820640564,-0.08220052719116211,-0.015350341796875,0.0
1709651571933980344,,930186748,1709651571,-0.0011737051618055695,0.004136505298375079,0.766782250232987,-0.9273989796638489,0.0013179120142012835,-0.0016985767288133502,-0.3740677833557129,-0.08257102966308594,-0.016498088836669922,0.0
1709651571935526615,,934353351,1709651571,-0.0024373431839673277,0.004914691405509973,0.7567958241087891,-0.929253101348877,0.002040277235209942,-0.0018332883482798934,-0.36943358182907104,-0.08285737037658691,-0.017633676528930664,0.0
1709651571939815361,,938519954,1709651571,-0.00043650652641108174,0.0027937335445058463,0.7461254314547313,-0.9312145113945007,0.0007123551913537085,-0.0012212368892505765,-0.36446908116340637,-0.0833580493927002,-0.01866436004638672,0.0
1709651571943375022,,942686557,1709651571,-0.0021102163623400974,0.0035528494983068665,0.7351631706349034,-0.933196485042572,0.0016229989705607295,-0.0012785936705768108,-0.35936060547828674,-0.08365011215209961,-0.01990532875061035,0.0
1709651571947518468,,946853399,1709651571,-0.0012194760033290197,0.002831878484352247,0.7245471782403627,-0.935092031955719,0.0010719717247411609,-0.001107943244278431,-0.354401558637619,-0.08391475677490234,-0.020990848541259766,0.0
1709651571951644634,,951020002,1709651571,-0.00036307209615546037,0.001023713796495471,0.7130146204777434,-0.9371213912963867,0.0003487610083539039,-0.0004163153935223818,-0.34900331497192383,-0.08441162109375,-0.022131681442260742,0.0
1709651571955784462,,955186605,1709651571,-0.0006339154171175321,0.00040191806039277593,0.700685633329347,-0.9392550587654114,0.0003666772390715778,-7.996562635526061e-05,-0.3432198464870453,-0.08467578887939453,-0.02332901954650879,0.0
1709651571959963045,,959353208,1709651571,-0.001279554040194377,-0.0012727330237923763,0.6882363756369201,-0.9413731098175049,0.0003875800466630608,0.000814897648524493,-0.33736616373062134,-0.08513689041137695,-0.024502992630004883,0.0
1709651571966547680,,963520050,1709651571,-0.0013262837956150208,-0.0009255960661783586,0.6774023049705279,-0.9431869387626648,0.00047169640311039984,0.0006568419048562646,-0.3322618901729584,-0.08548974990844727,-0.025680065155029297,0.0
1709651571968589519,,967686653,1709651571,-0.003341405680206741,-0.002268357474669462,0.6661476143592893,-0.9450405836105347,0.0012080637970939279,0.0016180792590603232,-0.3269469738006592,-0.08571720123291016,-0.026845216751098633,0.0
1709651571973403113,,971853256,1709651571,-0.00403185886200086,-0.000872183968680531,0.6535397558839607,-0.9470824599266052,0.001769274240359664,0.00106009840965271,-0.32098397612571716,-0.0860600471496582,-0.02802419662475586,0.0
1709651571976700198,,976020097,1709651571,-0.001342496398196897,-0.0011163306197354797,0.6419716277392141,-0.9489246606826782,0.000460861629107967,0.000741436961106956,-0.31550168991088867,-0.08647894859313965,-0.02907705307006836,0.0
1709651571980649397,,980186700,1709651571,-0.0011078971125406077,-0.003168636543232481,0.627996584779422,-0.9511051774024963,3.752480915863998e-05,0.0016779486322775483,-0.3088626265525818,-0.0868384838104248,-0.03022933006286621,0.0
1709651571984978348,,984353303,1709651571,-0.0009409991529456384,-0.0013108802604702582,0.6175267108842929,-0.9527099132537842,0.00024907401530072093,0.0007674199878238142,-0.3038803040981293,-0.0870819091796875,-0.03137564659118652,0.0
1709651571992531768,,988519906,1709651571,-0.00011607034521519488,-0.001833494431039977,0.60467781142367,-0.9546422958374023,-0.00021756213391199708,0.000892446085345,-0.2977536618709564,-0.08746623992919922,-0.03251218795776367,0.0
1709651571994308123,,992686748,1709651571,0.0006268431122159813,-0.001730497177878529,0.5914013496251974,-0.9565976858139038,-0.0005519606056623161,0.0007363609038293362,-0.29141032695770264,-0.08782529830932617,-0.03364133834838867,0.0
1709651571998373178,,996853351,1709651571,-0.0012471287131490345,-0.0008607460682904211,0.5806004436548463,-0.9581578969955444,0.00047428315156139433,0.0005908541497774422,-0.28623953461647034,-0.0881049633026123,-0.03494906425476074,0.0
1709651572002282280,,1019954,1709651572,0.0009682598956487601,-0.002150113510918815,0.569427711710492,-0.9597412943840027,-0.0007666044402867556,0.0008957931422628462,-0.28088313341140747,-0.08844351768493652,-0.035982608795166016,0.0
1709651572005837463,,5186557,1709651572,-0.0012757417690205004,-0.0023599209327767154,0.5591178683307054,-0.9611765742301941,0.0002875181089621037,0.0013101593358442187,-0.2759307622909546,-0.0885474681854248,-0.03721761703491211,0.0
