log_time_ns,header.frame_id,header.stamp.nanosec,header.stamp.sec,motor_a_1,motor_a_2,motor_b_1,motor_b_2,motor_c_1,motor_c_2
1700650664660412555,body,659994632,1700650664,0.21378062665462494,0.03,0.2677215337753296,0.03,0.21759581565856934,0.03
1700650664669989795,body,669911074,1700650664,0.21358740329742432,0.03,0.26838961243629456,0.03,0.21761807799339294,0.03
1700650664679972623,body,679881358,1700650664,0.2122003138065338,0.03,0.2686002552509308,0.03,0.21875417232513428,0.03
1700650664689986329,body,689890920,1700650664,0.2123417854309082,0.03,0.26833730936050415,0.03,0.2188096046447754,0.03
1700650664699954806,body,699875870,1700650664,0.21392151713371277,0.03,0.26675212383270264,0.03,0.21714843809604645,0.03
1700650664709946455,body,709876363,1700650664,0.2141173928976059,0.03,0.26819512248039246,0.03,0.2175869196653366,0.03
1700650664719987769,body,719880720,1700650664,0.2116723209619522,0.03,0.27019548416137695,0.03,0.21783891320228577,0.03
1700650664730047635,body,729930057,1700650664,0.2122718095779419,0.03,0.2696271240711212,0.03,0.21799737215042114,0.03
1700650664739915688,body,739824346,1700650664,0.21156388521194458,0.03,0.26956620812416077,0.03,0.21835890412330627,0.03
1700650664749968041,body,749890348,1700650664,0.7582480907440186,0.03,0.09824807941913605,0.03,0.6705033779144287,0.03
1700650664759945434,body,759862462,1700650664,0.758033275604248,0.03,0.09776820242404938,0.03,0.6718331575393677,0.03
1700650664769925259,body,769853852,1700650664,0.7574660778045654,0.03,0.09753619134426117,0.03,0.67227703332901,0.03
1700650664779961913,body,779887612,1700650664,0.7571009397506714,0.03,0.09834511578083038,0.03,0.6720625162124634,0.03
1700650664789935897,body,789869188,1700650664,0.757947564125061,0.03,0.09786687791347504,0.03,0.6706089973449707,0.03
1700650664799974691,body,799874638,1700650664,0.7558801174163818,0.03,0.10046131908893585,0.03,0.6713470220565796,0.03
1700650664809940149,body,809870018,1700650664,0.7569785714149475,0.03,0.09987841546535492,0.03,0.6697624921798706,0.03
1700650664819985379,body,819875374,1700650664,0.7574763298034668,0.03,0.09877292811870575,0.03,0.6712573766708374,0.03
1700650664830100613,body,829924103,1700650664,0.7557410001754761,0.03,0.09983424842357635,0.03,0.6724436283111572,0.03
1700650664839953839,body,839869689,1700650664,0.7554908990859985,0.03,0.09836550056934357,0.03,0.6734625101089478,0.03
1700650664849970456,body,849896240,1700650664,0.7570179104804993,0.03,0.09944786131381989,0.03,0.6719492077827454,0.03
1700650664859933050,body,859872960,1700650664,0.7589724659919739,0.03,0.09912578761577606,0.03,0.6696681976318359,0.03
1700650664869944195,body,869850721,1700650664,0.757733166217804,0.03,0.0999838262796402,0.03,0.6703686714172363,0.03
1700650664879971135,body,879883849,1700650664,0.757148802280426,0.03,0.10025931894779205,0.03,0.6705021262168884,0.03
1700650664889980554,body,889888855,1700650664,0.7576059699058533,0.03,0.09804563224315643,0.03,0.6711581349372864,0.03
1700650664900123591,body,899937725,1700650664,0.7558108568191528,0.03,0.09955571591854095,0.03,0.671852707862854,0.03
1700650664910383847,body,909931079,1700650664,0.7564553618431091,0.03,0.09935919940471649,0.03,0.6714661121368408,0.03
1700650664920017146,body,919906845,1700650664,0.7563509345054626,0.03,0.09922726452350616,0.03,0.6717009544372559,0.03
1700650664929943954,body,929862344,1700650664,0.7576565742492676,0.03,0.09876112639904022,0.03,0.6703356504440308,0.03
1700650664939962090,body,939885514,1700650664,0.7581582069396973,0.03,0.09974850714206696,0.03,0.6701668500900269,0.03
1700650664950041712,body,949919517,1700650664,0.6902806758880615,0.03,0.9274897575378418,0.03,0.03,0.2668074071407318
1700650664959936103,body,959865905,1700650664,0.6910845637321472,0.03,0.9271492958068848,0.03,0.03,0.2664879560470581
1700650664969971066,body,969882286,1700650664,0.689842700958252,0.03,0.9269583225250244,0.03,0.03,0.26622939109802246
1700650664979974403,body,979872337,1700650664,0.6916182637214661,0.03,0.9254485368728638,0.03,0.03,0.2661675810813904
1700650664989994335,body,989892604,1700650664,0.6921186447143555,0.03,0.9250802397727966,0.03,0.03,0.2661168873310089
1700650664999926414,body,999845066,1700650664,0.6899448037147522,0.03,0.92686927318573,0.03,0.03,0.2659061551094055
1700650665009901409,body,9828842,1700650665,0.6903770565986633,0.03,0.9271899461746216,0.03,0.03,0.26627057790756226
1700650665019976618,body,19891615,1700650665,0.6898292899131775,0.03,0.9282395839691162,0.03,0.03,0.2659159302711487
1700650665029939158,body,29872910,1700650665,0.6896523237228394,0.03,0.92822265625,0.03,0.03,0.26557689905166626
1700650665039939515,body,39854124,1700650665,0.6901839375495911,0.03,0.9269616007804871,0.03,0.03,0.26599860191345215
1700650665049953631,body,49892450,1700650665,0.6912887692451477,0.03,0.9267939329147339,0.03,0.03,0.26654088497161865
1700650665059942854,body,59883007,1700650665,0.6924342513084412,0.03,0.9258660078048706,0.03,0.03,0.26720982789993286
1700650665070475590,body,70153552,1700650665,0.6919584274291992,0.03,0.9265428781509399,0.03,0.03,0.2672971487045288
1700650665080055399,body,79939119,1700650665,0.6922723650932312,0.03,0.9263643026351929,0.03,0.03,0.26725146174430847
1700650665089927317,body,89866903,1700650665,0.6921359896659851,0.03,0.9260880947113037,0.03,0.03,0.2669786810874939
1700650665099923247,body,99866717,1700650665,0.690660297870636,0.03,0.9261924028396606,0.03,0.03,0.26570361852645874
1700650665109959601,body,109893430,1700650665,0.6891205906867981,0.03,0.9272848963737488,0.03,0.03,0.26493316888809204
1700650665119941539,body,119869589,1700650665,0.6896613836288452,0.03,0.9264854192733765,0.03,0.03,0.264831006526947
1700650665129940379,body,129873813,1700650665,0.691139817237854,0.03,0.9259994626045227,0.03,0.03,0.26580703258514404
1700650665139940013,body,139866170,1700650665,0.6910470128059387,0.03,0.9261771440505981,0.03,0.03,0.26580798625946045
1700650665150061003,body,149876220,1700650665,0.6910499334335327,0.03,0.9250406622886658,0.03,0.03,0.2648228406906128
1700650665159942100,body,159871099,1700650665,0.03,0.053207576274871826,0.6975231170654297,0.03,0.03,0.1345621794462204
1700650665169981908,body,169925571,1700650665,0.03,0.05192829668521881,0.6961033344268799,0.03,0.03,0.13549773395061493
1700650665179973519,body,179885557,1700650665,0.03,0.05021309852600098,0.6947746872901917,0.03,0.03,0.13657067716121674
1700650665189941662,body,189869019,1700650665,0.03,0.04872344434261322,0.6959155201911926,0.03,0.03,0.1379808783531189
1700650665200100564,body,200036818,1700650665,0.03,0.051431745290756226,0.6981281638145447,0.03,0.03,0.13802169263362885
1700650665209945646,body,209875628,1700650665,0.03,0.051707178354263306,0.6978696584701538,0.03,0.03,0.13780876994132996
1700650665219947609,body,219875455,1700650665,0.03,0.051723986864089966,0.6973905563354492,0.03,0.03,0.13698379695415497
1700650665230185794,body,230062243,1700650665,0.03,0.0511317253112793,0.6970962285995483,0.03,0.03,0.13725456595420837
1700650665239913864,body,239849111,1700650665,0.03,0.0492757111787796,0.6958569288253784,0.03,0.03,0.13765890896320343
1700650665249940481,body,249884654,1700650665,0.03,0.04996997117996216,0.6957690119743347,0.03,0.03,0.13608883321285248
1700650665259983144,body,259893891,1700650665,0.03,0.05245335400104523,0.6979328393936157,0.03,0.03,0.13649867475032806
1700650665269947529,body,269872895,1700650665,0.03,0.04997822642326355,0.6959952712059021,0.03,0.03,0.13762986660003662
1700650665279924553,body,279831234,1700650665,0.03,0.05178096890449524,0.6992521286010742,0.03,0.03,0.13710060715675354
1700650665289939703,body,289861281,1700650665,0.03,0.05044858157634735,0.6974769830703735,0.03,0.03,0.13854454457759857
1700650665299953481,body,299863088,1700650665,0.03,0.049562692642211914,0.6966502666473389,0.03,0.03,0.13782015442848206
1700650665309952434,body,309868529,1700650665,0.03,0.05217874050140381,0.6986737847328186,0.03,0.03,0.13641084730625153
1700650665319924928,body,319860804,1700650665,0.03,0.050458505749702454,0.6953005194664001,0.03,0.03,0.1363077461719513
1700650665329978138,body,329881067,1700650665,0.03,0.05127875506877899,0.6958639621734619,0.03,0.03,0.1347169131040573
1700650665339940236,body,339872856,1700650665,0.03,0.051230207085609436,0.6973100900650024,0.03,0.03,0.13611231744289398
1700650665349956902,body,349874531,1700650665,0.03,0.05007992684841156,0.6969120502471924,0.03,0.03,0.13759519159793854
1700650665359971954,body,359883275,1700650665,0.29851436614990234,0.03,0.23344247043132782,0.03,0.42471903562545776,0.03
1700650665369974122,body,369881349,1700650665,0.29839956760406494,0.03,0.23355741798877716,0.03,0.4244347810745239,0.03
1700650665379968444,body,379905480,1700650665,0.2987957000732422,0.03,0.23229138553142548,0.03,0.4250224232673645,0.03
1700650665390035768,body,389862098,1700650665,0.29919886589050293,0.03,0.23128242790699005,0.03,0.4248201847076416,0.03
1700650665399994305,body,399905494,1700650665,0.30102968215942383,0.03,0.22998224198818207,0.03,0.4245073199272156,0.03
1700650665409955830,body,409887523,1700650665,0.2997012734413147,0.03,0.23158864676952362,0.03,0.4249708652496338,0.03
1700650665420007150,body,419925826,1700650665,0.2997440695762634,0.03,0.2318558543920517,0.03,0.4240356683731079,0.03
1700650665430001044,body,429897794,1700650665,0.2993163466453552,0.03,0.23264656960964203,0.03,0.42354923486709595,0.03
1700650665439956193,body,439865463,1700650665,0.2978450655937195,0.03,0.23358695209026337,0.03,0.4248741567134857,0.03
1700650665449951518,body,449878570,1700650665,0.30047720670700073,0.03,0.23125292360782623,0.03,0.423861026763916,0.03
1700650665459926664,body,459864140,1700650665,0.3010565936565399,0.03,0.23078490793704987,0.03,0.42365795373916626,0.03
1700650665469931631,body,469856327,1700650665,0.3001832962036133,0.03,0.2327197641134262,0.03,0.4228883981704712,0.03
1700650665479960644,body,479871464,1700650665,0.29999828338623047,0.03,0.23280216753482819,0.03,0.42299866676330566,0.03
1700650665489930289,body,489849401,1700650665,0.2988107204437256,0.03,0.23361818492412567,0.03,0.4243345260620117,0.03
1700650665499965737,body,499829549,1700650665,0.2997603416442871,0.03,0.231914684176445,0.03,0.42396479845046997,0.03
1700650665509995622,body,509879992,1700650665,0.2994668483734131,0.03,0.23138053715229034,0.03,0.4251576066017151,0.03
1700650665519931991,body,519831097,1700650665,0.29794788360595703,0.03,0.23240913450717926,0.03,0.42624789476394653,0.03
1700650665529961560,body,529861842,1700650665,0.2984362244606018,0.03,0.23221616446971893,0.03,0.4250752627849579,0.03
1700650665539934134,body,539882276,1700650665,0.29896408319473267,0.03,0.23178638517856598,0.03,0.4243267774581909,0.03
1700650665550212885,body,550004469,1700650665,0.29959458112716675,0.03,0.2309509664773941,0.03,0.4245646595954895,0.03
1700650665559920940,body,559856584,1700650665,0.2996416687965393,0.03,0.23078323900699615,0.03,0.42532849311828613,0.03
1700650665569927745,body,569860415,1700650665,0.03,0.03,0.2881235182285309,0.03,0.9436006546020508,0.03
1700650665580090012,body,579953890,1700650665,0.03,0.03,0.2874305844306946,0.03,0.9425619840621948,0.03
1700650665589949916,body,589880255,1700650665,0.03,0.03,0.28745198249816895,0.03,0.9417311549186707,0.03
1700650665600048401,body,599940854,1700650665,0.03,0.03,0.2888931334018707,0.03,0.9407914876937866,0.03
1700650665609921483,body,609866593,1700650665,0.03,0.03,0.28876498341560364,0.03,0.940742015838623,0.03
1700650665619928431,body,619859882,1700650665,0.03,0.03,0.289257287979126,0.03,0.9410057067871094,0.03
1700650665629919098,body,629858969,1700650665,0.03,0.03,0.2908673882484436,0.03,0.9421811103820801,0.03
1700650665639939821,body,639857175,1700650665,0.03,0.03,0.29036077857017517,0.03,0.9428165555000305,0.03
1700650665650086804,body,649887395,1700650665,0.03,0.03,0.28951624035835266,0.03,0.9417667388916016,0.03
1700650665659920711,body,659854305,1700650665,0.03,0.03,0.2893008887767792,0.03,0.9413999915122986,0.03
1700650665669951222,body,669877246,1700650665,0.03,0.03,0.29084333777427673,0.03,0.9418944716453552,0.03
1700650665679951662,body,679868694,1700650665,0.03,0.03,0.2908134460449219,0.03,0.942094087600708,0.03
1700650665689948649,body,689884775,1700650665,0.03,0.03,0.2906683683395386,0.03,0.942367672920227,0.03
1700650665699988423,body,699896823,1700650665,0.03,0.03,0.2885510325431824,0.03,0.9410564303398132,0.03
1700650665709976082,body,709894254,1700650665,0.03,0.03,0.28850165009498596,0.03,0.941423773765564,0.03
1700650665719919164,body,719865067,1700650665,0.03,0.03,0.28919628262519836,0.03,0.941123366355896,0.03
1700650665729933117,body,729867076,1700650665,0.03,0.03,0.28838202357292175,0.03,0.9411603808403015,0.03
1700650665740160756,body,740009992,1700650665,0.03,0.03,0.2883416712284088,0.03,0.9419660568237305,0.03
1700650665749980721,body,749866810,1700650665,0.03,0.03,0.2891766130924225,0.03,0.9423313140869141,0.03
1700650665760902805,body,760315632,1700650665,0.03,0.03,0.2891753017902374,0.03,0.9424228072166443,0.03
1700650665770159849,body,769929194,1700650665,0.8784447312355042,0.03,0.4842771589756012,0.03,0.5665603876113892,0.03
1700650665780069857,body,779918681,1700650665,0.8791153430938721,0.03,0.4840116500854492,0.03,0.5663539171218872,0.03
1700650665789989767,body,789890776,1700650665,0.8805432319641113,0.03,0.48399296402931213,0.03,0.5650925040245056,0.03
1700650665799921455,body,799843684,1700650665,0.8798712491989136,0.03,0.4856403172016144,0.03,0.564356803894043,0.03
1700650665810456336,body,809977980,1700650665,0.8802282810211182,0.03,0.48565518856048584,0.03,0.5640690326690674,0.03
1700650665820031911,body,819897531,1700650665,0.8787344098091125,0.03,0.4858591556549072,0.03,0.5650200843811035,0.03
1700650665829935025,body,829866861,1700650665,0.8793450593948364,0.03,0.4855716824531555,0.03,0.5652289390563965,0.03
1700650665839992906,body,839870636,1700650665,0.8769325017929077,0.03,0.48764318227767944,0.03,0.5669100284576416,0.03
1700650665850013959,body,849933034,1700650665,0.8768946528434753,0.03,0.48731115460395813,0.03,0.5662320852279663,0.03
1700650665859955807,body,859864137,1700650665,0.8808339834213257,0.03,0.4840116500854492,0.03,0.5649687051773071,0.03
1700650665869945499,body,869862377,1700650665,0.880171537399292,0.03,0.4842519760131836,0.03,0.5661269426345825,0.03
1700650665879987035,body,879879300,1700650665,0.880237340927124,0.03,0.4833116829395294,0.03,0.5658551454544067,0.03
1700650665890004561,body,889899440,1700650665,0.8805123567581177,0.03,0.4832163155078888,0.03,0.5657984614372253,0.03
1700650665899989117,body,899903170,1700650665,0.8776227235794067,0.03,0.4854137897491455,0.03,0.5662369728088379,0.03
1700650665909982266,body,909888988,1700650665,0.8791225552558899,0.03,0.4843580424785614,0.03,0.5659016966819763,0.03
1700650665920046964,body,919897143,1700650665,0.8794994950294495,0.03,0.4836961328983307,0.03,0.5662112832069397,0.03
1700650665930003043,body,929889697,1700650665,0.8790308237075806,0.03,0.4840601682662964,0.03,0.5661848783493042,0.03
1700650665939983317,body,939892767,1700650665,0.8795472979545593,0.03,0.4837324917316437,0.03,0.566271185874939,0.03
1700650665950069524,body,949948324,1700650665,0.8778079152107239,0.03,0.48554205894470215,0.03,0.5670391321182251,0.03
1700650665959954109,body,959875400,1700650665,0.8774003386497498,0.03,0.48657870292663574,0.03,0.5666712522506714,0.03
1700650665969983645,body,969865521,1700650665,0.8786391019821167,0.03,0.485730916261673,0.03,0.5650309324264526,0.03
1700650665979965792,body,979879650,1700650665,0.03,0.35986611247062683,0.43938297033309937,0.03,0.03,0.5565596222877502
1700650665989945336,body,989876350,1700650665,0.03,0.36169523000717163,0.44039660692214966,0.03,0.03,0.554684042930603
1700650665999945608,body,999878113,1700650665,0.03,0.35918357968330383,0.4380587339401245,0.03,0.03,0.5561769008636475
1700650666009946586,body,9873276,1700650666,0.03,0.35877323150634766,0.437532514333725,0.03,0.03,0.5559595227241516
1700650666019932612,body,19877314,1700650666,0.03,0.3595575988292694,0.4380249083042145,0.03,0.03,0.555693507194519
1700650666030177219,body,30006266,1700650666,0.03,0.3611856698989868,0.4400261342525482,0.03,0.03,0.5548551082611084
1700650666039888965,body,39806779,1700650666,0.03,0.36060798168182373,0.4393974542617798,0.03,0.03,0.555910587310791
1700650666049944766,body,49887263,1700650666,0.03,0.3602747917175293,0.4392550587654114,0.03,0.03,0.5560454726219177
1700650666060019467,body,59887259,1700650666,0.03,0.36086010932922363,0.4393899738788605,0.03,0.03,0.5553522109985352
1700650666069959881,body,69876103,1700650666,0.03,0.36005985736846924,0.43825235962867737,0.03,0.03,0.5554163455963135
1700650666080012523,body,79920636,1700650666,0.03,0.3610000014305115,0.43863311409950256,0.03,0.03,0.5539875030517578
1700650666089938324,body,89859304,1700650666,0.03,0.3607175350189209,0.43843021988868713,0.03,0.03,0.5550222992897034
1700650666099979212,body,99905471,1700650666,0.03,0.3610958456993103,0.44023242592811584,0.03,0.03,0.5553808808326721
1700650666109940924,body,109872845,1700650666,0.03,0.36093002557754517,0.44006282091140747,0.03,0.03,0.5567648410797119
1700650666120032962,body,119919227,1700650666,0.03,0.36047646403312683,0.43967413902282715,0.03,0.03,0.5564177632331848
1700650666129983974,body,129910851,1700650666,0.03,0.3609939217567444,0.4391365945339203,0.03,0.03,0.5558226108551025
1700650666139935362,body,139848540,1700650666,0.03,0.3595723509788513,0.4380806088447571,0.03,0.03,0.5558704137802124
1700650666150027993,body,149899231,1700650666,0.03,0.3598901033401489,0.4380595088005066,0.03,0.03,0.5555739998817444
1700650666159967080,body,159874237,1700650666,0.03,0.3602635860443115,0.43807515501976013,0.03,0.03,0.554992139339447
1700650666169932504,body,169869751,1700650666,0.03,0.36192598938941956,0.4396286904811859,0.03,0.03,0.5544000267982483
1700650666179983583,body,179869868,1700650666,0.03,0.3617748022079468,0.44056135416030884,0.03,0.03,0.5547376871109009
1700650666189984352,body,189877231,1700650666,0.03,0.19835294783115387,0.03,0.3123933970928192,0.7043002247810364,0.03
1700650666199981025,body,199905991,1700650666,0.03,0.19798041880130768,0.03,0.31315603852272034,0.7049878239631653,0.03
1700650666209934476,body,209850266,1700650666,0.03,0.19761642813682556,0.03,0.31349852681159973,0.7050087451934814,0.03
1700650666220204638,body,220013196,1700650666,0.03,0.19892644882202148,0.03,0.31180304288864136,0.705815851688385,0.03
1700650666229927499,body,229861741,1700650666,0.03,0.19971893727779388,0.03,0.31130263209342957,0.7060952186584473,0.03
1700650666239978983,body,239883503,1700650666,0.03,0.20005640387535095,0.03,0.3113396465778351,0.7065643072128296,0.03
1700650666250018546,body,249880565,1700650666,0.03,0.198845773935318,0.03,0.3125227689743042,0.7051235437393188,0.03
1700650666259957395,body,259887757,1700650666,0.03,0.19710563123226166,0.03,0.3140634596347809,0.7049261331558228,0.03
1700650666269953445,body,269859801,1700650666,0.03,0.1984310746192932,0.03,0.3128894865512848,0.7057608962059021,0.03
1700650666279929456,body,279870030,1700650666,0.03,0.19749656319618225,0.03,0.31319496035575867,0.7044589519500732,0.03
1700650666289974501,body,289891961,1700650666,0.03,0.19940824806690216,0.03,0.3114060163497925,0.7053632140159607,0.03
1700650666299948099,body,299874778,1700650666,0.03,0.1989874392747879,0.03,0.31218111515045166,0.7045724987983704,0.03
1700650666309935732,body,309867722,1700650666,0.03,0.19751296937465668,0.03,0.3128579556941986,0.7045817971229553,0.03
1700650666320004650,body,319921982,1700650666,0.03,0.19812636077404022,0.03,0.3124749958515167,0.7049871683120728,0.03
1700650666329938249,body,329854549,1700650666,0.03,0.1982366442680359,0.03,0.31283479928970337,0.7053244709968567,0.03
1700650666339915416,body,339856599,1700650666,0.03,0.19859710335731506,0.03,0.31229931116104126,0.7045618295669556,0.03
1700650666350140470,body,350000762,1700650666,0.03,0.19817686080932617,0.03,0.3122596740722656,0.7040661573410034,0.03
1700650666360008845,body,359894508,1700650666,0.03,0.19835568964481354,0.03,0.3124117851257324,0.7039809823036194,0.03
1700650666369935842,body,369849031,1700650666,0.03,0.19724927842617035,0.03,0.31296300888061523,0.7037128806114197,0.03
1700650666379940781,body,379882263,1700650666,0.03,0.19799409806728363,0.03,0.3128044307231903,0.704404890537262,0.03
1700650666389951106,body,389877140,1700650666,0.03,0.1972082555294037,0.03,0.3139212429523468,0.7050309777259827,0.03
1700650666399947785,body,399871546,1700650666,0.03,0.33648616075515747,0.10901768505573273,0.03,0.03,0.37280014157295227
1700650666410100383,body,409899583,1700650666,0.03,0.3370462954044342,0.10902108252048492,0.03,0.03,0.3735796809196472
1700650666419965000,body,419870429,1700650666,0.03,0.33633750677108765,0.10889051854610443,0.03,0.03,0.37408459186553955
1700650666429967378,body,429895268,1700650666,0.03,0.3367132544517517,0.10927249491214752,0.03,0.03,0.37384921312332153
1700650666440019775,body,439925241,1700650666,0.03,0.33628642559051514,0.10903127491474152,0.03,0.03,0.3741047978401184
1700650666449963859,body,449900285,1700650666,0.03,0.3362341523170471,0.10873346030712128,0.03,0.03,0.37368378043174744
1700650666460517870,body,460223411,1700650666,0.03,0.3370131850242615,0.10898305475711823,0.03,0.03,0.37338221073150635
1700650666469979693,body,469896714,1700650666,0.03,0.33547431230545044,0.10733707249164581,0.03,0.03,0.37354299426078796
1700650666479962661,body,479894586,1700650666,0.03,0.33662939071655273,0.10853616893291473,0.03,0.03,0.3732577860355377
1700650666489872740,body,489814262,1700650666,0.03,0.33538299798965454,0.10780520737171173,0.03,0.03,0.37404727935791016
1700650666499964863,body,499896151,1700650666,0.03,0.3354147672653198,0.10848726332187653,0.03,0.03,0.37465596199035645
1700650666509989396,body,509913938,1700650666,0.03,0.33607614040374756,0.10939528048038483,0.03,0.03,0.3746808171272278
1700650666519943036,body,519877098,1700650666,0.03,0.3367001414299011,0.10945780575275421,0.03,0.03,0.37418678402900696
1700650666529896941,body,529817764,1700650666,0.03,0.33812201023101807,0.11034436523914337,0.03,0.03,0.3727172315120697
1700650666539981959,body,539877701,1700650666,0.03,0.33686286211013794,0.10863529145717621,0.03,0.03,0.3733501434326172
1700650666550001742,body,549890100,1700650666,0.03,0.33698898553848267,0.10924161970615387,0.03,0.03,0.3727297782897949
1700650666559992131,body,559837714,1700650666,0.03,0.3368775248527527,0.1096327155828476,0.03,0.03,0.3731651306152344
1700650666570144912,body,569924038,1700650666,0.03,0.3367968201637268,0.10964520275592804,0.03,0.03,0.3745473325252533
1700650666580018886,body,579927419,1700650666,0.03,0.33618801832199097,0.10956554114818573,0.03,0.03,0.3747723400592804
1700650666589950467,body,589863184,1700650666,0.03,0.3370647132396698,0.11031873524188995,0.03,0.03,0.3736552894115448
1700650666599971568,body,599895674,1700650666,0.03,0.41239145398139954,1.0,0.03,0.03,0.23220591247081757
1700650666609953486,body,609880242,1700650666,0.03,0.41164201498031616,1.0,0.03,0.03,0.2328292429447174
1700650666619943616,body,619869013,1700650666,0.03,0.41281062364578247,1.0,0.03,0.03,0.23289349675178528
1700650666629958476,body,629887228,1700650666,0.03,0.41190093755722046,1.0,0.03,0.03,0.2324880063533783
1700650666639935502,body,639836590,1700650666,0.03,0.41370928287506104,1.0,0.03,0.03,0.23248957097530365
1700650666649936290,body,649865239,1700650666,0.03,0.4126088619232178,1.0,0.03,0.03,0.23325090110301971
1700650666659949279,body,659864235,1700650666,0.03,0.41365277767181396,1.0,0.03,0.03,0.23276282846927643
1700650666669983210,body,669864103,1700650666,0.03,0.4129694700241089,1.0,0.03,0.03,0.23190689086914062
1700650666679975385,body,679890161,1700650666,0.03,0.41262710094451904,1.0,0.03,0.03,0.2317838817834854
1700650666689961387,body,689854945,1700650666,0.03,0.414076566696167,1.0,0.03,0.03,0.22998163104057312
1700650666700032620,body,699926512,1700650666,0.03,0.4140559434890747,1.0,0.03,0.03,0.2310459464788437
1700650666709934090,body,709822777,1700650666,0.03,0.41280481219291687,1.0,0.03,0.03,0.2312486171722412
1700650666719924605,body,719832292,1700650666,0.03,0.4110286831855774,1.0,0.03,0.03,0.23488280177116394
1700650666729982875,body,729897550,1700650666,0.03,0.4167727828025818,1.0,0.03,0.03,0.2324541062116623
1700650666740007270,body,739907094,1700650666,0.03,0.41371604800224304,1.0,0.03,0.03,0.23094850778579712
1700650666749928016,body,749872139,1700650666,0.03,0.4128624200820923,1.0,0.03,0.03,0.2306033968925476
1700650666759955646,body,759880148,1700650666,0.03,0.41677623987197876,1.0,0.03,0.03,0.2281884104013443
1700650666769954028,body,769878436,1700650666,0.03,0.4116079807281494,1.0,0.03,0.03,0.22949111461639404
1700650666779955658,body,779871873,1700650666,0.03,0.4098801612854004,1.0,0.03,0.03,0.22917824983596802
1700650666789920577,body,789861564,1700650666,0.03,0.4080389440059662,1.0,0.03,0.03,0.23018640279769897
1700650666799941436,body,799870756,1700650666,0.03,0.40947282314300537,1.0,0.03,0.03,0.22412623465061188
1700650666809978519,body,809881523,1700650666,0.23574486374855042,0.03,0.7908964157104492,0.03,0.4113861322402954,0.03
1700650666819938343,body,819868703,1700650666,0.2397811859846115,0.03,0.7954497337341309,0.03,0.4037637710571289,0.03
1700650666829999084,body,829879120,1700650666,0.2390323132276535,0.03,0.7960581183433533,0.03,0.40444833040237427,0.03
1700650666839976388,body,839875019,1700650666,0.23731498420238495,0.03,0.7981942892074585,0.03,0.4028852880001068,0.03
1700650666849949655,body,849870837,1700650666,0.23511552810668945,0.03,0.8032646179199219,0.03,0.40025728940963745,0.03
1700650666859984754,body,859887044,1700650666,0.22647519409656525,0.03,0.8125321269035339,0.03,0.3988730311393738,0.03
1700650666869933570,body,869859616,1700650666,0.2308996170759201,0.03,0.8127571940422058,0.03,0.3954782485961914,0.03
1700650666879940945,body,879870644,1700650666,0.23103445768356323,0.03,0.8153715133666992,0.03,0.3934825658798218,0.03
1700650666889979961,body,889901714,1700650666,0.23467329144477844,0.03,0.8108119964599609,0.03,0.3941311836242676,0.03
1700650666899945564,body,899863333,1700650666,0.23263691365718842,0.03,0.8102471828460693,0.03,0.39861106872558594,0.03
1700650666909953220,body,909887569,1700650666,0.2317291498184204,0.03,0.8084089756011963,0.03,0.40035581588745117,0.03
1700650666919958355,body,919875833,1700650666,0.2313060462474823,0.03,0.7990072965621948,0.03,0.40736642479896545,0.03
1700650666929937954,body,929859615,1700650666,0.22400525212287903,0.03,0.7546312808990479,0.03,0.41275033354759216,0.03
1700650666939931128,body,939860508,1700650666,0.22059302031993866,0.03,0.6858310699462891,0.03,0.41016799211502075,0.03
1700650666949941455,body,949871257,1700650666,0.21237115561962128,0.03,0.4711482524871826,0.03,0.4000493288040161,0.03
1700650666960080151,body,959945051,1700650666,0.1988779902458191,0.03,0.3624555468559265,0.03,0.3942919373512268,0.03
1700650666970044104,body,969952324,1700650666,0.16286751627922058,0.03,0.27257493138313293,0.03,0.3884086608886719,0.03
1700650666979963494,body,979837716,1700650666,0.12077900767326355,0.03,0.19134053587913513,0.03,0.3722880482673645,0.03
1700650666990613391,body,990334790,1700650666,0.051064491271972656,0.03,0.12860038876533508,0.03,0.3621022701263428,0.03
1700650667000260012,body,123286,1700650667,0.03,0.05352563038468361,0.07947129011154175,0.03,0.35308733582496643,0.03
1700650667010023391,body,9916197,1700650667,0.03,0.4718070924282074,0.03,0.268624871969223,0.17430225014686584,0.03
1700650667020507485,body,20065205,1700650667,0.03,0.5378051996231079,0.03,0.2955034673213959,0.15900926291942596,0.03
1700650667030063493,body,29862238,1700650667,0.03,0.5840282440185547,0.03,0.3113041818141937,0.13419002294540405,0.03
1700650667039973915,body,39891025,1700650667,0.03,0.6273127794265747,0.03,0.3199203312397003,0.1158803403377533,0.03
1700650667050126943,body,49874861,1700650667,0.03,0.7000244855880737,0.03,0.31065747141838074,0.12543343007564545,0.03
1700650667060111564,body,59939687,1700650667,0.03,0.7438816428184509,0.03,0.30394741892814636,0.12355725467205048,0.03
1700650667070225314,body,70011122,1700650667,0.03,0.7742167115211487,0.03,0.2914125621318817,0.12639261782169342,0.03
1700650667080022302,body,79927211,1700650667,0.03,0.8071328401565552,0.03,0.2760590612888336,0.1274762898683548,0.03
1700650667090072167,body,89882706,1700650667,0.03,0.8211578130722046,0.03,0.24668514728546143,0.10855041444301605,0.03
1700650667100024087,body,99895027,1700650667,0.03,0.8058202266693115,0.03,0.22695276141166687,0.10240855813026428,0.03
1700650667109960071,body,109882329,1700650667,0.03,0.8060523271560669,0.03,0.22012829780578613,0.07991208881139755,0.03
1700650667120103881,body,119921175,1700650667,0.03,0.767838716506958,0.03,0.20611435174942017,0.07690443843603134,0.03
1700650667130061970,body,129926899,1700650667,0.03,0.7500320672988892,0.03,0.17095819115638733,0.10123603045940399,0.03
1700650667139946124,body,139874654,1700650667,0.03,0.736656904220581,0.03,0.1564796268939972,0.1013965755701065,0.03
1700650667150647101,body,150129485,1700650667,0.03,0.6684803366661072,0.03,0.125244140625,0.09950496256351471,0.03
1700650667159999353,body,159911641,1700650667,0.03,0.6192944049835205,0.03,0.11005103588104248,0.09744800627231598,0.03
1700650667170094650,body,169931729,1700650667,0.03,0.5674763917922974,0.03,0.0965038537979126,0.09073343127965927,0.03
1700650667180002634,body,179897583,1700650667,0.03,0.5059628486633301,0.03,0.08788281679153442,0.12808148562908173,0.03
1700650667190145254,body,189898042,1700650667,0.03,0.4484924077987671,0.03,0.08015593886375427,0.1410398632287979,0.03
1700650667200064170,body,199952421,1700650667,0.03,0.362886905670166,0.03,0.07010319828987122,0.15152320265769958,0.03
1700650667210090779,body,209921012,1700650667,0.05840647220611572,0.03,0.472715824842453,0.03,0.03,0.21869030594825745
1700650667220213303,body,219960416,1700650667,0.12433371692895889,0.03,0.4780993163585663,0.03,0.03,0.21774336695671082
1700650667230020184,body,229917662,1700650667,0.17767080664634705,0.03,0.47958725690841675,0.03,0.03,0.21915864944458008
1700650667239984633,body,239841724,1700650667,0.2214083969593048,0.03,0.46544942259788513,0.03,0.03,0.2141059786081314
1700650667250150122,body,249918608,1700650667,0.23171010613441467,0.03,0.46013543009757996,0.03,0.03,0.20041650533676147
1700650667259976936,body,259893084,1700650667,0.2531115412712097,0.03,0.4496786296367645,0.03,0.03,0.1889774203300476
1700650667269971235,body,269887147,1700650667,0.24175018072128296,0.03,0.4453844428062439,0.03,0.03,0.17978064715862274
1700650667280286904,body,279989949,1700650667,0.2439977526664734,0.03,0.43158912658691406,0.03,0.03,0.1616547852754593
1700650667290152835,body,289918231,1700650667,0.24138861894607544,0.03,0.4160762429237366,0.03,0.03,0.15252280235290527
1700650667300118961,body,299984701,1700650667,0.22263702750205994,0.03,0.3856256306171417,0.03,0.03,0.12663589417934418
1700650667309965892,body,309876528,1700650667,0.21087777614593506,0.03,0.3595312833786011,0.03,0.03,0.11370433866977692
1700650667319946565,body,319872984,1700650667,0.20166033506393433,0.03,0.3336889147758484,0.03,0.03,0.09592805802822113
1700650667329982717,body,329882919,1700650667,0.1825524866580963,0.03,0.2962550222873688,0.03,0.03,0.08810125291347504
1700650667340176258,body,339976581,1700650667,0.16214945912361145,0.03,0.26848942041397095,0.03,0.03,0.07700610160827637
1700650667349965433,body,349878494,1700650667,0.12626001238822937,0.03,0.2406408190727234,0.03,0.03,0.05537378787994385
1700650667359958997,body,359872327,1700650667,0.08226849138736725,0.03,0.21776920557022095,0.03,0.03,0.040205180644989014
1700650667369949855,body,369862212,1700650667,0.03,0.03,0.20545423030853271,0.03,0.03,0.03370922803878784
1700650667379949885,body,379863714,1700650667,0.03,0.052618607878685,0.18518275022506714,0.03,0.03,0.03
1700650667389940041,body,389870018,1700650667,0.03,0.1101149469614029,0.17537719011306763,0.03,0.03,0.03
1700650667400071925,body,399877590,1700650667,0.03,0.13951072096824646,0.15492165088653564,0.03,0.03,0.03
1700650667409967221,body,409878746,1700650667,0.03,0.1783944070339203,0.14178848266601562,0.03,0.03,0.03
1700650667420022240,body,419883028,1700650667,0.21255619823932648,0.03,0.03,0.5727304816246033,0.8021935224533081,0.03
1700650667429949785,body,429877781,1700650667,0.1768791675567627,0.03,0.03,0.566399097442627,0.8044482469558716,0.03
1700650667439976304,body,439898218,1700650667,0.1403750479221344,0.03,0.03,0.5725350975990295,0.8244211673736572,0.03
1700650667450025322,body,449941472,1700650667,0.114402174949646,0.03,0.03,0.5817216038703918,0.8505783081054688,0.03
1700650667459952129,body,459889902,1700650667,0.08041462302207947,0.03,0.03,0.5808453559875488,0.8736374378204346,0.03
1700650667469965536,body,469890059,1700650667,0.04843065142631531,0.03,0.03,0.573279619216919,0.883064329624176,0.03
1700650667479997280,body,479889076,1700650667,0.03,0.03,0.03,0.5574815273284912,0.8794801235198975,0.03
1700650667490003660,body,489878256,1700650667,0.03,0.03,0.03,0.5304887890815735,0.862728476524353,0.03
1700650667500054259,body,499887677,1700650667,0.03,0.04267969727516174,0.03,0.49606090784072876,0.8227434158325195,0.03
1700650667509909884,body,509821528,1700650667,0.03,0.06430032849311829,0.03,0.4630054235458374,0.7802491188049316,0.03
1700650667519935836,body,519858221,1700650667,0.03,0.09087452292442322,0.03,0.4109441339969635,0.7170398235321045,0.03
1700650667529943518,body,529859326,1700650667,0.03,0.11326512694358826,0.03,0.3652794063091278,0.642930805683136,0.03
1700650667539946222,body,539883364,1700650667,0.03,0.12853655219078064,0.03,0.31871700286865234,0.5488749742507935,0.03
1700650667549987039,body,549904082,1700650667,0.03,0.13961568474769592,0.03,0.26537859439849854,0.3406456410884857,0.03
1700650667559956610,body,559864961,1700650667,0.03,0.13495400547981262,0.03,0.23740023374557495,0.19796247780323029,0.03
1700650667569990152,body,569897715,1700650667,0.03,0.1334613859653473,0.03,0.2076943814754486,0.10275647044181824,0.03
1700650667579937466,body,579848691,1700650667,0.03,0.13873806595802307,0.03,0.17981944978237152,0.03,0.03
1700650667589958456,body,589897961,1700650667,0.03,0.13570258021354675,0.03,0.15840084850788116,0.03,0.04215729236602783
1700650667599911665,body,599821249,1700650667,0.03,0.1320417821407318,0.03,0.11637496948242188,0.03,0.10586240887641907
1700650667609951020,body,609873817,1700650667,0.03,0.13192138075828552,0.03,0.08722159266471863,0.03,0.1414262354373932
1700650667619977305,body,619887601,1700650667,0.03,0.7126563787460327,0.49596667289733887,0.03,0.03,0.951016902923584
1700650667629966740,body,629896620,1700650667,0.03,0.6941900253295898,0.5088464021682739,0.03,0.03,0.9889709949493408
1700650667639972479,body,639867741,1700650667,0.03,0.6763942241668701,0.520097553730011,0.03,0.03,1.0
1700650667649947426,body,649891026,1700650667,0.03,0.6464877724647522,0.47824710607528687,0.03,0.03,1.0
1700650667659948760,body,659873116,1700650667,0.03,0.6132318377494812,0.44205617904663086,0.03,0.03,1.0
1700650667669929993,body,669830664,1700650667,0.03,0.5729478597640991,0.4121122360229492,0.03,0.03,1.0
1700650667679953492,body,679870003,1700650667,0.03,0.5301525592803955,0.3805062770843506,0.03,0.03,1.0
1700650667690043865,body,689957387,1700650667,0.03,0.4780425429344177,0.34510597586631775,0.03,0.03,1.0
1700650667700033967,body,699905197,1700650667,0.03,0.4281500577926636,0.3129843771457672,0.03,0.03,0.9560002088546753
1700650667709985023,body,709879903,1700650667,0.03,0.3797602951526642,0.28494372963905334,0.03,0.03,0.9068044424057007
1700650667719939723,body,719869726,1700650667,0.03,0.3279445767402649,0.25804033875465393,0.03,0.03,0.8464648723602295
1700650667730091888,body,730021540,1700650667,0.03,0.2562527358531952,0.23788562417030334,0.03,0.03,0.7661427855491638
1700650667739942789,body,739863089,1700650667,0.03,0.16867280006408691,0.21733075380325317,0.03,0.03,0.6901722550392151
1700650667749978306,body,749884021,1700650667,0.03,0.09654467552900314,0.20423182845115662,0.03,0.03,0.6008215546607971
1700650667759991249,body,759911898,1700650667,0.03,0.03156241774559021,0.1953963041305542,0.03,0.03,0.4937208592891693
1700650667769932837,body,769861002,1700650667,0.03,0.03,0.18696492910385132,0.03,0.03,0.3362794816493988
1700650667779943192,body,779855417,1700650667,0.05029390752315521,0.03,0.17240434885025024,0.03,0.03,0.22651001811027527
1700650667790026491,body,789920743,1700650667,0.08732955157756805,0.03,0.15826600790023804,0.03,0.03,0.15079975128173828
1700650667799942759,body,799858924,1700650667,0.11868491768836975,0.03,0.1474114954471588,0.03,0.03,0.09734277427196503
1700650667809961106,body,809873419,1700650667,0.1574048399925232,0.03,0.13356921076774597,0.03,0.03,0.05455753207206726
1700650667820058322,body,819929283,1700650667,0.11242780089378357,0.03,0.03,0.03,1.0,0.03
1700650667829957831,body,829869405,1700650667,0.1421307921409607,0.03,0.03,0.03,1.0,0.03
1700650667839924020,body,839860867,1700650667,0.17471632361412048,0.03,0.03,0.03473693132400513,1.0,0.03
1700650667849991625,body,849876363,1700650667,0.20182079076766968,0.03,0.03,0.04634124040603638,1.0,0.03
1700650667859976376,body,859891655,1700650667,0.2434333860874176,0.03,0.03,0.05532950162887573,1.0,0.03
1700650667869976825,body,869894578,1700650667,0.27199870347976685,0.03,0.03,0.060455381870269775,1.0,0.03
1700650667880012624,body,879889569,1700650667,0.2972513437271118,0.03,0.03,0.057107388973236084,0.993524432182312,0.03
1700650667889985655,body,889892288,1700650667,0.32500606775283813,0.03,0.03,0.0530015230178833,0.9585949182510376,0.03
1700650667899961957,body,899869343,1700650667,0.3446030020713806,0.03,0.03,0.054459989070892334,0.903508722782135,0.03
1700650667909925239,body,909852880,1700650667,0.37061232328414917,0.03,0.03,0.04817819595336914,0.8387490510940552,0.03
1700650667919970293,body,919890805,1700650667,0.38317131996154785,0.03,0.03,0.03,0.7364217042922974,0.03
1700650667929971275,body,929890868,1700650667,0.39167505502700806,0.03,0.03,0.03,0.5519581437110901,0.03
1700650667939936491,body,939870422,1700650667,0.4043421745300293,0.03,0.03,0.03,0.42713984847068787,0.03
1700650667949966995,body,949871090,1700650667,0.40935105085372925,0.03,0.03,0.03160065412521362,0.3376299738883972,0.03
1700650667959961173,body,959877594,1700650667,0.4100223779678345,0.03,0.03,0.05516707897186279,0.2525845766067505,0.03
1700650667969946175,body,969869550,1700650667,0.4074406027793884,0.03,0.03,0.06431663036346436,0.18531277775764465,0.03
1700650667979969781,body,979886546,1700650667,0.3998689651489258,0.03,0.03,0.08848392963409424,0.13290482759475708,0.03
1700650667989968353,body,989880008,1700650667,0.38848036527633667,0.03,0.03,0.11405336856842041,0.098549485206604,0.03
1700650667999922125,body,999857236,1700650667,0.37502098083496094,0.03,0.03,0.1380797028541565,0.07731527090072632,0.03
1700650668009947932,body,9870912,1700650668,0.3532050848007202,0.03,0.03,0.17786765098571777,0.07640951871871948,0.03
1700650668020071122,body,19905165,1700650668,0.33711785078048706,0.03,0.03,0.21625745296478271,0.08160734176635742,0.03
1700650668029922366,body,29860919,1700650668,0.03,0.13337498903274536,0.03,0.03,0.03,0.5354867577552795
1700650668039957042,body,39871162,1700650668,0.03,0.15553396940231323,0.03,0.06735199689865112,0.03,0.5093878507614136
1700650668050026080,body,49900180,1700650668,0.03,0.18203669786453247,0.03,0.08650213479995728,0.03,0.48058387637138367
1700650668059897143,body,59822590,1700650668,0.03,0.2101363241672516,0.03,0.1126367449760437,0.03,0.45351096987724304
1700650668069937342,body,69869003,1700650668,0.03,0.22688281536102295,0.03,0.1353399157524109,0.03,0.4206441044807434
1700650668079956016,body,79885207,1700650668,0.03,0.24931278824806213,0.03,0.1597798466682434,0.03,0.38108009099960327
1700650668089943275,body,89882824,1700650668,0.03,0.26762905716896057,0.03,0.1839766502380371,0.03,0.33921313285827637
1700650668099947367,body,99878098,1700650668,0.03,0.28100401163101196,0.03,0.20782190561294556,0.03,0.2776065766811371
1700650668109949736,body,109886888,1700650668,0.03,0.29712793231010437,0.03,0.22864031791687012,0.03,0.21395573019981384
1700650668119983663,body,119915145,1700650668,0.03,0.30840057134628296,0.03,0.24598079919815063,0.03,0.13258904218673706
1700650668130038152,body,129890658,1700650668,0.03,0.3328583240509033,0.03,0.2510625720024109,0.03,0.03292369842529297
1700650668140010075,body,139877270,1700650668,0.03,0.3597520589828491,0.03,0.2510625720024109,0.09289960563182831,0.03
1700650668149937628,body,149878549,1700650668,0.03,0.37012478709220886,0.03,0.2510625720024109,0.1682645082473755,0.03
1700650668159942852,body,159862857,1700650668,0.03,0.3825432062149048,0.03,0.2510625720024109,0.22316652536392212,0.03
1700650668169956953,body,169888371,1700650668,0.03,0.3974209427833557,0.03,0.2510625720024109,0.27312955260276794,0.03
1700650668179925055,body,179862161,1700650668,0.03,0.3974698781967163,0.03,0.2510625720024109,0.31120309233665466,0.03
1700650668189958999,body,189850734,1700650668,0.03,0.39734041690826416,0.03,0.2510625720024109,0.33825111389160156,0.03
1700650668199940468,body,199825286,1700650668,0.03,0.3953460454940796,0.03,0.2510625720024109,0.3624029755592346,0.03
1700650668209920073,body,209868417,1700650668,0.03,0.39280569553375244,0.03,0.2510625720024109,0.38581323623657227,0.03
1700650668219976396,body,219876153,1700650668,0.03,0.382330060005188,0.03,0.2510625720024109,0.39869624376296997,0.03
1700650668229905988,body,229846055,1700650668,0.03,0.3799474835395813,0.03,0.2510625720024109,0.41300448775291443,0.03
1700650668239957718,body,239882406,1700650668,0.03,0.33512023091316223,0.03,1.0,0.634871780872345,0.03
1700650668250060449,body,249934867,1700650668,0.03,0.3284265995025635,0.03,1.0,0.6381121873855591,0.03
1700650668259931071,body,259845840,1700650668,0.03,0.3104960322380066,0.03,1.0,0.6399859189987183,0.03
1700650668269964498,body,269878358,1700650668,0.03,0.2931644916534424,0.03,1.0,0.6300944089889526,0.03
1700650668279937122,body,279872450,1700650668,0.03,0.2754797339439392,0.03,1.0,0.6169273853302002,0.03
1700650668289941840,body,289849039,1700650668,0.03,0.2523384094238281,0.03,1.0,0.6056976318359375,0.03
1700650668299912968,body,299831955,1700650668,0.03,0.2242434322834015,0.03,1.0,0.5743459463119507,0.03
1700650668309931555,body,309859714,1700650668,0.03,0.211514413356781,0.03,1.0,0.5248458981513977,0.03
1700650668319942784,body,319870708,1700650668,0.03,0.19629424810409546,0.03,1.0,0.4639294743537903,0.03
1700650668329971788,body,329889109,1700650668,0.03,0.177491694688797,0.03,1.0,0.3767668902873993,0.03
1700650668339963969,body,339874147,1700650668,0.03,0.15775883197784424,0.03,1.0,0.27755430340766907,0.03
1700650668349930695,body,349873262,1700650668,0.03,0.1371859908103943,0.03,1.0,0.12888629734516144,0.03
1700650668359920927,body,359850460,1700650668,0.03,0.11393088102340698,0.03,1.0,0.03716959059238434,0.03
1700650668370128195,body,369998316,1700650668,0.03,0.09645533561706543,0.03,0.9887157082557678,0.03,0.03
1700650668379938450,body,379868803,1700650668,0.03,0.08643609285354614,0.03,0.891670823097229,0.03,0.08592325448989868
1700650668389918308,body,389853531,1700650668,0.03,0.08514362573623657,0.03,0.7772002220153809,0.03,0.12925764918327332
1700650668399980555,body,399873705,1700650668,0.03,0.08440613746643066,0.03,0.6061696410179138,0.03,0.16559088230133057
1700650668409949696,body,409861399,1700650668,0.03,0.10033619403839111,0.03,0.3033381700515747,0.03,0.19583284854888916
1700650668419972521,body,419871446,1700650668,0.03,0.1347838044166565,0.03,0.13617652654647827,0.03,0.20632928609848022
1700650668429988866,body,429908902,1700650668,0.03,0.17005950212478638,0.03,0.03,0.03,0.20772892236709595
1700650668439951920,body,439885998,1700650668,1.0,0.03,0.34344056248664856,0.03,0.03,1.0
1700650668449940149,body,449871430,1700650668,1.0,0.03,0.42111900448799133,0.03,0.03,1.0
1700650668460166238,body,459981893,1700650668,0.9553682804107666,0.03,0.48946258425712585,0.03,0.03,1.0
1700650668469921772,body,469833293,1700650668,0.893804669380188,0.03,0.5223002433776855,0.03,0.03,1.0
1700650668479930282,body,479854601,1700650668,0.8001719117164612,0.03,0.566336989402771,0.03,0.03,0.9635653495788574
1700650668489938256,body,489868375,1700650668,0.668047308921814,0.03,0.5967921018600464,0.03,0.03,0.8209939002990723
1700650668499942793,body,499863549,1700650668,0.49040210247039795,0.03,0.5882710218429565,0.03,0.03,0.562248170375824
1700650668509937238,body,509877245,1700650668,0.36456891894340515,0.03,0.5803459882736206,0.03,0.03,0.38830918073654175
1700650668519981262,body,519888406,1700650668,0.26011013984680176,0.03,0.5411158800125122,0.03,0.03,0.22062572836875916
1700650668529962397,body,529883391,1700650668,0.2058379352092743,0.03,0.4741925895214081,0.03,0.03,0.0702672004699707
1700650668539939468,body,539853793,1700650668,0.18183180689811707,0.03,0.3908359110355377,0.03,0.07668769359588623,0.03
1700650668549929461,body,549856560,1700650668,0.16904279589653015,0.03,0.2958305776119232,0.03,0.1980987787246704,0.03
1700650668559942326,body,559874028,1700650668,0.20360898971557617,0.03,0.18397963047027588,0.03,0.2726741433143616,0.03
1700650668569917736,body,569830806,1700650668,0.2799329459667206,0.03,0.06715419888496399,0.03,0.2726741433143616,0.03
1700650668580182032,body,579914486,1700650668,0.3341767489910126,0.03,0.03,0.04730309545993805,0.2726741433143616,0.03
1700650668590037152,body,589890111,1700650668,0.40873944759368896,0.03,0.03,0.25423356890678406,0.2726741433143616,0.03
1700650668599919173,body,599833567,1700650668,0.4769895672798157,0.03,0.03,0.3917061388492584,0.2726741433143616,0.03
1700650668609915890,body,609849649,1700650668,0.5654680728912354,0.03,0.03,0.4766829013824463,0.2726741433143616,0.03
1700650668620000709,body,619891383,1700650668,0.664181649684906,0.03,0.03,0.5506129860877991,0.2726741433143616,0.03
1700650668629969565,body,629864983,1700650668,0.759021520614624,0.03,0.03,0.6240756511688232,0.2726741433143616,0.03
1700650668639909176,body,639844416,1700650668,0.8410249948501587,0.03,0.03,0.6985023617744446,0.2726741433143616,0.03
1700650668649990266,body,649886409,1700650668,0.03,0.4792620539665222,0.03,0.5919481515884399,0.27095335721969604,0.03
1700650668659928299,body,659875082,1700650668,0.03,0.411765992641449,0.03,0.6610705852508545,0.27095335721969604,0.03
1700650668669926233,body,669854108,1700650668,0.03,0.36286744475364685,0.03,0.7107148170471191,0.27095335721969604,0.03
1700650668679959528,body,679858428,1700650668,0.03,0.3303318917751312,0.03,0.7479631900787354,0.27095335721969604,0.03
1700650668689927815,body,689858411,1700650668,0.03,0.28077027201652527,0.03,0.7913053631782532,0.27095335721969604,0.03
1700650668699982500,body,699907175,1700650668,0.03,0.22221428155899048,0.03,0.8163580894470215,0.2402951717376709,0.03
1700650668709959052,body,709871928,1700650668,0.03,0.16225385665893555,0.03,0.8031820058822632,0.15419399738311768,0.03
1700650668719984255,body,719902656,1700650668,0.03,0.11099010705947876,0.03,0.7759343981742859,0.07554328441619873,0.03
1700650668729964492,body,729883191,1700650668,0.03,0.03594166040420532,0.03,0.7270860075950623,0.03,0.03
1700650668739974352,body,739876348,1700650668,0.03,0.03,0.03,0.6805922389030457,0.03,0.1005215048789978
1700650668750013793,body,749832390,1700650668,0.08197963237762451,0.03,0.03,0.6193037033081055,0.03,0.19501334428787231
1700650668759939932,body,759874729,1700650668,0.1655522584915161,0.03,0.03,0.5298110842704773,0.03,0.3110821545124054
1700650668769961474,body,769875190,1700650668,0.20203661918640137,0.03,0.03,0.2332802712917328,0.03,0.41759413480758667
1700650668780276261,body,780019993,1700650668,0.20203691720962524,0.03,0.03,0.15186774730682373,0.03,0.5099015831947327
1700650668789931093,body,789870693,1700650668,0.20203691720962524,0.03,0.03,0.04238354042172432,0.03,0.634185791015625
1700650668799916675,body,799849975,1700650668,0.20203691720962524,0.03,0.0747854933142662,0.03,0.03,0.8207334280014038
1700650668809912745,body,809851406,1700650668,0.20203661918640137,0.03,0.23698678612709045,0.03,0.03,0.9247943758964539
1700650668819958750,body,819860364,1700650668,0.17465442419052124,0.03,0.5534647107124329,0.03,0.03,0.9858492612838745
1700650668829927632,body,829855741,1700650668,0.13423466682434082,0.03,0.6587380170822144,0.03,0.03,1.0
1700650668839924315,body,839868385,1700650668,0.03,0.11476212739944458,0.5572974681854248,0.03,0.03,1.0
1700650668849950326,body,849875990,1700650668,0.03,0.18189072608947754,0.6431122422218323,0.03,0.03,1.0
1700650668859933977,body,859872775,1700650668,0.07687687873840332,0.03,1.0,0.03,0.14575234055519104,0.03
1700650668869899297,body,869827791,1700650668,0.03,0.03953811526298523,1.0,0.03,0.2668192684650421,0.03
1700650668879996196,body,879899840,1700650668,0.03,0.15798580646514893,1.0,0.03,0.44068408012390137,0.03
1700650668889928079,body,889855538,1700650668,0.03,0.29304248094558716,1.0,0.03,0.771996259689331,0.03
1700650668899962998,body,899861661,1700650668,0.03,0.4551170766353607,1.0,0.03,0.9825117588043213,0.03
1700650668910072451,body,909870961,1700650668,0.03,0.5427646040916443,1.0,0.03,1.0,0.03
1700650668919944916,body,919857288,1700650668,0.03,0.566418468952179,1.0,0.03,1.0,0.03
1700650668929928921,body,929863515,1700650668,0.03,0.5737273693084717,1.0,0.03,1.0,0.03
1700650668940138399,body,939989036,1700650668,0.03,0.5362322926521301,1.0,0.03,1.0,0.03
1700650668949999115,body,949904355,1700650668,0.03,0.43430405855178833,1.0,0.03,1.0,0.03
1700650668959950018,body,959886145,1700650668,0.03,0.3639555871486664,1.0,0.03,1.0,0.03
1700650668969977622,body,969901981,1700650668,0.03,0.2914164364337921,0.9697861075401306,0.03,1.0,0.03
1700650668979991154,body,979916841,1700650668,0.03,0.22988004982471466,0.7162182331085205,0.03,1.0,0.03
1700650668989963392,body,989852273,1700650668,0.03,0.16373899579048157,0.5693099498748779,0.03,1.0,0.03
1700650668999892949,body,999829700,1700650668,0.03,0.11876147985458374,0.4349718987941742,0.03,1.0,0.03
1700650669009978017,body,9882558,1700650669,0.03,0.0810854434967041,0.340771347284317,0.03,0.9892466068267822,0.03
1700650669019910674,body,19854469,1700650669,0.03,0.05637267231941223,0.2570413649082184,0.03,0.8866603970527649,0.03
1700650669029933494,body,29861934,1700650669,0.03,0.046861499547958374,0.1830194592475891,0.03,0.7849670052528381,0.03
1700650669040047435,body,39930707,1700650669,0.03,0.07543668150901794,0.12529706954956055,0.03,0.6788052916526794,0.03
1700650669050007671,body,49872561,1700650669,0.03,0.09808439016342163,0.0726284384727478,0.03,0.525109052658081,0.03
1700650669059963666,body,59854296,1700650669,0.03,0.11264076828956604,0.03,0.03,0.44393354654312134,0.03
1700650669069981306,body,69901868,1700650669,0.8275877237319946,0.03,0.03,1.0,0.03,0.1927175521850586
1700650669079933461,body,79869752,1700650669,0.8029481768608093,0.03,0.03,1.0,0.03,0.23455390334129333
1700650669089941729,body,89872699,1700650669,0.7583651542663574,0.03,0.03,1.0,0.03,0.2471543252468109
1700650669100078674,body,99906813,1700650669,0.7112118005752563,0.03,0.03,1.0,0.03,0.23070785403251648
1700650669109987291,body,109875657,1700650669,0.6315724849700928,0.03,0.03,1.0,0.03,0.19228267669677734
1700650669119965891,body,119897615,1700650669,0.4908598065376282,0.03,0.03,1.0,0.03,0.13166293501853943
1700650669129947750,body,129869533,1700650669,0.36433708667755127,0.03,0.03,1.0,0.03,0.0325322300195694
1700650669139918407,body,139861990,1700650669,0.2556314170360565,0.03,0.03,1.0,0.09790199249982834,0.03
1700650669150075422,body,149952756,1700650669,0.16185584664344788,0.03,0.03,1.0,0.17926031351089478,0.03
1700650669159891574,body,159823354,1700650669,0.0758918821811676,0.03,0.03,1.0,0.2604934573173523,0.03
1700650669169991684,body,169871312,1700650669,0.03,0.03,0.03,1.0,0.28567153215408325,0.03
1700650669179943529,body,179878689,1700650669,0.03,0.03255587816238403,0.03,1.0,0.3187081217765808,0.03
1700650669189945919,body,189877579,1700650669,0.03,0.07365834712982178,0.03,1.0,0.33545035123825073,0.03
1700650669200229751,body,200146447,1700650669,0.03,0.09978312253952026,0.03,0.9172372817993164,0.34718868136405945,0.03
1700650669209916230,body,209845652,1700650669,0.03,0.12026470899581909,0.03,0.8342922925949097,0.3420787453651428,0.03
1700650669219922912,body,219855964,1700650669,0.03,0.13202601671218872,0.03,0.7446974515914917,0.3337855041027069,0.03
1700650669229969733,body,229868520,1700650669,0.03,0.13778787851333618,0.03,0.6308975219726562,0.33147284388542175,0.03
1700650669239936738,body,239870483,1700650669,0.03,0.1418425440788269,0.03,0.5041540861129761,0.31621140241622925,0.03
1700650669249959160,body,249878434,1700650669,0.03,0.14417129755020142,0.03,0.29076772928237915,0.3072214722633362,0.03
1700650669259963967,body,259883720,1700650669,0.03,0.14594393968582153,0.03,0.1510523110628128,0.29619282484054565,0.03
1700650669269958235,body,269880706,1700650669,0.03,0.1480812430381775,0.03,0.06992870569229126,0.2893545627593994,0.03
1700650669279944708,body,279873400,1700650669,0.03,0.9124797582626343,0.7801363468170166,0.03,0.23744630813598633,0.03
1700650669289996022,body,289909757,1700650669,0.03,0.9146406650543213,0.8234800100326538,0.03,0.23103979229927063,0.03
1700650669299958749,body,299867197,1700650669,0.03,0.9168877601623535,0.8509077429771423,0.03,0.22581017017364502,0.03
1700650669309948361,body,309854362,1700650669,0.03,0.9161025285720825,0.8683171272277832,0.03,0.22086116671562195,0.03
1700650669320009389,body,319920494,1700650669,0.03,0.907896876335144,0.8687782883644104,0.03,0.20979008078575134,0.03
1700650669329935965,body,329863906,1700650669,0.03,0.8936874866485596,0.8738844394683838,0.03,0.20303872227668762,0.03
1700650669339951660,body,339880249,1700650669,0.03,0.8739941120147705,0.8615660667419434,0.03,0.19870731234550476,0.03
1700650669349910561,body,349849215,1700650669,0.03,0.838548481464386,0.8313194513320923,0.03,0.19222575426101685,0.03
1700650669359996531,body,359900971,1700650669,0.03,0.8010716438293457,0.797411322593689,0.03,0.1922449767589569,0.03
1700650669369952831,body,369857386,1700650669,0.03,0.7482415437698364,0.7369101643562317,0.03,0.1843789517879486,0.03
1700650669379949649,body,379879779,1700650669,0.03,0.7005265355110168,0.673974871635437,0.03,0.18523523211479187,0.03
1700650669389985183,body,389896237,1700650669,0.03,0.647674024105072,0.5939090847969055,0.03,0.18418383598327637,0.03
1700650669399932546,body,399853774,1700650669,0.03,0.5882312655448914,0.41996920108795166,0.03,0.17601409554481506,0.03
1700650669409974263,body,409882965,1700650669,0.03,0.5277596116065979,0.31030023097991943,0.03,0.1656457781791687,0.03
1700650669420234325,body,419997891,1700650669,0.03,0.484580397605896,0.23526017367839813,0.03,0.15841269493103027,0.03
1700650669429943657,body,429868634,1700650669,0.03,0.43134617805480957,0.16934731602668762,0.03,0.1567421853542328,0.03
1700650669439929389,body,439853700,1700650669,0.03,0.3739500939846039,0.11594858765602112,0.03,0.15062591433525085,0.03
1700650669449962151,body,449860643,1700650669,0.03,0.32582414150238037,0.07908424735069275,0.03,0.1442616879940033,0.03
1700650669459921033,body,459825768,1700650669,0.03,0.2591753304004669,0.04994845390319824,0.03,0.13280022144317627,0.03
1700650669470065235,body,469944562,1700650669,0.03,0.18616054952144623,0.040441274642944336,0.03,0.11011048406362534,0.03
1700650669479923683,body,479866210,1700650669,0.03,0.1206405982375145,0.03,0.03,0.0931311771273613,0.03
1700650669489976409,body,489886885,1700650669,0.39163798093795776,0.03,0.03,0.353614866733551,0.03,0.6789690256118774
1700650669499926942,body,499869682,1700650669,0.41275644302368164,0.03,0.03,0.3605605959892273,0.03,0.6733486652374268
1700650669509989023,body,509876517,1700650669,0.44458645582199097,0.03,0.03,0.37452828884124756,0.03,0.6738881468772888
1700650669520282408,body,520051427,1700650669,0.47405341267585754,0.03,0.03,0.3725703954696655,0.03,0.6952837705612183
1700650669529946375,body,529872276,1700650669,0.49286484718322754,0.03,0.03,0.3648679852485657,0.03,0.7187943458557129
1700650669539956990,body,539877761,1700650669,0.5032355189323425,0.03,0.03,0.37369269132614136,0.03,0.7093549966812134
1700650669550010554,body,549917138,1700650669,0.5106981992721558,0.03,0.03,0.37653571367263794,0.03,0.6970326900482178
1700650669559957155,body,559875662,1700650669,0.5128076672554016,0.03,0.03,0.37588924169540405,0.03,0.676399290561676
1700650669569957497,body,569874232,1700650669,0.5140097737312317,0.03,0.03,0.36634361743927,0.03,0.6490238308906555
1700650669580115624,body,579956587,1700650669,0.5118361711502075,0.03,0.03,0.37011587619781494,0.03,0.618092954158783
1700650669590235966,body,590109123,1700650669,0.5161486864089966,0.03,0.03,0.3657497763633728,0.03,0.5823862552642822
1700650669599927385,body,599850941,1700650669,0.5001121759414673,0.03,0.03,0.3590225577354431,0.03,0.532930314540863
1700650669610004157,body,609896603,1700650669,0.4900747537612915,0.03,0.03,0.3513510823249817,0.03,0.49257469177246094
1700650669619951480,body,619879404,1700650669,0.4718886911869049,0.03,0.03,0.34434181451797485,0.03,0.44800809025764465
1700650669629944341,body,629880264,1700650669,0.4618595540523529,0.03,0.03,0.33328545093536377,0.03,0.4093167185783386
1700650669639920538,body,639847511,1700650669,0.4642162621021271,0.03,0.03,0.3279684782028198,0.03,0.3780215382575989
1700650669649972447,body,649885424,1700650669,0.4627300500869751,0.03,0.03,0.34101706743240356,0.03,0.3483433425426483
1700650669659976569,body,659869139,1700650669,0.46281182765960693,0.03,0.03,0.33131444454193115,0.03,0.324297159910202
1700650669669933516,body,669858128,1700650669,0.4521089196205139,0.03,0.03,0.2997187376022339,0.03,0.31377506256103516
1700650669679980579,body,679874045,1700650669,0.440845251083374,0.03,0.03,0.28357255458831787,0.03,0.29447904229164124
1700650669689942559,body,689854802,1700650669,0.43868106603622437,0.03,0.03,0.2789818048477173,0.03,0.27976974844932556
1700650669699956597,body,699889918,1700650669,0.0799185037612915,0.03,0.35319212079048157,0.03,1.0,0.03
1700650669709991733,body,709876513,1700650669,0.08035661280155182,0.03,0.3488559126853943,0.03,1.0,0.03
1700650669719928411,body,719855739,1700650669,0.08029860258102417,0.03,0.36438146233558655,0.03,1.0,0.03
1700650669729919829,body,729848765,1700650669,0.07533827424049377,0.03,0.36980852484703064,0.03,1.0,0.03
1700650669740121893,body,739924295,1700650669,0.07125180959701538,0.03,0.3798229396343231,0.03,1.0,0.03
1700650669749983619,body,749902781,1700650669,0.0912407785654068,0.03,0.3705514073371887,0.03,1.0,0.03
1700650669759959800,body,759846563,1700650669,0.10897025465965271,0.03,0.3658590614795685,0.03,1.0,0.03
1700650669769993806,body,769887045,1700650669,0.1461395025253296,0.03,0.35773488879203796,0.03,1.0,0.03
1700650669779968978,body,779913352,1700650669,0.17006796598434448,0.03,0.35114020109176636,0.03,1.0,0.03
1700650669789981671,body,789874642,1700650669,0.1923394799232483,0.03,0.3394360840320587,0.03,0.9716167449951172,0.03
1700650669799948034,body,799887692,1700650669,0.20361611247062683,0.03,0.32774630188941956,0.03,0.8615927696228027,0.03
1700650669809987298,body,809915846,1700650669,0.20671942830085754,0.03,0.31956472992897034,0.03,0.7374109029769897,0.03
1700650669819961704,body,819867487,1700650669,0.19335541129112244,0.03,0.2918073832988739,0.03,0.5547880530357361,0.03
1700650669829995222,body,829889207,1700650669,0.1869177222251892,0.03,0.2658640444278717,0.03,0.44714564085006714,0.03
1700650669840005565,body,839882743,1700650669,0.1844232678413391,0.03,0.23159077763557434,0.03,0.35910144448280334,0.03
1700650669849937799,body,849875597,1700650669,0.16203221678733826,0.03,0.19014239311218262,0.03,0.30155158042907715,0.03
