log_time_ns,header.frame_id,header.stamp.nanosec,header.stamp.sec,motor_a_1,motor_a_2,motor_b_1,motor_b_2,motor_c_1,motor_c_2
1710428433252893177,body,242203810,1710428433,0.03,0.03,0.03,0.03,0.03,0.03
1710428433253013906,body,252317116,1710428433,0.03,0.03,0.03,0.03,0.03,0.03
1710428433262212757,body,262163289,1710428433,0.03,0.03,0.03,0.03,0.03,0.03
1710428433272258367,body,272200742,1710428433,0.03,0.03,0.03,0.03,0.03,0.03
1710428433282220018,body,282163439,1710428433,0.03,0.03,0.03,0.03,0.03,0.03
1710428433292250868,body,292169873,1710428433,0.03,0.03,0.03,0.03,0.03,0.03
1710428433302229689,body,302173116,1710428433,0.03,0.03,0.03,0.03,0.03,0.03
1710428433312249464,body,312168154,1710428433,0.03,0.03,0.03,0.03,0.03,0.03
1710428433322243180,body,322184930,1710428433,0.03,0.03,0.03,0.03,0.03,0.03
1710428433332245266,body,332146953,1710428433,0.03,0.03,0.03,0.03,0.03,0.03
1710428433342239193,body,342151184,1710428433,0.03,0.03,0.03,0.03,0.03,0.03
1710428433352189656,body,352134681,1710428433,0.03,0.03,0.03,0.03,0.03,0.03
1710428433362171067,body,362128122,1710428433,0.03,0.03,0.03,0.03,0.03,0.03
1710428433372224084,body,372181527,1710428433,0.03,0.03,0.03,0.03,0.03,0.03
1710428433382238741,body,382148839,1710428433,0.03,0.03,0.03,0.03,0.03,0.03
1710428433392224756,body,392154847,1710428433,0.03,0.03,0.03,0.03,0.03,0.03
1710428433402169790,body,402126905,1710428433,0.03,0.03,0.03,0.03,0.03,0.03
1710428433412170486,body,412124975,1710428433,0.03,0.03,0.03,0.03,0.03,0.03
1710428433422211460,body,422158213,1710428433,0.03,0.03,0.03,0.03,0.03,0.03
1710428433432185770,body,432141095,1710428433,0.03,0.03,0.03,0.03,0.03,0.03
1710428433442251373,body,442151717,1710428433,0.5284237861633301,0.03,0.03,0.14939811825752258,0.4574276804924011,0.03
1710428433452185293,body,452141173,1710428433,0.5284237861633301,0.03,0.03,0.14939811825752258,0.4574276804924011,0.03
1710428433462192416,body,462140559,1710428433,0.5284237861633301,0.03,0.03,0.14939811825752258,0.4574276804924011,0.03
1710428433472225117,body,472166587,1710428433,0.5284237861633301,0.03,0.03,0.14939811825752258,0.4574276804924011,0.03
1710428433482211092,body,482157413,1710428433,0.5284237861633301,0.03,0.03,0.14939811825752258,0.4574276804924011,0.03
1710428433492212920,body,492142746,1710428433,0.5284237861633301,0.03,0.03,0.14939811825752258,0.4574276804924011,0.03
1710428433502146769,body,502097170,1710428433,0.5284237861633301,0.03,0.03,0.14939811825752258,0.4574276804924011,0.03
1710428433512201304,body,512151777,1710428433,0.5284237861633301,0.03,0.03,0.14939811825752258,0.4574276804924011,0.03
1710428433522174406,body,522121185,1710428433,0.5284237861633301,0.03,0.03,0.14939811825752258,0.4574276804924011,0.03
1710428433532208837,body,532140815,1710428433,0.5284237861633301,0.03,0.03,0.14939811825752258,0.4574276804924011,0.03
1710428433542173120,body,542130136,1710428433,0.5284237861633301,0.03,0.03,0.14939811825752258,0.4574276804924011,0.03
1710428433552211188,body,552161009,1710428433,0.5284237861633301,0.03,0.03,0.14939811825752258,0.4574276804924011,0.03
1710428433562228408,body,562154520,1710428433,0.5284237861633301,0.03,0.03,0.14939811825752258,0.4574276804924011,0.03
1710428433572274310,body,572190133,1710428433,0.5284237861633301,0.03,0.03,0.14939811825752258,0.4574276804924011,0.03
1710428433582250546,body,582161250,1710428433,0.5284237861633301,0.03,0.03,0.14939811825752258,0.4574276804924011,0.03
1710428433592236920,body,592150334,1710428433,0.5284237861633301,0.03,0.03,0.14939811825752258,0.4574276804924011,0.03
1710428433602216048,body,602163806,1710428433,0.5284237861633301,0.03,0.03,0.14939811825752258,0.4574276804924011,0.03
1710428433612200036,body,612156761,1710428433,0.5284237861633301,0.03,0.03,0.14939811825752258,0.4574276804924011,0.03
1710428433622219149,body,622133991,1710428433,0.5284237861633301,0.03,0.03,0.14939811825752258,0.4574276804924011,0.03
1710428433632224435,body,632158693,1710428433,0.5284237861633301,0.03,0.03,0.14939811825752258,0.4574276804924011,0.03
1710428433642213317,body,642166600,1710428433,0.4616274833679199,0.03,0.6782249808311462,0.03,0.03,0.4794488847255707
1710428433652205403,body,652151871,1710428433,0.4616274833679199,0.03,0.6782249808311462,0.03,0.03,0.4794488847255707
1710428433662187265,body,662140784,1710428433,0.4616274833679199,0.03,0.6782249808311462,0.03,0.03,0.4794488847255707
1710428433672205985,body,672158382,1710428433,0.4616274833679199,0.03,0.6782249808311462,0.03,0.03,0.4794488847255707
1710428433682186302,body,682147471,1710428433,0.4616274833679199,0.03,0.6782249808311462,0.03,0.03,0.4794488847255707
1710428433692200006,body,692129677,1710428433,0.4616274833679199,0.03,0.6782249808311462,0.03,0.03,0.4794488847255707
1710428433702183354,body,702142191,1710428433,0.4616274833679199,0.03,0.6782249808311462,0.03,0.03,0.4794488847255707
1710428433712227180,body,712139929,1710428433,0.4616274833679199,0.03,0.6782249808311462,0.03,0.03,0.4794488847255707
1710428433722225299,body,722138869,1710428433,0.4616274833679199,0.03,0.6782249808311462,0.03,0.03,0.4794488847255707
1710428433732241038,body,732172478,1710428433,0.4616274833679199,0.03,0.6782249808311462,0.03,0.03,0.4794488847255707
1710428433742235952,body,742147914,1710428433,0.4616274833679199,0.03,0.6782249808311462,0.03,0.03,0.4794488847255707
1710428433752145227,body,752101627,1710428433,0.4616274833679199,0.03,0.6782249808311462,0.03,0.03,0.4794488847255707
1710428433762236760,body,762167366,1710428433,0.4616274833679199,0.03,0.6782249808311462,0.03,0.03,0.4794488847255707
1710428433772230251,body,772129188,1710428433,0.4616274833679199,0.03,0.6782249808311462,0.03,0.03,0.4794488847255707
1710428433782223798,body,782149421,1710428433,0.4616274833679199,0.03,0.6782249808311462,0.03,0.03,0.4794488847255707
1710428433792188719,body,792126638,1710428433,0.4616274833679199,0.03,0.6782249808311462,0.03,0.03,0.4794488847255707
1710428433802209055,body,802154369,1710428433,0.4616274833679199,0.03,0.6782249808311462,0.03,0.03,0.4794488847255707
1710428433812315366,body,812197303,1710428433,0.4616274833679199,0.03,0.6782249808311462,0.03,0.03,0.4794488847255707
1710428433822290444,body,822189017,1710428433,0.4616274833679199,0.03,0.6782249808311462,0.03,0.03,0.4794488847255707
1710428433832200028,body,832150535,1710428433,0.4616274833679199,0.03,0.6782249808311462,0.03,0.03,0.4794488847255707
1710428433842221305,body,842148289,1710428433,0.4616274833679199,0.03,0.6782249808311462,0.03,0.03,0.4794488847255707
1710428433852219806,body,852171985,1710428433,0.03,0.2795201539993286,0.44875654578208923,0.03,0.03,0.35109153389930725
1710428433862234048,body,862158942,1710428433,0.03,0.2795201539993286,0.44875654578208923,0.03,0.03,0.35109153389930725
1710428433872182529,body,872146433,1710428433,0.03,0.2795201539993286,0.44875654578208923,0.03,0.03,0.35109153389930725
1710428433882266900,body,882194105,1710428433,0.03,0.2795201539993286,0.44875654578208923,0.03,0.03,0.35109153389930725
1710428433892283319,body,892191934,1710428433,0.03,0.2795201539993286,0.44875654578208923,0.03,0.03,0.35109153389930725
1710428433902222441,body,902176142,1710428433,0.03,0.2795201539993286,0.44875654578208923,0.03,0.03,0.35109153389930725
1710428433912195650,body,912154857,1710428433,0.03,0.2795201539993286,0.44875654578208923,0.03,0.03,0.35109153389930725
1710428433922199423,body,922151876,1710428433,0.03,0.2795201539993286,0.44875654578208923,0.03,0.03,0.35109153389930725
1710428433932254857,body,932181817,1710428433,0.03,0.2795201539993286,0.44875654578208923,0.03,0.03,0.35109153389930725
1710428433942237052,body,942166345,1710428433,0.03,0.2795201539993286,0.44875654578208923,0.03,0.03,0.35109153389930725
1710428433952216037,body,952168904,1710428433,0.03,0.2795201539993286,0.44875654578208923,0.03,0.03,0.35109153389930725
1710428433962230156,body,962170137,1710428433,0.03,0.2795201539993286,0.44875654578208923,0.03,0.03,0.35109153389930725
1710428433972216801,body,972163979,1710428433,0.03,0.2795201539993286,0.44875654578208923,0.03,0.03,0.35109153389930725
1710428433982228475,body,982171546,1710428433,0.03,0.2795201539993286,0.44875654578208923,0.03,0.03,0.35109153389930725
1710428433992214793,body,992167060,1710428433,0.03,0.2795201539993286,0.44875654578208923,0.03,0.03,0.35109153389930725
1710428434002192141,body,2150899,1710428434,0.03,0.2795201539993286,0.44875654578208923,0.03,0.03,0.35109153389930725
1710428434012232969,body,12149410,1710428434,0.03,0.2795201539993286,0.44875654578208923,0.03,0.03,0.35109153389930725
1710428434022213463,body,22144403,1710428434,0.03,0.2795201539993286,0.44875654578208923,0.03,0.03,0.35109153389930725
1710428434032206572,body,32157676,1710428434,0.03,0.2795201539993286,0.44875654578208923,0.03,0.03,0.35109153389930725
1710428434042181588,body,42142791,1710428434,0.03,0.2795201539993286,0.44875654578208923,0.03,0.03,0.35109153389930725
1710428434052214523,body,52165320,1710428434,0.03,0.2795201539993286,0.44875654578208923,0.03,0.03,0.35109153389930725
1710428434062193000,body,62144317,1710428434,0.07047538459300995,0.03,0.03,0.03,0.21066239476203918,0.03
1710428434072257938,body,72175792,1710428434,0.07047538459300995,0.03,0.03,0.03,0.21066239476203918,0.03
1710428434082200968,body,82151250,1710428434,0.07047538459300995,0.03,0.03,0.03,0.21066239476203918,0.03
1710428434092159202,body,92111386,1710428434,0.07047538459300995,0.03,0.03,0.03,0.21066239476203918,0.03
1710428434102232499,body,102170387,1710428434,0.07047538459300995,0.03,0.03,0.03,0.21066239476203918,0.03
1710428434112229076,body,112172905,1710428434,0.07047538459300995,0.03,0.03,0.03,0.21066239476203918,0.03
1710428434122208770,body,122163929,1710428434,0.07047538459300995,0.03,0.03,0.03,0.21066239476203918,0.03
1710428434132202777,body,132155298,1710428434,0.07047538459300995,0.03,0.03,0.03,0.21066239476203918,0.03
1710428434142209962,body,142156456,1710428434,0.07047538459300995,0.03,0.03,0.03,0.21066239476203918,0.03
1710428434152229862,body,152160357,1710428434,0.07047538459300995,0.03,0.03,0.03,0.21066239476203918,0.03
1710428434162204953,body,162133403,1710428434,0.07047538459300995,0.03,0.03,0.03,0.21066239476203918,0.03
1710428434172224953,body,172143513,1710428434,0.07047538459300995,0.03,0.03,0.03,0.21066239476203918,0.03
1710428434182258405,body,182177943,1710428434,0.1492268145084381,0.03,0.047441594302654266,0.03,0.09807910025119781,0.03
1710428434192183943,body,192092950,1710428434,0.1444845199584961,0.03,0.04357239603996277,0.03,0.11461558938026428,0.03
1710428434202165299,body,202123748,1710428434,0.14908486604690552,0.03,0.036222510039806366,0.03,0.11419466137886047,0.03
1710428434212183524,body,212139802,1710428434,0.15835532546043396,0.03,0.03,0.03,0.12094762176275253,0.03
1710428434222221958,body,222151986,1710428434,0.16004693508148193,0.03,0.03,0.03,0.13238051533699036,0.03
1710428434232186796,body,232131756,1710428434,0.16043691337108612,0.03,0.03,0.03,0.12969434261322021,0.03
1710428434242234006,body,242161501,1710428434,0.15971630811691284,0.03,0.03,0.03,0.12322771549224854,0.03
1710428434252223218,body,252178627,1710428434,0.1595991551876068,0.03,0.032648831605911255,0.03,0.11984517425298691,0.03
1710428434262259036,body,262171413,1710428434,0.03,0.14223212003707886,0.09526482224464417,0.03,0.633437991142273,0.03
1710428434272204227,body,272127552,1710428434,0.03,0.14018860459327698,0.08927282691001892,0.03,0.6333869099617004,0.03
1710428434282225228,body,282155363,1710428434,0.03,0.1403733193874359,0.09154117107391357,0.03,0.6292648315429688,0.03
1710428434292175088,body,292126069,1710428434,0.03,0.1367606818675995,0.10085092484951019,0.03,0.624261736869812,0.03
1710428434302209126,body,302153013,1710428434,0.03,0.13682925701141357,0.0942748486995697,0.03,0.628592848777771,0.03
1710428434312197821,body,312129878,1710428434,0.03,0.13945727050304413,0.09467655420303345,0.03,0.6327890753746033,0.03
1710428434322223891,body,322168996,1710428434,0.03,0.14140410721302032,0.08949947357177734,0.03,0.6377811431884766,0.03
1710428434332250105,body,332139734,1710428434,0.03,0.14177823066711426,0.08292955905199051,0.03,0.6435982584953308,0.03
1710428434342223238,body,342163806,1710428434,0.03,0.1407589614391327,0.08209644258022308,0.03,0.6431655883789062,0.03
1710428434352212457,body,352141328,1710428434,0.03,0.14226533472537994,0.0764557272195816,0.03,0.6437827348709106,0.03
1710428434362210199,body,362144362,1710428434,0.03,0.13881449401378632,0.07478757947683334,0.03,0.6484931707382202,0.03
1710428434372193896,body,372141451,1710428434,0.03,0.1372171938419342,0.07152409106492996,0.03,0.6498926281929016,0.03
1710428434382190003,body,382149448,1710428434,0.03,0.13656091690063477,0.06943447887897491,0.03,0.6503860950469971,0.03
1710428434392245110,body,392163726,1710428434,0.03,0.1346832811832428,0.06839686632156372,0.03,0.6499160528182983,0.03
1710428434402232338,body,402161692,1710428434,0.03,0.1364675760269165,0.0592234842479229,0.03,0.6533207893371582,0.03
1710428434412253222,body,412156933,1710428434,0.03,0.13870584964752197,0.0802447646856308,0.03,0.6410093307495117,0.03
1710428434422227213,body,422147104,1710428434,0.03,0.13685381412506104,0.08759479224681854,0.03,0.6334527730941772,0.03
1710428434432272994,body,432188397,1710428434,0.03,0.1323271542787552,0.09245586395263672,0.03,0.6240987777709961,0.03
1710428434442209717,body,442153936,1710428434,0.03,0.13441765308380127,0.08405309915542603,0.03,0.6333639025688171,0.03
1710428434452186993,body,452127135,1710428434,0.03,0.13320977985858917,0.08496098220348358,0.03,0.6306585669517517,0.03
1710428434462209981,body,462153742,1710428434,0.03,0.132719486951828,0.06958891451358795,0.03,0.6382858157157898,0.03
1710428434472239754,body,472164702,1710428434,0.7463192939758301,0.03,0.26252084970474243,0.03,0.268309086561203,0.03
1710428434482207062,body,482127205,1710428434,0.744809627532959,0.03,0.2651595175266266,0.03,0.2706124186515808,0.03
1710428434492225038,body,492143279,1710428434,0.7464629411697388,0.03,0.2631259858608246,0.03,0.27161407470703125,0.03
1710428434502186114,body,502137504,1710428434,0.7484548091888428,0.03,0.2624772787094116,0.03,0.26942718029022217,0.03
1710428434512219420,body,512151830,1710428434,0.7505496740341187,0.03,0.2616901993751526,0.03,0.2671159505844116,0.03
1710428434522174957,body,522127325,1710428434,0.7553269863128662,0.03,0.25942808389663696,0.03,0.26513075828552246,0.03
1710428434532244925,body,532171935,1710428434,0.7571032047271729,0.03,0.26038894057273865,0.03,0.2625046968460083,0.03
1710428434542185266,body,542127187,1710428434,0.7561680674552917,0.03,0.26227521896362305,0.03,0.26241201162338257,0.03
1710428434552197513,body,552139759,1710428434,0.755447506904602,0.03,0.26159384846687317,0.03,0.26427215337753296,0.03
1710428434562250183,body,562168068,1710428434,0.7533271312713623,0.03,0.25979965925216675,0.03,0.2699269652366638,0.03
1710428434572221845,body,572148545,1710428434,0.7507962584495544,0.03,0.25494149327278137,0.03,0.2754182517528534,0.03
1710428434582189959,body,582132785,1710428434,0.7499938011169434,0.03,0.25614118576049805,0.03,0.27588269114494324,0.03
1710428434592277173,body,592191064,1710428434,0.7520357370376587,0.03,0.258699893951416,0.03,0.2732589840888977,0.03
1710428434602234920,body,602163728,1710428434,0.7524685859680176,0.03,0.2610182464122772,0.03,0.2721850574016571,0.03
1710428434612215531,body,612152575,1710428434,0.753433108329773,0.03,0.25883498787879944,0.03,0.2721248269081116,0.03
1710428434622196657,body,622134042,1710428434,0.7570867538452148,0.03,0.24885821342468262,0.03,0.2780759930610657,0.03
1710428434632239141,body,632158800,1710428434,0.7592172622680664,0.03,0.24381780624389648,0.03,0.2775910496711731,0.03
1710428434642223595,body,642154527,1710428434,0.757766604423523,0.03,0.2461472749710083,0.03,0.2768697142601013,0.03
1710428434652271668,body,652159879,1710428434,0.7560557126998901,0.03,0.24419018626213074,0.03,0.27668118476867676,0.03
1710428434662204624,body,662152704,1710428434,0.7546337246894836,0.03,0.24940644204616547,0.03,0.2740655541419983,0.03
1710428434672248470,body,672132674,1710428434,0.7494181394577026,0.03,0.2565307915210724,0.03,0.26707950234413147,0.03
1710428434682212146,body,682138548,1710428434,0.03,0.48321861028671265,0.2040252387523651,0.03,0.03,0.8493660688400269
1710428434692203745,body,692136702,1710428434,0.03,0.48446279764175415,0.19353298842906952,0.03,0.03,0.8468694686889648
1710428434702191389,body,702137353,1710428434,0.03,0.48358431458473206,0.1936088353395462,0.03,0.03,0.8468210697174072
1710428434712205832,body,712148064,1710428434,0.03,0.48149919509887695,0.19315104186534882,0.03,0.03,0.8470863699913025
1710428434722214987,body,722137800,1710428434,0.03,0.47941529750823975,0.194115549325943,0.03,0.03,0.8497422337532043
1710428434732219098,body,732138698,1710428434,0.03,0.4679439067840576,0.17256447672843933,0.03,0.03,0.8443191647529602
1710428434742199465,body,742139695,1710428434,0.03,0.4722983241081238,0.16562603414058685,0.03,0.03,0.8406699299812317
1710428434752250255,body,752165525,1710428434,0.03,0.4756956100463867,0.17354550957679749,0.03,0.03,0.8404872417449951
1710428434762181194,body,762109636,1710428434,0.03,0.47980180382728577,0.1839471459388733,0.03,0.03,0.8426834344863892
1710428434772240567,body,772165084,1710428434,0.03,0.48081228137016296,0.19308803975582123,0.03,0.03,0.844741940498352
1710428434782195152,body,782137174,1710428434,0.03,0.47976154088974,0.19525201618671417,0.03,0.03,0.844269871711731
1710428434792263008,body,792172145,1710428434,0.03,0.47837579250335693,0.19116921722888947,0.03,0.03,0.8441046476364136
1710428434802216926,body,802148369,1710428434,0.03,0.4759921729564667,0.19085094332695007,0.03,0.03,0.8455979824066162
1710428434812214361,body,812146826,1710428434,0.03,0.47953712940216064,0.1784874051809311,0.03,0.03,0.8395646810531616
1710428434822297379,body,822237672,1710428434,0.03,0.47125083208084106,0.14517061412334442,0.03,0.03,0.8301535844802856
1710428434832220035,body,832164717,1710428434,0.03,0.46575087308883667,0.1369980275630951,0.03,0.03,0.8196248412132263
1710428434842271453,body,842179204,1710428434,0.03,0.46540772914886475,0.166720449924469,0.03,0.03,0.8378393054008484
1710428434852217629,body,852160617,1710428434,0.03,0.47818946838378906,0.1927942931652069,0.03,0.03,0.8429779410362244
1710428434862226862,body,862153789,1710428434,0.03,0.47055384516716003,0.1553155928850174,0.03,0.03,0.821925699710846
1710428434872239754,body,872160309,1710428434,0.03,0.4693452715873718,0.16167102754116058,0.03,0.03,0.820149302482605
1710428434882230916,body,882152582,1710428434,0.03,0.30614563822746277,0.03,0.6014920473098755,0.4264816641807556,0.03
1710428434892216981,body,892143626,1710428434,0.03,0.30226361751556396,0.03,0.5960282683372498,0.4419309198856354,0.03
1710428434902198217,body,902154124,1710428434,0.03,0.30849021673202515,0.03,0.6017035841941833,0.45578697323799133,0.03
1710428434912197370,body,912141045,1710428434,0.03,0.3197880685329437,0.03,0.5778928995132446,0.4430556297302246,0.03
1710428434922193239,body,922134055,1710428434,0.03,0.30021095275878906,0.03,0.5900835394859314,0.49415457248687744,0.03
1710428434932201753,body,932137130,1710428434,0.03,0.2962160110473633,0.03,0.6377556920051575,0.533930778503418,0.03
1710428434942218591,body,942148017,1710428434,0.03,0.2661520540714264,0.03,0.6111131906509399,0.5188776254653931,0.03
1710428434952198746,body,952115443,1710428434,0.03,0.2422247976064682,0.03,0.577793300151825,0.4950791597366333,0.03
1710428434962184201,body,962124171,1710428434,0.03,0.21944278478622437,0.03,0.524924635887146,0.4632297456264496,0.03
1710428434972204433,body,972146943,1710428434,0.03,0.19451747834682465,0.03,0.49483105540275574,0.4456855058670044,0.03
1710428434982225609,body,982160128,1710428434,0.03,0.18069632351398468,0.03,0.43263792991638184,0.3806518316268921,0.03
1710428434992214098,body,992146791,1710428434,0.03,0.16144539415836334,0.03,0.3826325237751007,0.36161941289901733,0.03
1710428435002240307,body,2149928,1710428435,0.03,0.1494796872138977,0.03,0.34200143814086914,0.32223397493362427,0.03
1710428435012214307,body,12145680,1710428435,0.03,0.13499784469604492,0.03,0.30242985486984253,0.297517865896225,0.03
1710428435022229410,body,22153044,1710428435,0.03,0.12597215175628662,0.03,0.2617625296115875,0.25324803590774536,0.03
1710428435032208757,body,32126520,1710428435,0.03,0.11890655755996704,0.03,0.22066664695739746,0.2276957929134369,0.03
1710428435042193641,body,42141467,1710428435,0.03,0.11801964044570923,0.03,0.1871328353881836,0.19099438190460205,0.03
1710428435052206528,body,52142965,1710428435,0.03,0.11368635296821594,0.03,0.15889158844947815,0.17559471726417542,0.03
1710428435062204528,body,62147201,1710428435,0.03,0.11197832226753235,0.03,0.14180207252502441,0.16528227925300598,0.03
1710428435072234298,body,72141468,1710428435,0.03,0.11086779832839966,0.03,0.12320423126220703,0.15142342448234558,0.03
1710428435082227249,body,82152412,1710428435,0.03,0.10863390564918518,0.03,0.11108461022377014,0.14113903045654297,0.03
1710428435092240975,body,92156738,1710428435,0.03,0.2466447353363037,0.3271811008453369,0.03,0.03,0.9468039274215698
1710428435102211810,body,102135463,1710428435,0.03,0.25375115871429443,0.3388010859489441,0.03,0.03,0.9533587694168091
1710428435112202507,body,112147089,1710428435,0.03,0.24909088015556335,0.34909743070602417,0.03,0.03,0.9570086598396301
1710428435122218057,body,122149342,1710428435,0.03,0.2523553967475891,0.3572061061859131,0.03,0.03,0.9518446326255798
1710428435132203656,body,132139793,1710428435,0.03,0.264486163854599,0.3638380169868469,0.03,0.03,0.9499698877334595
1710428435142224253,body,142164002,1710428435,0.03,0.2841702997684479,0.3758010268211365,0.03,0.03,0.9219593405723572
1710428435152232410,body,152160052,1710428435,0.03,0.30483800172805786,0.38516634702682495,0.03,0.03,0.8862321376800537
1710428435162216951,body,162129790,1710428435,0.03,0.3157920837402344,0.38589972257614136,0.03,0.03,0.8426387906074524
1710428435172211547,body,172141705,1710428435,0.03,0.33174583315849304,0.37887316942214966,0.03,0.03,0.7197142839431763
1710428435182192272,body,182128044,1710428435,0.03,0.3470539450645447,0.3714037537574768,0.03,0.03,0.5552627444267273
1710428435192170340,body,192119576,1710428435,0.03,0.3439302444458008,0.36375749111175537,0.03,0.03,0.40846338868141174
1710428435202212056,body,202151046,1710428435,0.03,0.33569538593292236,0.37193238735198975,0.03,0.03,0.31822046637535095
1710428435212271037,body,212178297,1710428435,0.03,0.32150208950042725,0.35872727632522583,0.03,0.03,0.22292011976242065
1710428435222299430,body,222172801,1710428435,0.03,0.30019330978393555,0.34106719493865967,0.03,0.03,0.12515076994895935
1710428435232221872,body,232154963,1710428435,0.03,0.28570204973220825,0.318359911441803,0.03,0.03,0.03951835632324219
1710428435242233866,body,242136116,1710428435,0.03,0.27314651012420654,0.3170621991157532,0.03,0.03,0.03
1710428435252205581,body,252132329,1710428435,0.03,0.23363757133483887,0.29857438802719116,0.03,0.04061824083328247,0.03
1710428435262203562,body,262136548,1710428435,0.03,0.20080965757369995,0.27991700172424316,0.03,0.08411312103271484,0.03
1710428435272196753,body,272155335,1710428435,0.03,0.18448272347450256,0.27855634689331055,0.03,0.0801306962966919,0.03
1710428435282281681,body,282202926,1710428435,0.03,0.15001153945922852,0.2505585551261902,0.03,0.10448557138442993,0.03
1710428435292181287,body,292116528,1710428435,0.03,0.11550134420394897,0.22138144075870514,0.03,0.11269611120223999,0.03
1710428435302207716,body,302148895,1710428435,0.03,0.16727226972579956,1.0,0.03,0.25793758034706116,0.03
1710428435312216413,body,312157279,1710428435,0.03,0.138624370098114,1.0,0.03,0.25398334860801697,0.03
1710428435322203769,body,322128644,1710428435,0.03,0.10580897331237793,1.0,0.03,0.23497089743614197,0.03
1710428435332230539,body,332152766,1710428435,0.03,0.09129279851913452,1.0,0.03,0.21962299942970276,0.03
1710428435342243698,body,342151975,1710428435,0.03,0.087685227394104,1.0,0.03,0.20725682377815247,0.03
1710428435352249665,body,352127534,1710428435,0.03,0.06603574752807617,0.9530476331710815,0.03,0.19760426878929138,0.03
1710428435362247269,body,362159311,1710428435,0.03,0.03,0.734294593334198,0.03,0.18315044045448303,0.03
1710428435372190721,body,372139577,1710428435,0.03,0.03,0.554078996181488,0.03,0.16443350911140442,0.03
1710428435382203795,body,382125231,1710428435,0.03,0.03,0.44736412167549133,0.03,0.14504960179328918,0.03
1710428435392219826,body,392147249,1710428435,0.03,0.03,0.33593887090682983,0.03,0.12676766514778137,0.03
1710428435402236152,body,402156123,1710428435,0.03,0.03,0.255158007144928,0.03,0.10559365153312683,0.03
1710428435412197296,body,412145481,1710428435,0.03283661603927612,0.03,0.18230217695236206,0.03,0.0798693597316742,0.03
1710428435422182957,body,422125333,1710428435,0.03,0.03,0.12665891647338867,0.03,0.05803653597831726,0.03
1710428435432228060,body,432134247,1710428435,0.03,0.03,0.07919454574584961,0.03,0.03559112548828125,0.03
1710428435442221500,body,442148124,1710428435,0.03,0.03,0.05382740497589111,0.03,0.03,0.03
1710428435452177241,body,452085956,1710428435,0.03,0.03,0.03,0.03,0.03,0.03
1710428435462208622,body,462144555,1710428435,0.03,0.03,0.03,0.03,0.03,0.03
1710428435472205340,body,472131219,1710428435,0.03,0.03,0.03,0.03,0.03,0.03
1710428435482301692,body,482168931,1710428435,0.03,0.03,0.03,0.03,0.03,0.03
1710428435492222974,body,492153813,1710428435,0.03,0.03,0.03,0.03,0.03,0.034552156925201416
1710428435502247177,body,502136733,1710428435,0.03725588321685791,0.03,0.03,0.03,0.03,0.041580379009246826
1710428435512234800,body,512158012,1710428435,0.6888705492019653,0.03,0.03,0.3015599250793457,0.5959740877151489,0.03
1710428435522220722,body,522159341,1710428435,0.7018347978591919,0.03,0.03,0.29479146003723145,0.5996573567390442,0.03
1710428435532244491,body,532146036,1710428435,0.7114427089691162,0.03,0.03,0.3100660443305969,0.6060962677001953,0.03
1710428435542236339,body,542147721,1710428435,0.7187026143074036,0.03,0.03,0.30196136236190796,0.6077607274055481,0.03
1710428435552252217,body,552155580,1710428435,0.7272360920906067,0.03,0.03,0.30969464778900146,0.6109485626220703,0.03
1710428435562220312,body,562152996,1710428435,0.7365837693214417,0.03,0.03,0.3149585723876953,0.5995465517044067,0.03
1710428435572227880,body,572145960,1710428435,0.7306174635887146,0.03,0.03,0.3001783490180969,0.5754300355911255,0.03
1710428435582270693,body,582148191,1710428435,0.7188911437988281,0.03,0.03,0.3050884008407593,0.562755823135376,0.03
1710428435592219644,body,592143038,1710428435,0.6762027144432068,0.03,0.03,0.3025118112564087,0.5377403497695923,0.03
1710428435602200556,body,602138356,1710428435,0.6326390504837036,0.03,0.03,0.30325645208358765,0.5232377052307129,0.03
1710428435612218476,body,612135146,1710428435,0.5936322808265686,0.03,0.03,0.30496495962142944,0.4927513599395752,0.03
1710428435622191278,body,622131444,1710428435,0.5099188685417175,0.03,0.03,0.3136921525001526,0.4615795612335205,0.03
1710428435632196787,body,632125840,1710428435,0.43334388732910156,0.03,0.03,0.3198172450065613,0.43628424406051636,0.03
1710428435642226595,body,642168492,1710428435,0.3517085015773773,0.03,0.03,0.31830376386642456,0.4113416373729706,0.03
1710428435652208924,body,652126784,1710428435,0.25635865330696106,0.03,0.03,0.32342076301574707,0.388047456741333,0.03
1710428435662312088,body,662168820,1710428435,0.11343017220497131,0.03,0.03,0.32048529386520386,0.3690730333328247,0.03
1710428435672234187,body,672148155,1710428435,0.03,0.1126638799905777,0.03,0.3147386908531189,0.34211719036102295,0.03
1710428435682223342,body,682135424,1710428435,0.03,0.21053661406040192,0.03,0.31600695848464966,0.3268487751483917,0.03
1710428435692237235,body,692142687,1710428435,0.03,0.27107590436935425,0.03,0.3151899576187134,0.31261783838272095,0.03
1710428435702199163,body,702145383,1710428435,0.03,0.3526972234249115,0.03,0.2894468903541565,0.2921031713485718,0.03
1710428435712211017,body,712140204,1710428435,0.03,0.4183148741722107,0.03,0.2581902742385864,0.2771089971065521,0.03
1710428435722284925,body,722188613,1710428435,0.03,0.8019098043441772,0.03,0.5534207820892334,0.11655183136463165,0.03
1710428435732196413,body,732149752,1710428435,0.03,0.8261830806732178,0.03,0.5339221954345703,0.0904930830001831,0.03
1710428435742266829,body,742146377,1710428435,0.03,0.8609068393707275,0.03,0.49539729952812195,0.09250388294458389,0.03
1710428435752228891,body,752173528,1710428435,0.03,0.890079140663147,0.03,0.4706229269504547,0.07981882989406586,0.03
1710428435762193909,body,762124175,1710428435,0.03,0.8916329145431519,0.03,0.43905147910118103,0.10929001867771149,0.03
1710428435772174212,body,772118082,1710428435,0.03,0.8857206106185913,0.03,0.38145068287849426,0.10115555673837662,0.03
1710428435782244376,body,782168156,1710428435,0.03,0.866408109664917,0.03,0.34455785155296326,0.1281329095363617,0.03
1710428435792219329,body,792136320,1710428435,0.03,0.8200043439865112,0.03,0.27782362699508667,0.08691823482513428,0.03
1710428435802180744,body,802121613,1710428435,0.03,0.7697552442550659,0.03,0.22565731406211853,0.08110882341861725,0.03
1710428435812292064,body,812172622,1710428435,0.03,0.6971867084503174,0.03,0.20852702856063843,0.09294335544109344,0.03
1710428435822245886,body,822142242,1710428435,0.03,0.6023702025413513,0.03,0.1780516803264618,0.17334675788879395,0.03
1710428435832187398,body,832126481,1710428435,0.03,0.5006372928619385,0.03,0.15449640154838562,0.21396727859973907,0.03
1710428435842195471,body,842132779,1710428435,0.03,0.32608044147491455,0.03,0.1277906596660614,0.2599150240421295,0.03
1710428435852206766,body,852133736,1710428435,0.03,0.15109564363956451,0.03,0.10976308584213257,0.2901497185230255,0.03
1710428435862207443,body,862151718,1710428435,0.03,0.057767778635025024,0.03,0.08687415719032288,0.2884993553161621,0.03
1710428435872252518,body,872173903,1710428435,0.03,0.03,0.03,0.04519641399383545,0.28117695450782776,0.03
1710428435882256051,body,882166274,1710428435,0.05772474408149719,0.03,0.03,0.03,0.2765955626964569,0.03
1710428435892190773,body,892124722,1710428435,0.08261978626251221,0.03,0.03,0.03,0.2684571444988251,0.03
1710428435902179106,body,902127017,1710428435,0.1117657721042633,0.03,0.03,0.03,0.26566365361213684,0.03
1710428435912228240,body,912137441,1710428435,0.12606465816497803,0.03,0.03,0.03,0.26731711626052856,0.03
1710428435922211079,body,922140718,1710428435,0.1225748360157013,0.03,0.03,0.03,0.2661323547363281,0.03
1710428435932220983,body,932133565,1710428435,0.43349751830101013,0.03,0.5517699718475342,0.03,0.03,0.12360811233520508
1710428435942153008,body,942093532,1710428435,0.43215471506118774,0.03,0.5329888463020325,0.03,0.03,0.15792684257030487
1710428435952153855,body,952091243,1710428435,0.4328007996082306,0.03,0.5313847661018372,0.03,0.03,0.19365638494491577
1710428435962220655,body,962145723,1710428435,0.434585303068161,0.03,0.5287657976150513,0.03,0.03,0.24125084280967712
1710428435972246114,body,972157638,1710428435,0.4280293881893158,0.03,0.5066973567008972,0.03,0.03,0.2789786458015442
1710428435982178854,body,982119767,1710428435,0.42537280917167664,0.03,0.49017783999443054,0.03,0.03,0.3125305473804474
1710428435992206411,body,992149660,1710428435,0.3994435966014862,0.03,0.48322874307632446,0.03,0.03,0.3243076503276825
1710428436002233341,body,2166220,1710428436,0.38487130403518677,0.03,0.45278429985046387,0.03,0.03,0.2953330874443054
1710428436012257196,body,12159813,1710428436,0.36150819063186646,0.03,0.4263973832130432,0.03,0.03,0.28595492243766785
1710428436022235358,body,22159075,1710428436,0.34370845556259155,0.03,0.3934738337993622,0.03,0.03,0.27152585983276367
1710428436032232461,body,32129592,1710428436,0.319776326417923,0.03,0.36617031693458557,0.03,0.03,0.2672642767429352
1710428436042225000,body,42157447,1710428436,0.2951109707355499,0.03,0.3392765522003174,0.03,0.03,0.2633080780506134
1710428436052241991,body,52148991,1710428436,0.2563846707344055,0.03,0.310960054397583,0.03,0.03,0.2285611629486084
1710428436062181841,body,62128552,1710428436,0.22636577486991882,0.03,0.2812666893005371,0.03,0.03,0.1978306621313095
1710428436072236855,body,72178289,1710428436,0.1835072934627533,0.03,0.24793463945388794,0.03,0.03,0.18619531393051147
1710428436082217921,body,82150533,1710428436,0.14408761262893677,0.03,0.2199721336364746,0.03,0.03,0.1628805696964264
1710428436092206327,body,92130255,1710428436,0.1048935279250145,0.03,0.18948733806610107,0.03,0.03,0.13468973338603973
1710428436102248003,body,102159003,1710428436,0.062327198684215546,0.03,0.16715484857559204,0.03,0.03,0.11686791479587555
1710428436112211906,body,112155774,1710428436,0.03,0.03,0.14813238382339478,0.03,0.03,0.11218239367008209
1710428436122237249,body,122150787,1710428436,0.03,0.045644570142030716,0.1464821696281433,0.03,0.03,0.11943274736404419
1710428436132237201,body,132164047,1710428436,0.34967613220214844,0.03,0.03,0.5688284039497375,0.6425958871841431,0.03
1710428436142217626,body,142122112,1710428436,0.32945725321769714,0.03,0.03,0.5945054292678833,0.6774125099182129,0.03
1710428436152162977,body,152123406,1710428436,0.28748661279678345,0.03,0.03,0.607212483882904,0.6988698244094849,0.03
1710428436162243860,body,162161581,1710428436,0.2539970278739929,0.03,0.03,0.6096276640892029,0.7074921131134033,0.03
1710428436172194741,body,172145979,1710428436,0.22105297446250916,0.03,0.03,0.6028208136558533,0.7306852340698242,0.03
1710428436182184187,body,182123068,1710428436,0.1851307898759842,0.03,0.03,0.5951196551322937,0.7421530485153198,0.03
1710428436192206318,body,192149213,1710428436,0.15549474954605103,0.03,0.03,0.5807636380195618,0.737012505531311,0.03
1710428436202205349,body,202152074,1710428436,0.13411599397659302,0.03,0.03,0.5677525997161865,0.710762619972229,0.03
1710428436212192415,body,212129973,1710428436,0.11852094531059265,0.03,0.03,0.5487977862358093,0.6795350313186646,0.03
1710428436222259836,body,222175055,1710428436,0.10570988059043884,0.03,0.03,0.5189148187637329,0.6027670502662659,0.03
1710428436232189585,body,232147821,1710428436,0.08656609058380127,0.03,0.03,0.48556458950042725,0.5135481357574463,0.03
1710428436242188201,body,242135648,1710428436,0.07407212257385254,0.03,0.03,0.4374505281448364,0.33640027046203613,0.03
1710428436252214980,body,252128452,1710428436,0.04930111765861511,0.03,0.03,0.39564189314842224,0.2677921652793884,0.03
1710428436262183186,body,262136259,1710428436,0.03752812743186951,0.03,0.03,0.3622533679008484,0.18780332803726196,0.03
1710428436272220303,body,272155068,1710428436,0.03277906775474548,0.03,0.03,0.32066917419433594,0.12276566028594971,0.03
1710428436282218823,body,282144738,1710428436,0.03,0.03,0.03,0.301771342754364,0.08803829550743103,0.03
1710428436292221597,body,292153785,1710428436,0.03,0.03,0.03,0.2870188355445862,0.06402242183685303,0.03
1710428436302253309,body,302186687,1710428436,0.03,0.03,0.03,0.26135584712028503,0.04602941870689392,0.03
1710428436312187444,body,312118524,1710428436,0.03,0.03,0.03,0.24216312170028687,0.03,0.03
1710428436322260849,body,322164440,1710428436,0.03,0.03,0.03,0.20674796402454376,0.03,0.03
1710428436332262368,body,332176728,1710428436,0.03,0.5680786371231079,0.3906298875808716,0.03,0.03,0.779677152633667
1710428436342266577,body,342158353,1710428436,0.03,0.5725664496421814,0.4030734896659851,0.03,0.03,0.76358562707901
1710428436352180438,body,352132177,1710428436,0.03,0.5647282600402832,0.41874921321868896,0.03,0.03,0.778082549571991
1710428436362211657,body,362154823,1710428436,0.03,0.5509066581726074,0.4293641746044159,0.03,0.03,0.7858628034591675
1710428436372189809,body,372132011,1710428436,0.03,0.5386408567428589,0.4382625222206116,0.03,0.03,0.7916106581687927
1710428436382178098,body,382111011,1710428436,0.03,0.5338709354400635,0.4371976852416992,0.03,0.03,0.7777305841445923
1710428436392235689,body,392132960,1710428436,0.03,0.5183991193771362,0.4140394330024719,0.03,0.03,0.7503266334533691
1710428436402239222,body,402175796,1710428436,0.03,0.5048501491546631,0.4010997414588928,0.03,0.03,0.7182551622390747
1710428436412252525,body,412147067,1710428436,0.03,0.48860132694244385,0.39518651366233826,0.03,0.03,0.6814092397689819
1710428436422191349,body,422129530,1710428436,0.03,0.47194257378578186,0.3952851891517639,0.03,0.03,0.6283428072929382
1710428436432223114,body,432147436,1710428436,0.03,0.4445270895957947,0.36617788672447205,0.03,0.03,0.5791951417922974
1710428436442231554,body,442136477,1710428436,0.03,0.413981556892395,0.3346005380153656,0.03,0.03,0.48626941442489624
1710428436452238983,body,452167597,1710428436,0.03,0.38687676191329956,0.3175507187843323,0.03,0.03,0.3638118505477905
1710428436462277289,body,462166996,1710428436,0.03,0.3706696629524231,0.2822303771972656,0.03,0.03,0.19944216310977936
1710428436472229092,body,472159531,1710428436,0.03,0.3176884055137634,0.2779715061187744,0.03,0.03,0.1127137839794159
1710428436482201634,body,482142043,1710428436,0.03,0.2627933621406555,0.2621895968914032,0.03,0.03,0.06412282586097717
1710428436492195434,body,492125277,1710428436,0.03,0.14083777368068695,0.24792438745498657,0.03,0.03,0.03
1710428436502165105,body,502094771,1710428436,0.03,0.09710467606782913,0.2522866129875183,0.03,0.03,0.03
1710428436512170824,body,512109142,1710428436,0.03,0.047799549996852875,0.25391247868537903,0.03,0.03,0.03
1710428436522257122,body,522194043,1710428436,0.03,0.03,0.22773346304893494,0.03,0.03599590063095093,0.03
1710428436532203326,body,532145977,1710428436,0.04608364403247833,0.03,0.22082185745239258,0.03,0.03950962424278259,0.03
1710428436542194910,body,542139833,1710428436,0.03,0.03,0.0563930869102478,0.03,1.0,0.03
1710428436552292219,body,552196764,1710428436,0.03,0.03,0.04363641142845154,0.03,1.0,0.03
1710428436562227808,body,562161347,1710428436,0.03,0.03,0.03,0.03,1.0,0.03
1710428436572191376,body,572147219,1710428436,0.03,0.03,0.03,0.03,1.0,0.03
1710428436582233640,body,582151989,1710428436,0.03,0.03,0.03,0.03,1.0,0.03
1710428436592215171,body,592136321,1710428436,0.03,0.03,0.03,0.03,1.0,0.03
1710428436602206939,body,602150908,1710428436,0.03,0.03,0.03,0.03,1.0,0.03
1710428436612235807,body,612136249,1710428436,0.03,0.03,0.03,0.03,0.9565237760543823,0.03
1710428436622251545,body,622165061,1710428436,0.03,0.03,0.03,0.03957796096801758,0.8505340814590454,0.03
1710428436632177866,body,632127467,1710428436,0.03,0.03,0.03,0.05094105005264282,0.7192808389663696,0.03
1710428436642259977,body,642171643,1710428436,0.03,0.03,0.03,0.06716084480285645,0.5535279512405396,0.03
1710428436652201290,body,652162508,1710428436,0.03,0.03,0.03,0.08735668659210205,0.40542659163475037,0.03
1710428436662244784,body,662170302,1710428436,0.03,0.03,0.03,0.13252121210098267,0.3180147707462311,0.03
1710428436672187383,body,672117474,1710428436,0.03,0.03,0.03,0.19992685317993164,0.2635240852832794,0.03
1710428436682218258,body,682147249,1710428436,0.03,0.03,0.03,0.2699047923088074,0.23056092858314514,0.03
1710428436692218832,body,692145656,1710428436,0.03,0.0624721497297287,0.03,0.2965066432952881,0.2035868763923645,0.03
1710428436702204056,body,702135725,1710428436,0.03,0.10774414241313934,0.03,0.33194124698638916,0.1824708878993988,0.03
1710428436712245502,body,712136880,1710428436,0.03,0.1767660677433014,0.03,0.33188819885253906,0.15802061557769775,0.03
1710428436722176398,body,722126641,1710428436,0.03,0.2345740795135498,0.03,0.3597705364227295,0.175543874502182,0.03
1710428436732260277,body,732128350,1710428436,0.03,0.29785799980163574,0.03,0.39543354511260986,0.19282037019729614,0.03
1710428436742158011,body,742101593,1710428436,0.03,0.3594546318054199,0.03,0.4423753619194031,0.24731484055519104,0.03
1710428436752225325,body,752152490,1710428436,0.03,0.8466877937316895,0.03,0.2281872034072876,0.03,0.35936781764030457
1710428436762242953,body,762154586,1710428436,0.03,0.8657673597335815,0.03,0.2107139229774475,0.03,0.3382952809333801
1710428436772289914,body,772173083,1710428436,0.03,0.895531177520752,0.03,0.20852774381637573,0.03,0.3181508481502533
1710428436782204115,body,782146682,1710428436,0.03,0.8923150300979614,0.03,0.19361960887908936,0.03,0.3084699809551239
1710428436792194792,body,792126371,1710428436,0.03,0.8763980865478516,0.03,0.1809961199760437,0.03,0.2892735004425049
1710428436802207647,body,802161002,1710428436,0.03,0.8511961698532104,0.03,0.1850113868713379,0.03,0.2563871443271637
1710428436812260695,body,812157151,1710428436,0.03,0.8024938702583313,0.03,0.19614237546920776,0.03,0.20799455046653748
1710428436822202905,body,822135059,1710428436,0.03,0.6395399570465088,0.03,0.19202297925949097,0.03,0.15601962804794312
1710428436832219391,body,832147641,1710428436,0.03,0.5270626544952393,0.03,0.1843721866607666,0.03,0.11748289316892624
1710428436842197520,body,842129487,1710428436,0.03,0.4407731592655182,0.03,0.18651282787322998,0.03,0.061625026166439056
1710428436852203648,body,852142398,1710428436,0.03,0.3646911084651947,0.03,0.18410414457321167,0.03,0.03
1710428436862183555,body,862131475,1710428436,0.03,0.29605457186698914,0.03,0.19112783670425415,0.07342137396335602,0.03
1710428436872255643,body,872156377,1710428436,0.03,0.2382693886756897,0.03,0.17386984825134277,0.117959164083004,0.03
1710428436882218960,body,882138100,1710428436,0.03,0.18859118223190308,0.03,0.14730310440063477,0.14807257056236267,0.03
1710428436892191416,body,892127409,1710428436,0.03,0.14976072311401367,0.03,0.12060630321502686,0.15687555074691772,0.03
1710428436902269188,body,902164836,1710428436,0.03,0.10800236463546753,0.03,0.10342800617218018,0.16401761770248413,0.03
1710428436912244196,body,912144613,1710428436,0.03,0.07657945156097412,0.03,0.1014794111251831,0.1732681691646576,0.03
1710428436922195688,body,922129635,1710428436,0.03,0.061679959297180176,0.03,0.08972328901290894,0.1728110909461975,0.03
1710428436932219199,body,932147351,1710428436,0.03,0.03704655170440674,0.03,0.06908029317855835,0.1567765176296234,0.03
1710428436942202724,body,942132371,1710428436,0.03,0.037963688373565674,0.03,0.065315842628479,0.1384422481060028,0.03
1710428436952226775,body,952136652,1710428436,0.03,0.03,0.03,0.062349021434783936,0.11747346818447113,0.03
1710428436962191896,body,962111034,1710428436,0.03,0.03,0.03,1.0,0.3004416823387146,0.03
1710428436972222705,body,972161004,1710428436,0.03,0.03,0.03,1.0,0.2461758702993393,0.03
1710428436982185510,body,982121050,1710428436,0.0377880334854126,0.03,0.03,1.0,0.19166842103004456,0.03
1710428436992243198,body,992151287,1710428436,0.04240649938583374,0.03,0.03,1.0,0.14851880073547363,0.03
1710428437002181136,body,2130088,1710428437,0.05547928810119629,0.03,0.03,1.0,0.11007140576839447,0.03
1710428437012267493,body,12167720,1710428437,0.06116753816604614,0.03,0.03,1.0,0.06902770698070526,0.03
1710428437022213538,body,22137562,1710428437,0.059862732887268066,0.03,0.03,1.0,0.03777703642845154,0.03
1710428437032230627,body,32135948,1710428437,0.06467610597610474,0.03,0.03,1.0,0.03,0.03
1710428437042247662,body,42142924,1710428437,0.06625610589981079,0.03,0.03,0.9208699464797974,0.03,0.05428498983383179
1710428437052179277,body,52120180,1710428437,0.07043051719665527,0.03,0.03,0.7887446880340576,0.03,0.08680307865142822
1710428437062207977,body,62153990,1710428437,0.052673161029815674,0.03,0.03,0.6014851331710815,0.03,0.10376530885696411
1710428437072202386,body,72131034,1710428437,0.055790841579437256,0.03,0.03,0.2510596513748169,0.03,0.1322803497314453
1710428437082206330,body,82153347,1710428437,0.03836864233016968,0.03,0.03,0.09614917635917664,0.03,0.14842349290847778
1710428437092259702,body,92156962,1710428437,0.03,0.03,0.04484036564826965,0.03,0.03,0.1639634072780609
1710428437102212215,body,102126460,1710428437,0.03,0.03,0.1688688099384308,0.03,0.03,0.16895639896392822
1710428437112236294,body,112147557,1710428437,0.03,0.04000967741012573,0.28819540143013,0.03,0.03,0.15625134110450745
1710428437122220334,body,122162147,1710428437,0.03,0.07543778419494629,0.3847077190876007,0.03,0.03,0.1292688548564911
1710428437132172557,body,132123163,1710428437,0.03,0.1279352307319641,0.4775421917438507,0.03,0.03,0.08016952872276306
1710428437142218732,body,142114829,1710428437,0.03,0.18776598572731018,0.4775421917438507,0.03,0.03,0.03012901544570923
1710428437152195212,body,152145737,1710428437,0.03,0.262018084526062,0.4775421917438507,0.03,0.04345826804637909,0.03
1710428437162214023,body,162131581,1710428437,0.9695489406585693,0.03,0.7282286882400513,0.03,0.03,0.8450582027435303
1710428437172191828,body,172148182,1710428437,0.9264305830001831,0.03,0.7282286882400513,0.03,0.03,0.8110402822494507
1710428437182180162,body,182133001,1710428437,0.8628572821617126,0.03,0.7282286882400513,0.03,0.03,0.6954382061958313
1710428437192215308,body,192146820,1710428437,0.7911583185195923,0.03,0.7282286882400513,0.03,0.03,0.5828885436058044
1710428437202223077,body,202132470,1710428437,0.7054238319396973,0.03,0.7282286882400513,0.03,0.03,0.5167227387428284
1710428437212195791,body,212142536,1710428437,0.5383837819099426,0.03,0.7282286882400513,0.03,0.03,0.42935994267463684
1710428437222180987,body,222132807,1710428437,0.3966805040836334,0.03,0.7282286882400513,0.03,0.03,0.325935423374176
1710428437232204856,body,232147101,1710428437,0.28806445002555847,0.03,0.7282286882400513,0.03,0.03,0.2165127992630005
1710428437242177390,body,242124108,1710428437,0.189054936170578,0.03,0.6408306360244751,0.03,0.03,0.09781450033187866
1710428437252272309,body,252172983,1710428437,0.13452571630477905,0.03,0.5377030372619629,0.03,0.03,0.03
1710428437262202211,body,262143548,1710428437,0.0907943844795227,0.03,0.4526588022708893,0.03,0.06389415264129639,0.03
1710428437272177009,body,272120486,1710428437,0.0510292649269104,0.03,0.3818754255771637,0.03,0.11280304193496704,0.03
1710428437282304858,body,282204408,1710428437,0.03,0.03,0.30209651589393616,0.03,0.171433687210083,0.03
1710428437292206614,body,292146277,1710428437,0.03,0.03,0.21272850036621094,0.03,0.2049252986907959,0.03
1710428437302215628,body,302157972,1710428437,0.03,0.03,0.1360577642917633,0.03,0.2453632950782776,0.03
1710428437312163817,body,312104710,1710428437,0.03,0.03,0.06491968035697937,0.03,0.2572154998779297,0.03
1710428437322216219,body,322130577,1710428437,0.03,0.03,0.03,0.03,0.2596156597137451,0.03
1710428437332233121,body,332149444,1710428437,0.030362069606781006,0.03,0.03,0.08402706682682037,0.2726741433143616,0.03
1710428437342167975,body,342106983,1710428437,0.05508655309677124,0.03,0.03,0.18884237110614777,0.2726741433143616,0.03
1710428437352208889,body,352138666,1710428437,0.06802946329116821,0.03,0.03,0.2949850559234619,0.2726741433143616,0.03
1710428437362260150,body,362168886,1710428437,0.03,1.0,0.03,0.19931668043136597,0.27095335721969604,0.03
1710428437372197737,body,372141562,1710428437,0.03,1.0,0.03,0.2509543299674988,0.27095335721969604,0.03
1710428437382197241,body,382130782,1710428437,0.03,1.0,0.03,0.28588125109672546,0.27095335721969604,0.03
1710428437392191655,body,392143732,1710428437,0.03,1.0,0.03,0.32451730966567993,0.27095335721969604,0.03
1710428437402177401,body,402136914,1710428437,0.03,1.0,0.03,0.3448057174682617,0.27095335721969604,0.03
1710428437412205765,body,412150172,1710428437,0.03,1.0,0.03,0.37308424711227417,0.27095335721969604,0.03
1710428437422226924,body,422146104,1710428437,0.03,1.0,0.03,0.4048067331314087,0.27095335721969604,0.03
1710428437432180085,body,432120652,1710428437,0.03,1.0,0.03,0.4238302409648895,0.27095335721969604,0.03
1710428437442319733,body,442156352,1710428437,0.03,0.9290450215339661,0.03,0.4759870767593384,0.27095335721969604,0.03
1710428437452155455,body,452095645,1710428437,0.03,0.6977431774139404,0.03,0.5104465484619141,0.27095335721969604,0.03
1710428437462172036,body,462117810,1710428437,0.03,0.5242342948913574,0.03,0.5412696003913879,0.27095335721969604,0.03
1710428437472220296,body,472150594,1710428437,0.03,0.3592784106731415,0.03,0.571361780166626,0.27095335721969604,0.03
1710428437482192189,body,482134067,1710428437,0.03,0.23166173696517944,0.03,0.552135169506073,0.18764150142669678,0.03
1710428437492206405,body,492139535,1710428437,0.03,0.10219943523406982,0.03,0.5177499651908875,0.13059526681900024,0.03
1710428437502174708,body,502125780,1710428437,0.03,0.03,0.03,0.4778945744037628,0.0730278491973877,0.03
1710428437512227266,body,512148921,1710428437,0.11775624752044678,0.03,0.03,0.435322642326355,0.03,0.03
1710428437522170459,body,522100873,1710428437,0.20203691720962524,0.03,0.03,0.3708806037902832,0.03,0.03
1710428437532204268,body,532117083,1710428437,0.20203691720962524,0.03,0.03,0.25367751717567444,0.03,0.1272183060646057
1710428437542219739,body,542147769,1710428437,0.20203691720962524,0.03,0.03,0.06205806881189346,0.03,0.21510407328605652
1710428437552185129,body,552118228,1710428437,0.20203691720962524,0.03,0.1211007609963417,0.03,0.03,0.28422653675079346
1710428437562207340,body,562139367,1710428437,0.20203691720962524,0.03,0.22542157769203186,0.03,0.03,0.3492046892642975
1710428437572288764,body,572189740,1710428437,0.5512479543685913,0.03,1.0,0.03,0.9287286996841431,0.03
1710428437582184397,body,582122856,1710428437,0.5512479543685913,0.03,1.0,0.03,0.8636499643325806,0.03
1710428437592209963,body,592137781,1710428437,0.5512479543685913,0.03,1.0,0.03,0.8005174994468689,0.03
1710428437602246757,body,602157147,1710428437,0.5512479543685913,0.03,1.0,0.03,0.7485766410827637,0.03
1710428437612199840,body,612123278,1710428437,0.5512479543685913,0.03,1.0,0.03,0.6362048387527466,0.03
1710428437622231491,body,622183124,1710428437,0.5512479543685913,0.03,1.0,0.03,0.5517537593841553,0.03
1710428437632232340,body,632148827,1710428437,0.5512479543685913,0.03,1.0,0.03,0.4748761057853699,0.03
1710428437642230047,body,642140209,1710428437,0.29161274433135986,0.03,1.0,0.03,0.15572884678840637,0.03
1710428437652256841,body,652139815,1710428437,0.22805607318878174,0.03,1.0,0.03,0.09862464666366577,0.03
1710428437662206446,body,662138454,1710428437,0.1698436141014099,0.03,1.0,0.03,0.04032707214355469,0.03
1710428437672285648,body,672154876,1710428437,0.11443549394607544,0.03,1.0,0.03,0.03,0.03
1710428437682252089,body,682146678,1710428437,0.061840057373046875,0.03,1.0,0.03,0.03,0.06287622451782227
1710428437692223412,body,692134780,1710428437,0.03,0.03,1.0,0.03,0.03,0.09639996290206909
1710428437702252074,body,702182242,1710428437,0.03,0.03,0.9703783392906189,0.03,0.03,0.13260608911514282
1710428437712222439,body,712144525,1710428437,0.03,0.052242398262023926,0.698729395866394,0.03,0.03,0.15995240211486816
1710428437722197162,body,722119653,1710428437,0.03,0.07741373777389526,0.49098363518714905,0.03,0.03,0.1853514313697815
1710428437732253993,body,732148888,1710428437,0.03,0.09205624461174011,0.35006844997406006,0.03,0.03,0.19829094409942627
1710428437742204385,body,742166481,1710428437,0.03,0.1036325991153717,0.2280275821685791,0.03,0.03,0.19320589303970337
1710428437752225269,body,752137742,1710428437,0.03,0.13130491971969604,0.10556715726852417,0.03,0.03,0.16413897275924683
1710428437762275150,body,762188157,1710428437,0.03,0.14814725518226624,0.03,0.03,0.03,0.13220053911209106
1710428437772247170,body,772150632,1710428437,0.08768552541732788,0.03,0.15588277578353882,0.03,0.13361221551895142,0.03
1710428437782227223,body,782147078,1710428437,1.0,0.03,0.03,1.0,0.03,0.42129233479499817
1710428437792175447,body,792122209,1710428437,1.0,0.03,0.03,1.0,0.03,0.3935108780860901
1710428437802229633,body,802138737,1710428437,1.0,0.03,0.03,1.0,0.03,0.36892810463905334
1710428437812224983,body,812150237,1710428437,1.0,0.03,0.03,1.0,0.03,0.3365599811077118
1710428437822235163,body,822160314,1710428437,1.0,0.03,0.03,1.0,0.03,0.30099552869796753
1710428437832181456,body,832128766,1710428437,0.9875438213348389,0.03,0.03,1.0,0.03,0.2458849847316742
1710428437842181875,body,842122934,1710428437,0.9260597825050354,0.03,0.03,1.0,0.03,0.1825815737247467
1710428437852207730,body,852130086,1710428437,0.8537462949752808,0.03,0.03,1.0,0.03,0.1288287192583084
1710428437862221545,body,862154683,1710428437,0.7514682412147522,0.03,0.03,1.0,0.03,0.11674167215824127
1710428437872197109,body,872122759,1710428437,0.6007513403892517,0.03,0.03,0.941929817199707,0.03,0.10950227081775665
1710428437882244875,body,882145025,1710428437,0.41146528720855713,0.03,0.03,0.8547700047492981,0.03,0.11872231960296631
1710428437892241025,body,892155701,1710428437,0.3169146180152893,0.03,0.03,0.7591022253036499,0.03,0.11703568696975708
1710428437902223473,body,902155309,1710428437,0.2626064419746399,0.03,0.03,0.6238160729408264,0.03,0.12491607666015625
1710428437912228386,body,912139178,1710428437,0.20103338360786438,0.03,0.03,0.45299574732780457,0.03,0.15111494064331055
1710428437922232936,body,922159191,1710428437,0.15045574307441711,0.03,0.03,0.20023231208324432,0.03,0.15401586890220642
1710428437932272255,body,932134228,1710428437,0.12169995903968811,0.03,0.03,0.09495368599891663,0.03,0.15899690985679626
1710428437942212838,body,942132184,1710428437,0.13206332921981812,0.03,0.03,0.034987837076187134,0.03,0.17338530719280243
1710428437952237046,body,952137306,1710428437,0.14569246768951416,0.03,0.03,0.03,0.03,0.1858711540699005
1710428437962237824,body,962152973,1710428437,0.15612664818763733,0.03,0.04323258996009827,0.03,0.03,0.1874302625656128
1710428437972222914,body,972142675,1710428437,0.1606987714767456,0.03,0.07113513350486755,0.03,0.03,0.19118580222129822
1710428437982224128,body,982154020,1710428437,0.03,0.5986902713775635,0.8770272731781006,0.03,0.03,0.23132529854774475
1710428437992217757,body,992149885,1710428437,0.03,0.6001432538032532,0.8929927349090576,0.03,0.03,0.23644483089447021
1710428438002199281,body,2117572,1710428438,0.03,0.5983333587646484,0.8977681994438171,0.03,0.03,0.23754850029945374
1710428438012215767,body,12144992,1710428438,0.03,0.5996527671813965,0.9091277122497559,0.03,0.03,0.25144124031066895
1710428438022246324,body,22156711,1710428438,0.03,0.5960243344306946,0.9002948999404907,0.03,0.03,0.26502329111099243
1710428438032227028,body,32138280,1710428438,0.03,0.5901408791542053,0.8873337507247925,0.03,0.03,0.27096784114837646
1710428438042230843,body,42140657,1710428438,0.03,0.5674816966056824,0.8525609970092773,0.03,0.03,0.2766836881637573
1710428438052230947,body,52152703,1710428438,0.03,0.5421767830848694,0.8152496814727783,0.03,0.03,0.29158496856689453
1710428438062197470,body,62127078,1710428438,0.03,0.5035820603370667,0.7546311616897583,0.03,0.03,0.30492377281188965
1710428438072248621,body,72175595,1710428438,0.03,0.4844972491264343,0.6919035315513611,0.03,0.03,0.29785001277923584
1710428438082241971,body,82155223,1710428438,0.03,0.46323394775390625,0.6231909990310669,0.03,0.03,0.3006684184074402
1710428438092235667,body,92142117,1710428438,0.03,0.43089985847473145,0.488559752702713,0.03,0.03,0.2908305823802948
1710428438102225704,body,102152655,1710428438,0.03,0.4007405638694763,0.2743329405784607,0.03,0.03,0.2778007984161377
1710428438112219805,body,112132571,1710428438,0.03,0.3488854765892029,0.15144887566566467,0.03,0.03,0.2569141983985901
1710428438122268152,body,122193938,1710428438,0.03,0.3001251816749573,0.07476481795310974,0.03,0.03,0.24454519152641296
1710428438132236757,body,132145398,1710428438,0.03,0.29532015323638916,0.038288652896881104,0.03,0.03,0.24823758006095886
1710428438142217646,body,142148143,1710428438,0.03,0.27496546506881714,0.03,0.03,0.03,0.22818821668624878
1710428438152240916,body,152155565,1710428438,0.03,0.2560666501522064,0.03,0.03,0.03,0.21539637446403503
1710428438162161221,body,162121421,1710428438,0.03,0.23969753086566925,0.03,0.033443331718444824,0.03,0.20071962475776672
1710428438172281998,body,172179301,1710428438,0.03,0.15662410855293274,0.03,0.03670337796211243,0.03,0.1938929259777069
1710428438182210995,body,182150599,1710428438,0.03,0.11595331132411957,0.03,0.046932995319366455,0.03,0.19185194373130798
1710428438192246524,body,192132746,1710428438,0.37459853291511536,0.03,0.03,0.4097248911857605,0.03,0.9233223795890808
1710428438202229018,body,202160973,1710428438,0.38574326038360596,0.03,0.03,0.41318416595458984,0.03,0.8987743258476257
1710428438212212370,body,212140424,1710428438,0.3953540623188019,0.03,0.03,0.41251158714294434,0.03,0.8583264350891113
1710428438222231562,body,222149723,1710428438,0.3925958275794983,0.03,0.03,0.4149087071418762,0.03,0.8084202408790588
1710428438232201537,body,232124491,1710428438,0.3920711278915405,0.03,0.03,0.4176149368286133,0.03,0.7150006890296936
1710428438242252234,body,242167136,1710428438,0.37757161259651184,0.03,0.03,0.41305798292160034,0.03,0.6262351274490356
1710428438252263310,body,252151333,1710428438,0.3647117018699646,0.03,0.03,0.4024463891983032,0.03,0.5651569366455078
1710428438262232286,body,262158405,1710428438,0.3237934112548828,0.03,0.03,0.37203192710876465,0.03,0.48414409160614014
1710428438272219603,body,272158466,1710428438,0.28305649757385254,0.03,0.03,0.3617168664932251,0.03,0.41393598914146423
1710428438282209114,body,282130753,1710428438,0.2329154908657074,0.03,0.03,0.3419422507286072,0.03,0.34115123748779297
1710428438292200602,body,292145099,1710428438,0.20731393992900848,0.03,0.03,0.3240327835083008,0.03,0.2782427966594696
1710428438302197090,body,302138712,1710428438,0.16763576865196228,0.03,0.03,0.2917160987854004,0.03,0.22623664140701294
1710428438312206919,body,312150108,1710428438,0.15680862963199615,0.03,0.03,0.26330870389938354,0.03,0.18754810094833374
1710428438322234188,body,322138911,1710428438,0.16359807550907135,0.03,0.03,0.25245076417922974,0.03,0.13201957941055298
1710428438332198761,body,332142503,1710428438,0.1700381636619568,0.03,0.03,0.2208276242017746,0.03,0.12405908107757568
1710428438342172322,body,342101796,1710428438,0.19184695184230804,0.03,0.03,0.18808074295520782,0.03,0.11798727512359619
1710428438352184426,body,352125061,1710428438,0.21623040735721588,0.03,0.03,0.17309583723545074,0.03,0.10605919361114502
1710428438362242247,body,362168988,1710428438,0.29536008834838867,0.03,0.03,0.1951013058423996,0.03,0.09571993350982666
1710428438372218043,body,372154527,1710428438,0.32554328441619873,0.03,0.03,0.1912270486354828,0.03,0.102131187915802
1710428438382210231,body,382146564,1710428438,0.34681427478790283,0.03,0.03,0.1862250715494156,0.03,0.09327012300491333
1710428438392239467,body,392127036,1710428438,0.33981531858444214,0.03,0.03,0.19148163497447968,0.03,0.08310645818710327
1710428438402283284,body,402172553,1710428438,0.03,0.03,0.44363927841186523,0.03,1.0,0.03
1710428438412272417,body,412181655,1710428438,0.03,0.03,0.4356929361820221,0.03,1.0,0.03
1710428438422207352,body,422154982,1710428438,0.03,0.036003634333610535,0.4229290187358856,0.03,1.0,0.03
1710428438432202483,body,432138653,1710428438,0.03,0.03,0.40360674262046814,0.03,1.0,0.03
1710428438442231527,body,442152976,1710428438,0.03,0.042902521789073944,0.4030882716178894,0.03,1.0,0.03
1710428438452216716,body,452141842,1710428438,0.03,0.03,0.40252506732940674,0.03,1.0,0.03
1710428438462193969,body,462137987,1710428438,0.03,0.03,0.379574179649353,0.03,1.0,0.03
1710428438472198013,body,472125280,1710428438,0.03471578657627106,0.03,0.3671669065952301,0.03,1.0,0.03
1710428438482212939,body,482140894,1710428438,0.045783981680870056,0.03,0.35431087017059326,0.03,1.0,0.03
1710428438492211191,body,492139818,1710428438,0.04803444445133209,0.03,0.32486850023269653,0.03,1.0,0.03
1710428438502197892,body,502149398,1710428438,0.03716610372066498,0.03,0.2992308437824249,0.03,1.0,0.03
1710428438512168756,body,512117271,1710428438,0.03,0.03,0.2765648365020752,0.03,0.9056239128112793,0.03
1710428438522187843,body,522123199,1710428438,0.03,0.03,0.23981967568397522,0.03,0.725831925868988,0.03
1710428438532182712,body,532122130,1710428438,0.03,0.03,0.2043302059173584,0.03,0.5349268913269043,0.03
1710428438542196739,body,542137851,1710428438,0.03,0.039860814809799194,0.1588369607925415,0.03,0.3991946578025818,0.03
