log_time_ns,header.frame_id,header.stamp.nanosec,header.stamp.sec,motor_a_1,motor_a_2,motor_b_1,motor_b_2,motor_c_1,motor_c_2
1700589580633846035,body,633477433,1700589580,0.030057441645150798,0.03117877711493975,0.030207681092416935,0.05544983487647911,0.04003706076075001,0.03004236190969479
1700589580643609684,body,643481222,1700589580,0.03003453726270115,0.050430738187213164,0.03180158526571437,0.030059124889649222,0.06780943013439689,0.030040664173309365
1700589580653548578,body,653433669,1700589580,0.030002433719881386,0.032863802675112234,0.030063822756414622,0.049960494907915376,0.0300017176521878,0.04847934925103413
1700589580663535660,body,663432761,1700589580,0.03000205525993538,0.06060898252753725,0.0394789746414753,0.030003082474117593,0.07600123324306168,0.030002328990299455
1700589580673615085,body,673450772,1700589580,0.03001363769880171,0.045490381313669385,0.030131843477996825,0.043938510463557685,0.041698721577893436,0.03001653376724685
1700589580683521953,body,683421058,1700589580,0.03492538892213166,0.030338432913318433,0.04114569960324625,0.038190586914294465,0.03130215520346292,0.03305555703426501
1700589580693497933,body,693419588,1700589580,0.030015394365022374,0.03760459511108761,0.030136393328088127,0.040060699457252574,0.04209146479889631,0.030018946257342884
1700589580703503504,body,703425339,1700589580,0.030024094593341547,0.033124875642807076,0.030169035236909447,0.038353101164390745,0.04792362038530073,0.030026976098484016
1700589580713523370,body,713422012,1700589580,0.0313328655008725,0.035055231845813814,0.04903851914743344,0.03475642423302899,0.03124921430889293,0.034499984319258346
1700589580723561950,body,723448575,1700589580,0.030012755834708138,0.06401817934393236,0.03013234202324145,0.0604539970470242,0.07174886452124841,0.03001600653758612
1700589580733533757,body,733419953,1700589580,0.030012293770268147,0.05364384423131971,0.03012964589514788,0.040622003387051096,0.07460592270764357,0.030014200159532173
1700589580743493450,body,743409278,1700589580,0.030995834228437755,0.03379166231461212,0.03307930534968043,0.042662487542574234,0.030624968939952844,0.033445531083157565
1700589580753484628,body,753419579,1700589580,0.030019709407574993,0.03327249076768246,0.07532030045190541,0.030022248920437034,0.03677806723760896,0.030023998958028687
1700589580763500945,body,763418938,1700589580,0.03001401046862872,0.04466905095675614,0.03015636789264999,0.04625187423044841,0.054390292287421475,0.03001702471795837
1700589580773524409,body,773420477,1700589580,0.030013167134444754,0.054443593647744384,0.030143239477622413,0.05288367835919467,0.06599083479512291,0.03001580723078256
1700589580783476532,body,783404196,1700589580,0.03001744951193954,0.04115028033372148,0.04526499501332204,0.030023773312207368,0.036249477380807776,0.030023311183026556
1700589580793544517,body,793426061,1700589580,0.030002066913518397,0.05214396236042413,0.03710419016679622,0.030003198079493015,0.07258696344731852,0.030002480991814663
1700589580803598399,body,803455429,1700589580,0.030014630576039328,0.03407809235106283,0.030140773907812057,0.05743472501982414,0.030011108216528103,0.03766845710600778
1700589580813582319,body,813478149,1700589580,0.030008561503828447,0.030250696205079964,0.030191719383973938,0.03561788121225904,0.05064326815575227,0.030030232663805837
1700589580823663858,body,823461559,1700589580,0.030014511858875215,0.06103086454203256,0.030140933775664253,0.03617174925759473,0.05432699843925395,0.030018227141088028
1700589580833607353,body,833486681,1700589580,0.051595045254143504,0.03001587643353052,0.060517457876075785,0.030024035650771348,0.030011038055520252,0.0857018762710139
1700589580843680151,body,843503112,1700589580,0.030011508391800806,0.05715836373292258,0.03014764359266119,0.04698288094299121,0.08210551140429903,0.03001226075738227
1700589580853647977,body,853482222,1700589580,0.0300119576991197,0.05174509061407536,0.030137634738700122,0.04970851585796831,0.05059493665926674,0.03001373881340573
1700589580864072307,body,863581653,1700589580,0.03578244444086003,0.030013789992578005,0.030133824929624096,0.04002909761001852,0.033968161877949765,0.030016038054510863
1700589580873616025,body,873476478,1700589580,0.030013756475323228,0.05344276655731223,0.030137955138864293,0.036790166408613725,0.06830650485161448,0.030016247428209634
1700589580883590462,body,883481951,1700589580,0.030682598052693875,0.07278018230713493,0.030593751722513527,0.047288697168260896,0.09044662625184999,0.031144488805911533
1700589580893559376,body,893445141,1700589580,0.035260203508899725,0.03001444807992555,0.030130405033168137,0.04739686852458792,0.030009341633896007,0.04278809119395597
1700589580903551908,body,903444602,1700589580,0.045649448295148456,0.030014657265476235,0.08455254320346084,0.030019882473572703,0.030009888739545573,0.06894114855860947
1700589580913548132,body,913441457,1700589580,0.030011261185245483,0.0657454451520255,0.03015148087547373,0.06227233997605791,0.085537405211891,0.030012277246778893
1700589580923592960,body,923461825,1700589580,0.03001231485845253,0.04708968014017814,0.051892694874419526,0.0300175800584113,0.04359558822172458,0.030014628241007868
1700589580933572953,body,933448661,1700589580,0.030011373304282954,0.054477513867715883,0.03015047949556362,0.04731829333372094,0.07274076665353327,0.03001284463783146
1700589580943536274,body,943427479,1700589580,0.03001155139231571,0.052623563217685965,0.030140553809600415,0.04778060525753814,0.07207042893086871,0.030012641209387497
1700589580953722375,body,953560938,1700589580,0.04393106847786178,0.03000224712450851,0.04184589632788396,0.0300034572575354,0.030001506904780633,0.04835336840789249
1700589580963680761,body,963507311,1700589580,0.030012171194377765,0.04768755497640185,0.030142621402766516,0.0414817481781093,0.05983867443286398,0.030013963089571445
1700589580973703521,body,973505675,1700589580,0.04132844824829484,0.030026683444888888,0.030207955879982446,0.039519914006819715,0.03026455411444483,0.030012280145062152
1700589580983630505,body,983469148,1700589580,0.030001802242441315,0.053819753824159815,0.0300764584140629,0.03197935450000507,0.05342972717350254,0.03000241081549406
1700589580993653497,body,993486975,1700589580,0.03554658356284841,0.03049351521823322,0.031208059472457726,0.03757119438040976,0.03026933303337344,0.031078742356099462
1700589581003700985,body,3513474,1700589581,0.030011962582798722,0.057602550566122915,0.030127605695136207,0.04491582047019535,0.056454474655745,0.030016654602918313
1700589581013571632,body,13450328,1700589581,0.030011778033434123,0.05439096158633433,0.030123814828579624,0.043848183518118075,0.09250170493824007,0.030013549368347926
1700589581023535431,body,23436813,1700589581,0.03353730633818676,0.03000635496834037,0.030771738155261626,0.03001762593063303,0.03000408210600781,0.052346933029342145
1700589581033504019,body,33423306,1700589581,0.03001310080365235,0.0411138383522369,0.03012066378391764,0.04948225785191376,0.05818391348220537,0.030013992954138657
1700589581043496951,body,43418182,1700589581,0.03000193778984489,0.05307051492865894,0.03006274323536153,0.032380173542974885,0.05045633512938239,0.03000231535843211
1700589581053516794,body,53429821,1700589581,0.036254187970693505,0.030015857618372808,0.030129290839467648,0.04167294174056089,0.030010942851361577,0.03824451523015175
1700589581063523256,body,63432646,1700589581,0.03000202980122902,0.052996592590529065,0.030061536086350586,0.03488364883596611,0.06012082498527777,0.03000252644702321
1700589581073512362,body,73423696,1700589581,0.03000227361212942,0.03371463216161242,0.04162300267933283,0.030003559168580864,0.04452239195631276,0.030002760986267005
1700589581083570447,body,83465425,1700589581,0.030013848208130807,0.04566406482254795,0.030135633074040817,0.04174281403972607,0.05754136816619651,0.030016289431567447
1700589581093708527,body,93529101,1700589581,0.030002011470401484,0.04561383934092057,0.030069993668589437,0.032880833513410236,0.06569663454166133,0.03000229630375577
1700589581103640378,body,103483389,1700589581,0.03291548803864642,0.032016063240848686,0.04447845600582009,0.03831354155992512,0.03084280782471859,0.03351362315296026
1700589581113612495,body,113468203,1700589581,0.030980890587987867,0.03589993822402622,0.031017123805010104,0.05525241338032745,0.06809091972991142,0.031146402834059773
1700589581123608234,body,123483136,1700589581,0.03001937847660536,0.041588400430897274,0.030154568491497943,0.03581847124767085,0.042098252336403776,0.030022112567451874
1700589581133587886,body,133466960,1700589581,0.030312962872215795,0.03819782355819591,0.03364882361556774,0.04516004804901587,0.053482809999677305,0.0301383898399067
1700589581143642905,body,143499346,1700589581,0.0350136979527173,0.03235771168514383,0.05706156029148059,0.033743209688763216,0.030946522130325678,0.0926103223443859
1700589581153594022,body,153454614,1700589581,0.030013119444256515,0.060743716606210314,0.03014925169178421,0.037340928456820195,0.10037055305703946,0.030011590067324626
1700589581163639248,body,163490667,1700589581,0.03002141905879143,0.04279769394817194,0.03018157727362146,0.03636481096503855,0.03126586172993822,0.030028405841398688
1700589581173722981,body,173524211,1700589581,0.030002260056376438,0.035065067572909656,0.04001648857554863,0.030003435682762786,0.04215733264405278,0.030002491234832594
1700589581183700692,body,183509447,1700589581,0.03001512301371058,0.03568507832891396,0.030139378424381493,0.04995015276059731,0.04640388801748524,0.030016242976981244
1700589581193700342,body,193516806,1700589581,0.030002221724671964,0.031950727770628136,0.030075489214377308,0.0516792181817484,0.05076530881230087,0.03000236543504054
1700589581203663967,body,203492484,1700589581,0.030013583902465852,0.05278821990713759,0.03012607801991645,0.04197931788347947,0.07767424764959178,0.03001409164285544
1700589581213663052,body,213485081,1700589581,0.03001249818366281,0.05916273221888919,0.06370256541076501,0.03001830507996238,0.054656455616705395,0.030014509581150275
1700589581223818447,body,223570151,1700589581,0.03755695288020723,0.030002110897418627,0.03475872461612593,0.030003596121480732,0.03000137671001059,0.05746072986486619
1700589581233768467,body,233539246,1700589581,0.0300020081580455,0.04279041056432842,0.03673161216536577,0.03000332039220329,0.049478080115743055,0.030002341890267462
1700589581243813948,body,243551767,1700589581,0.030244114266786387,0.031374273608985696,0.031752077466416236,0.0477423734671828,0.030395159060621117,0.03637554559522214
1700589581253767478,body,253553447,1700589581,0.030583976285489943,0.030072643003377888,0.030246146710806516,0.042217857318348415,0.05180609773615675,0.030039877563323058
1700589581263723170,body,263514847,1700589581,0.030020861063941834,0.0463837032573096,0.047076555681062456,0.030029873167646097,0.03442014622592266,0.030028274275805213
1700589581273765898,body,273573068,1700589581,0.03001249841754341,0.06388962857979903,0.030135688157100465,0.05985659471853318,0.10788508567975395,0.0300132749362212
1700589581283721235,body,283536341,1700589581,0.03000230118863391,0.03769181499214715,0.04624572599226937,0.030003107143684912,0.030001507152256326,0.053544683329524244
1700589581293713834,body,293554075,1700589581,0.03035488352023181,0.03773925146907398,0.031391212482821756,0.0444808745797713,0.04989213348490091,0.030226823814580406
1700589581303655070,body,303496684,1700589581,0.030019992633981373,0.03800392463594962,0.047752894907978696,0.030025909596197466,0.04295760366798599,0.030021984334438166
1700589581313871071,body,313545644,1700589581,0.03001476954427278,0.06235432267919641,0.030159563887113647,0.035371881198478276,0.06514935950385223,0.030017464911934216
1700589581323683768,body,323514701,1700589581,0.037465520400528085,0.030015467072085675,0.03014386000571316,0.046059144715903756,0.04054041551963652,0.03001653177052808
1700589581333622646,body,333473948,1700589581,0.0300021338758934,0.03390406606746588,0.030078670294185615,0.0331469810455958,0.03792438392354964,0.030002686458001842
1700589581343659360,body,343496796,1700589581,0.03000209597081709,0.051493378800879175,0.030073828078384424,0.03350478436412962,0.05686635855933205,0.030002657568538826
1700589581353765405,body,353548675,1700589581,0.03930681851429369,0.030016547177145216,0.06982642675912792,0.030023071066185673,0.0300109184359263,0.06249200625427027
1700589581363783886,body,363559881,1700589581,0.03001352408235795,0.046226064532755545,0.03015050109416888,0.061173479622142486,0.08159645580327342,0.030013949548206846
1700589581373846953,body,373618914,1700589581,0.030325434254663216,0.06556161205264009,0.053723745709439295,0.031762270346845756,0.06273043564432525,0.03116613848249625
1700589581383712264,body,383530462,1700589581,0.030302983075009074,0.03759638568547125,0.03104249362063396,0.04975410889593161,0.048218625666895845,0.03022225490261613
1700589581393638019,body,393498062,1700589581,0.036257721434673505,0.03047685267089407,0.030738917502469074,0.03496812863897794,0.030238814823510596,0.032564409541247355
1700589581403691122,body,403487274,1700589581,0.030013538148407813,0.05327951856293044,0.03014355825171357,0.03800900577993461,0.08025266900342908,0.030015221070957134
1700589581413762322,body,413539819,1700589581,0.044181211908809276,0.03001560096556488,0.08316360488677708,0.030021312678498047,0.030008497263176573,0.11984787760015193
1700589581423723252,body,423537627,1700589581,0.03001298534513867,0.04255276808954989,0.030154819752663792,0.0660027632868315,0.08012427648751129,0.030010721427658985
1700589581433655871,body,433493977,1700589581,0.030032050902815226,0.04484807213218016,0.03034377497239614,0.030921074685991316,0.05296228028875679,0.0300298913929901
1700589581443718700,body,443519160,1700589581,0.030136772736207452,0.06543456899382613,0.03083717947650542,0.047479136953935804,0.0711270311186999,0.030139946236977178
1700589581453617627,body,453474308,1700589581,0.030013230843242512,0.03655995979636768,0.030134469059793674,0.03960810476731144,0.04413168138955987,0.0300131143372433
1700589581463602221,body,463460298,1700589581,0.03296294894838694,0.03000235353280112,0.03603418917218823,0.030003629344646895,0.03000143710119493,0.05525900527501596
1700589581473625091,body,473478267,1700589581,0.03935446141115523,0.03001868323803539,0.0301576479591066,0.03694100020696655,0.03551570592908155,0.0300202427152122
1700589581483548595,body,483448237,1700589581,0.030012795767986225,0.05408810942018937,0.030130901820223283,0.045626588248369966,0.07297973689755617,0.03001435308942148
1700589581493552659,body,493459119,1700589581,0.031983738237959886,0.03000255055136369,0.0300710494404021,0.036506512250233596,0.03000160448028681,0.04556779843884638
1700589581503567660,body,503461543,1700589581,0.030011970264874017,0.060551191430199096,0.030124424276514752,0.041417198128018924,0.08137982045274711,0.030012950436959757
1700589581513585777,body,513461195,1700589581,0.030002027477340276,0.0486300547270638,0.0392539370063094,0.03000337336170363,0.049805843857424564,0.030002360632684077
1700589581523536991,body,523439832,1700589581,0.7501713010648102,0.03000000002594947,0.030062533882304406,0.8871749801779257,1.0,0.03
1700589581533544335,body,533441700,1700589581,0.3963780422271183,0.030000000052858012,0.030058087257250427,1.0,0.7467800101577832,0.030000010467443595
1700589581543511171,body,543425413,1700589581,0.5459220853720597,0.03000000017500325,0.030054960391860154,1.0,0.8904447303310442,0.030000001586487773
1700589581553553118,body,553440789,1700589581,0.45723788040854574,0.030000000011283407,0.030052768076149025,1.0,0.8271446714357787,0.03000000005990401
1700589581563601616,body,563460679,1700589581,0.49166048293033104,0.03000000025957088,0.030051225023803158,1.0,0.8586148168167674,0.030000000721722535
1700589581573610512,body,573468516,1700589581,0.4742094318250244,0.030000000209895104,0.03005014330527355,1.0,0.8549682884401106,0.030000001299568115
1700589581583587851,body,583433134,1700589581,0.4657361571622912,0.030000000220704016,0.03004938826151237,1.0,0.8550067992486695,0.030000000433239707
1700589581593604082,body,593455487,1700589581,0.45841319398576297,0.03000000010967835,0.0300488567217092,1.0,0.8474047989347884,0.03000000011404076
1700589581603597987,body,603450627,1700589581,0.4602407365408916,0.030000000025020675,0.030048483490096194,1.0,0.8431828546153723,0.03000000066103468
1700589581613601653,body,613462958,1700589581,0.45706445252546224,0.030000000005688126,0.03004822103016912,0.9999999999970769,0.8374939188603578,0.03000000008564124
1700589581623602687,body,623465102,1700589581,0.4472876567799092,0.03000000000060033,0.03004803596397056,1.0,0.8360567617775044,0.030000000103920343
1700589581633710802,body,633498784,1700589581,0.4422180813787568,0.03,0.030047904415149197,1.0,0.8467315093389923,0.030000000697430237
1700589581643772049,body,643521679,1700589581,0.41410994894025377,0.03,0.030047813939758538,1.0,0.8674926539453448,0.0300000001849724
1700589581653700174,body,653500251,1700589581,0.4007405447824876,0.03000000151470122,0.030047746570849687,1.0,0.859387097437442,0.03000000188046716
1700589581663676702,body,663501530,1700589581,0.3959534535284276,0.03000000006640397,0.030047704371555073,0.999999999998405,0.8497310599360618,0.030000000061602194
1700589581673765795,body,673539134,1700589581,0.36480824495845227,0.030000003219339048,0.03004767322403733,0.9999999999308368,0.8683270442023885,0.030000002978581332
1700589581683694659,body,683520007,1700589581,0.331321031714614,0.03005055540601204,0.03011198808831796,0.9396391372177368,0.8100094153147871,0.03002656388319009
1700589581693662846,body,693490909,1700589581,0.2685600843456844,0.030056277442116752,0.030116573130456882,0.7912670800360095,0.6701911070050777,0.030028306148310722
1700589581703636939,body,703486801,1700589581,0.20118648600916908,0.030066367066252698,0.03012316571558921,0.7283372035117459,0.6396946408987564,0.03003057846587949
1700589581713622726,body,713462669,1700589581,0.17502652536941765,0.030078107075862944,0.03013138933718963,0.6559403065090746,0.561183770519183,0.03003369901080655
1700589581723648822,body,723499166,1700589581,0.11892363189316976,0.030096791926766956,0.03014178913332768,0.6070211697652544,0.5221614230057661,0.030037638445491014
1700589581733710762,body,733513394,1700589581,0.06631054136978315,0.03011948701814798,0.03014605118671298,0.5333312702211406,0.46631085574958414,0.03003892015192831
1700589581743766649,body,743528750,1700589581,0.030013090765535384,0.04409836257260882,0.030064649963578712,0.4937121011707511,0.434970091158394,0.030006642414581015
1700589581753704480,body,753524319,1700589581,0.0301229036923998,0.08383053603649594,0.030188354073550132,0.4276300240761635,0.33760069921503,0.030056687576270943
1700589581763803967,body,763614681,1700589581,0.030126980287040323,0.1561226933283161,0.03019730178969234,0.3678180121746501,0.3132739666050011,0.03005986586104982
1700589581773686985,body,773509323,1700589581,0.030141685120933237,0.1455108449287561,0.03022241823913015,0.33172888309004217,0.27712194606555957,0.03006980910562062
1700589581783684288,body,783524621,1700589581,0.030155860297104386,0.14207865578507584,0.03025416291236623,0.29189380504098256,0.210842390322489,0.030085194911518804
1700589581793639705,body,793489500,1700589581,0.030166897123588252,0.14821820073054778,0.03029665252998987,0.23992085537920435,0.17973416107298357,0.030104158411506095
1700589581803621386,body,803491477,1700589581,0.030165575562758472,0.18096521267122326,0.030346369765168454,0.211368320172316,0.2070652632743894,0.030118298012074385
1700589581813623003,body,813473315,1700589581,0.03017846201751267,0.1596235222080882,0.030425159948593922,0.16867338439529797,0.12048074721284728,0.030154349195524628
1700589581823770179,body,823529075,1700589581,0.030192260694993422,0.11743804617550549,0.030503676352127803,0.12947602230853802,0.09566819124993872,0.030189949349638385
1700589581833793894,body,833539976,1700589581,0.03022915901470649,0.10892623312729553,0.030663018748087054,0.10736611239393014,0.06869274180161025,0.030259299583950596
1700589581843749461,body,843526968,1700589581,0.030038660690096548,0.10607766046062246,0.030178319475556246,0.05046762686464297,0.030023691040586175,0.0793694148996614
1700589581853813668,body,853570802,1700589581,0.030047100505736526,0.08555289947626359,0.19325829585290305,0.030029043508958072,0.03003032916922762,0.14171534972566424
1700589581863875414,body,863643770,1700589581,0.03005226302976243,0.06694071147151444,0.09593424408188625,0.03003821594720347,0.030027221085211633,0.2162902713716686
1700589581873781877,body,873547794,1700589581,0.030010239716838076,0.03731956556472887,0.20710275349929422,0.030005645468913943,0.030004431566741367,0.16978576672401915
1700589581883653197,body,883492342,1700589581,0.03078405465072496,0.08839094293065924,0.22769534444255254,0.03033837631935012,0.030257881050618562,0.24804068868359963
1700589581893599054,body,893468349,1700589581,0.058186249017318115,0.03030613715526388,0.24067641013039193,0.030363164301739944,0.030262587880189554,0.2708313936656323
1700589581903630338,body,903465664,1700589581,0.07170501996916989,0.030691072497470467,0.24262687810625272,0.030312076601502858,0.030209942806343135,0.3109725013974927
1700589581913655093,body,913487973,1700589581,0.14049599468844562,0.03046375770848353,0.17763065999207509,0.030243766318138413,0.030131242179012866,0.31505252923001986
1700589581923807446,body,923562000,1700589581,0.13664202847178542,0.03040681006824166,0.24839829167862504,0.030220605016141263,0.030117723047115696,0.3404199027127439
1700589581933806649,body,933533519,1700589581,0.14518517960020702,0.030339368240184912,0.1868970995550452,0.03022957070967222,0.030101670062300245,0.3538779453460154
1700589581943815552,body,943546211,1700589581,0.1543189161147773,0.030305826887959554,0.2605263722963749,0.03020040081158527,0.030092004361300963,0.3733942182488131
1700589581953760855,body,953531674,1700589581,0.18019915092533667,0.030261831134492836,0.2051256259220754,0.030209023557419258,0.03008330191749957,0.3886985728542819
1700589581963750080,body,963532635,1700589581,0.21095420080408633,0.03022351166789096,0.2256946851687952,0.030208532891658556,0.030077551751079207,0.40591194954569293
1700589581973612575,body,973471719,1700589581,0.2433991961727427,0.03018637861584014,0.21386996449118412,0.030214668494920282,0.03007226415635764,0.41894598185625315
1700589581983716040,body,983506215,1700589581,0.2303660661581953,0.0301700482997373,0.191135200530229,0.030231973015192884,0.030067415285864776,0.43467481135277714
1700589581993648385,body,993488006,1700589581,0.2704709797114994,0.030148796839388092,0.20458447800875793,0.030239564559964304,0.030064453908045585,0.4379983162288537
1700589582003655799,body,3513895,1700589582,0.24564535221096098,0.030145806221684637,0.14688406590320957,0.03029519289640955,0.030065555222466456,0.415813360249523
1700589582013646278,body,13470276,1700589582,0.30621370630353184,0.03012551633927065,0.18522768857551036,0.030300917122689088,0.03006243172415745,0.4409190394743124
1700589582023642037,body,23481610,1700589582,0.2843632493756881,0.03012433590372516,0.14996922092010687,0.030363947325842064,0.03006386071592365,0.43878928145644713
1700589582033633191,body,33483631,1700589582,0.3135518411486802,0.030119270997874953,0.14004982754231834,0.03044999586564388,0.030065332246678428,0.44109180104453866
1700589582043675290,body,43499665,1700589582,0.3076582358959578,0.030119417597490695,0.1300587154618493,0.030566165749818207,0.03006876048650489,0.4261471445218121
1700589582053708524,body,53528189,1700589582,0.3364750271157511,0.030104172722079766,0.150749162010241,0.030535075144854696,0.030062744698663584,0.4542745632343531
1700589582063804189,body,63579357,1700589582,0.3256833552906931,0.03009825462322216,0.1615558245573256,0.030505819617417978,0.030061052836492956,0.4391067825150321
1700589582073801870,body,73585207,1700589582,0.30204193566048876,0.030098305814784062,0.16704914128247567,0.03047651923244205,0.03006121122205377,0.4269114989700801
1700589582083761758,body,83539486,1700589582,0.3305890547930566,0.030107710397629137,0.12099018944662183,0.030664104799854472,0.030071611150440773,0.4035778909837232
1700589582093762472,body,93521663,1700589582,0.31722116735618,0.03010381583602201,0.12441571044974423,0.030661432457391124,0.030070156623112694,0.4140987064715007
1700589582103767328,body,103537663,1700589582,0.34483968315327096,0.030094405707044962,0.13625529013200527,0.030634343175594814,0.030067090362870197,0.41218206517961903
1700589582113707729,body,113510185,1700589582,0.3504370908766025,0.030092308542604997,0.1195873634859564,0.030598855450034903,0.030067014414088312,0.4307696128048283
1700589582123657153,body,123483463,1700589582,0.3469224194297465,0.030085195156692238,0.10352286832748557,0.030314133833092567,0.03006404539098203,0.4079909127649614
1700589582133645205,body,133495456,1700589582,0.32872872728940267,0.030083096464438873,0.11616194501432753,0.03044877606305624,0.03006356358990429,0.39355973907596326
1700589582143668052,body,143490192,1700589582,0.34306726874699894,0.030083352359035826,0.10549214949967332,0.03039407838576819,0.03006525295664972,0.40017845318490475
1700589582153657658,body,153491228,1700589582,0.3313818072908312,0.030084770010906283,0.10292842021470311,0.030516353108927783,0.030067428471410234,0.38730346169312224
1700589582163657931,body,163501160,1700589582,0.3449376258311941,0.03008410595611474,0.10488512794130928,0.03073639068488429,0.030068289219815542,0.3942062251282947
1700589582173814416,body,173576875,1700589582,0.3290190280343559,0.030086580966047785,0.09293183629469322,0.031140973117794915,0.030070640381863623,0.38500171470111727
1700589582183779514,body,183531659,1700589582,0.3442246895650279,0.030087373680656424,0.08224905595917276,0.03273356556006941,0.030072686348588985,0.38753893977453135
1700589582193650859,body,193491420,1700589582,0.3237678361881341,0.030089426049253628,0.08544607439540043,0.03354011404378204,0.030073944685097737,0.38244331733666453
1700589582203615061,body,203470976,1700589582,0.3307429870752967,0.03008466486138608,0.14617098990170302,0.03102794474179359,0.030070406076301875,0.38204547065253824
1700589582213687497,body,213515370,1700589582,0.3327310749917335,0.03008340867600495,0.13576940392563686,0.030653540550405086,0.030068862958678354,0.39383839036645
1700589582223660630,body,223504293,1700589582,0.3324258666533146,0.03008650424772126,0.08998165795630379,0.030413424682818203,0.03007218274110949,0.37970064245643353
1700589582233649309,body,233486900,1700589582,0.28934173974701644,0.030091763840847736,0.09523454297759243,0.03067436674343976,0.030076715589778324,0.33760718406568657
1700589582243659540,body,243497771,1700589582,0.34721565361282847,0.030089277132218394,0.09410720523791771,0.03123726058946035,0.030076678043753618,0.3788001547172409
1700589582253658822,body,253488640,1700589582,0.3263630299537846,0.030087794923555917,0.1162974913472437,0.03095010793280995,0.030075216245745474,0.3744008034814731
1700589582263875951,body,263542128,1700589582,0.3070901484030211,0.030093445708437805,0.07737871955192911,0.03201430883625332,0.030080089265954138,0.3516832027138716
1700589582273754000,body,273560789,1700589582,0.32223183414166195,0.030095295744740274,0.06508412967340926,0.036274450222328995,0.030083837930254168,0.3462683301347565
1700589582283638780,body,283487682,1700589582,0.3159565542828903,0.030087981000980726,0.1733145550165236,0.03085033097331941,0.030075542542408552,0.3759322638042193
1700589582293649001,body,293498012,1700589582,0.3017503394509837,0.030094899466708867,0.0762857924576789,0.030558478881023313,0.030082580774511616,0.33527418750767635
1700589582303647211,body,303496373,1700589582,0.33813476670448567,0.03008685376472608,0.15092298495550577,0.03069056888503978,0.030076608387216264,0.37083213514678265
1700589582313648811,body,313477073,1700589582,0.3092103480465814,0.030096289797933762,0.041515602883804306,0.038963857638434365,0.030085085851518787,0.344531350419201
1700589582323658482,body,323495954,1700589582,0.2948001524584114,0.03009456214374529,0.11505869404152878,0.030870334935349793,0.03008363043033218,0.3321697882151621
1700589582333670049,body,333515332,1700589582,0.31661786884810605,0.030098511952282817,0.0608873028361572,0.034821890676001443,0.03008867853959304,0.3400466189381701
1700589582343716636,body,343523120,1700589582,0.2888843789797763,0.030096083456121237,0.13003065113006354,0.030899452427227168,0.030086669510731728,0.3205434490252668
1700589582353789108,body,353554021,1700589582,0.3221179101160732,0.030099620072318017,0.05565497680529862,0.03603021614739686,0.03009083532217749,0.34644813186690515
1700589582363675482,body,363484825,1700589582,0.29198512944702615,0.03009663925738658,0.12797156743214122,0.030952118266233685,0.030087493252291053,0.328047132358097
1700589582373662727,body,373481552,1700589582,0.30047452682859943,0.030102935073312298,0.04304005631221888,0.042907056156291326,0.030094680260570158,0.3185621761668152
1700589582383669577,body,383506825,1700589582,0.2777562729018557,0.030097137069788383,0.1792423516454595,0.030708532775156273,0.030086664589052164,0.3297870771149922
1700589582393716082,body,393541086,1700589582,0.27264135905003195,0.030002056998438872,0.08606756101050168,0.030019241554914818,0.030001833000968536,0.3075651924387515
1700589582403663322,body,403501687,1700589582,0.30792069663480925,0.030105965744886824,0.05787338434698704,0.03310022610649486,0.030097275522391737,0.3207952644496617
1700589582413670571,body,413485569,1700589582,0.2691031166918139,0.030104481285703793,0.12353572129641355,0.030658649666403772,0.0300937563560732,0.31378808457653135
1700589582423635962,body,423473213,1700589582,0.30102800498985904,0.030108489469087146,0.04085505151478463,0.0428456715146775,0.03010182697569886,0.3000002081105754
1700589582433660980,body,433491750,1700589582,0.28705222189399465,0.030108083922674517,0.08417672335045397,0.03264591603006316,0.030101586337983176,0.31018973159849134
1700589582443764153,body,443537247,1700589582,0.24705290535186977,0.030117153048591565,0.04629550290704454,0.04374421203661828,0.030109079855771072,0.2741534711325169
1700589582453781850,body,453551907,1700589582,0.28600350160991017,0.030104768189283294,0.1896759840643767,0.03071167792316742,0.030096544295579643,0.3204329720101842
1700589582463872527,body,463616366,1700589582,0.27404658243033986,0.030112497219960687,0.031154824334583685,0.0523505273363969,0.0301055268311173,0.28486711945913656
1700589582473764024,body,473580885,1700589582,0.28756750786984914,0.03011374696776942,0.05570723013128112,0.03513800627033553,0.03011067101919494,0.2865775516399513
1700589582483724077,body,483508437,1700589582,0.23944632558174395,0.03011990891807206,0.0825862810856617,0.03211305133427904,0.030114285440818362,0.2690507057783089
1700589582493723293,body,493529115,1700589582,0.2839890902925242,0.030118881604651766,0.04632049096145395,0.04318897293771849,0.03011788311145661,0.2754136909507461
1700589582503705436,body,503522862,1700589582,0.24433277247478735,0.0301220528441083,0.09416307174750391,0.032053324679942485,0.030117726025056857,0.27543865121266975
1700589582513747793,body,513495882,1700589582,0.2551900074573389,0.03012064437557777,0.10812556331344468,0.030757401004785464,0.030117857724631734,0.26466691917543206
1700589582523819518,body,523600553,1700589582,0.24183187944558263,0.030128955368504403,0.057988771306828495,0.03440637609081595,0.030123882058297587,0.26621933680927923
1700589582533644512,body,533495502,1700589582,0.25045120648309943,0.030129396530225054,0.07494587632139797,0.03288225634477401,0.03012553596941112,0.2621834164847932
1700589582543641877,body,543488299,1700589582,0.2245969554042817,0.030136973106432024,0.05908716565879808,0.03621816263487215,0.03013305096913085,0.23859413116471606
1700589582553672052,body,553495374,1700589582,0.24813561870425005,0.03013319619057797,0.09603979511968964,0.03149282808972568,0.03012871280235205,0.267702378197158
1700589582563755455,body,563532899,1700589582,0.2607636141665132,0.030131740660926724,0.07241274003565855,0.03292387702702489,0.030130274147539132,0.2628013679342497
1700589582573656793,body,573501553,1700589582,0.22132581694329775,0.03014001074620918,0.05209590381858861,0.03889043140346923,0.030135075725455786,0.2473183136663627
1700589582583661597,body,583483343,1700589582,0.23164462830764523,0.030141943595653028,0.05066999742545805,0.04106489194574747,0.030142441096904646,0.223759124493831
1700589582593667085,body,593511875,1700589582,0.24537532506176307,0.030136510862065168,0.10664553887529649,0.031248981874005925,0.03013488166000029,0.2653805418947606
1700589582603795690,body,603519983,1700589582,0.21785511916497524,0.03014514559169003,0.042966174735388205,0.04264106736771781,0.03014292598480404,0.22993416271984815
1700589582613753739,body,613539600,1700589582,0.26853122100141175,0.030136517602599132,0.03933378564794349,0.050812411128997065,0.030138550215537827,0.26155991045163995
1700589582623753727,body,623537632,1700589582,0.2015827555969035,0.030147507750950917,0.05096626155718981,0.040843765981026396,0.030151859192765133,0.20128944864747186
1700589582633829914,body,633562517,1700589582,0.1938823837534449,0.030157767414993944,0.06712672977170996,0.03513502344094724,0.030153848421832923,0.22972359785068092
1700589582643818317,body,643554816,1700589582,0.21975690424226518,0.03014993836340443,0.12401461645598792,0.03046181712709052,0.030149257626522905,0.22441303229762904
1700589582653816923,body,653587150,1700589582,0.23027872908411948,0.03014060423795143,0.03075264816648601,0.09653902070250694,0.030141946774609928,0.2271342645833491
1700589582663786064,body,663542763,1700589582,0.20530900303749075,0.030022681293869268,0.12217709258167078,0.030115225894529196,0.03002287470697282,0.21805564429720659
1700589582673801640,body,673574370,1700589582,0.21557056923778764,0.030003074705408507,0.09236488792058985,0.030016972889765316,0.030003043356158304,0.23514163751623438
1700589582683787263,body,683528997,1700589582,0.18407072146501227,0.03016461503934754,0.03256203973741592,0.04401086276210526,0.030162020224312438,0.19427535724914557
1700589582693759291,body,693539772,1700589582,0.18402150196801936,0.03000330174334605,0.09425324021044972,0.030019297636610758,0.030003290359403603,0.19180497124456755
1700589582703721582,body,703518825,1700589582,0.21851319794091562,0.030169338859690097,0.0451186316848994,0.03631885130843783,0.030168984357991827,0.2266583302907066
1700589582713810286,body,713556829,1700589582,0.16069965173126805,0.03018427729767033,0.04034290714092087,0.042600994759451435,0.030184213500853017,0.16731343877887092
1700589582723777825,body,723538538,1700589582,0.2297648678190519,0.030166910710239195,0.03205722756128487,0.06178927663940131,0.030176110253542766,0.20828141701308983
1700589582733729557,body,733538261,1700589582,0.16637374806721547,0.030030381166527308,0.11299983924830201,0.030180310550890793,0.030031366266366828,0.18183376111361133
1700589582743740524,body,743546457,1700589582,0.19690115205866932,0.030027659530579457,0.03042005073005116,0.07576633508300218,0.030029063405519286,0.18764776520377527
1700589582753798281,body,753549701,1700589582,0.16511244710952203,0.030003695026344108,0.12555585485147136,0.030015546854088075,0.030003840400022044,0.1765288144987992
1700589582763783276,body,763543290,1700589582,0.17388459941261525,0.030194217522037856,0.035302351084388804,0.03857830129304717,0.030195292824074835,0.18918050644597276
1700589582773731996,body,773531227,1700589582,0.18713680856742462,0.030194125299071495,0.05387365738892507,0.03326077744376437,0.030201889434509636,0.18106547763250122
1700589582783754636,body,783535544,1700589582,0.19620658888023534,0.030190533916998684,0.04544421645519227,0.038558100406959145,0.030199535636566514,0.1940944476776725
1700589582793718067,body,793523096,1700589582,0.18305284878568054,0.03018809944781235,0.10442183129932807,0.030267515800328985,0.03018697117188903,0.21340947527209117
1700589582803645041,body,803501273,1700589582,0.1751354346708294,0.030181119100991798,0.030309998173525154,0.08481684569256168,0.0301941604315667,0.14158907949421165
1700589582813671540,body,813494685,1700589582,0.17823780568197856,0.0300037677668,0.030161427354883752,0.06816019015512444,0.030004263664799417,0.14830851914765997
1700589582823662822,body,823510534,1700589582,0.1465326728470727,0.030003917236256276,0.07692942260753997,0.030017247933213143,0.03000423348272936,0.1642486084158102
1700589582833679162,body,833478604,1700589582,0.16817452624440132,0.03021191384796651,0.0653004148913844,0.030762429375345183,0.030222405242666745,0.17820795260997108
1700589582843632563,body,843487782,1700589582,0.1419892151123495,0.03022663485256066,0.06077065556767314,0.03203431301927479,0.030227545784916765,0.16123422915892285
1700589582853806576,body,853563837,1700589582,0.16143631304986014,0.03021187385502443,0.030880894797231575,0.09780196369353694,0.030227219468895235,0.1315834360839403
1700589582863789262,body,863568413,1700589582,0.16621492902180338,0.03000411473642661,0.03016177927406599,0.04868181420985015,0.030004548047657113,0.15180039889627114
1700589582873821172,body,873589238,1700589582,0.16128000999923803,0.03000417227845301,0.03015541074720854,0.05390486553997293,0.03000476155964977,0.1394546740812439
1700589582883789090,body,883533636,1700589582,0.16200604017907488,0.030224072124740202,0.03756842855827447,0.04061815545554725,0.030238187108534594,0.18102673294428762
1700589582893676658,body,893522658,1700589582,0.15358869278877751,0.030033312384510024,0.030498161542289123,0.07741458301480522,0.030038742704325303,0.11220955628784525
1700589582903675269,body,903507345,1700589582,0.14332549298796857,0.030004569797033094,0.030132383685891974,0.06152047231847297,0.030004925553321043,0.1626483594441214
1700589582913731138,body,913577634,1700589582,0.1408612822801567,0.0300349894569323,0.15077030503371222,0.030102318278420352,0.0300380631988807,0.14028777902330627
1700589582923812178,body,923576707,1700589582,0.1444305716867147,0.030004866023829846,0.030145903785349096,0.06374746715900942,0.030004958318498018,0.16319661160599613
1700589582933713992,body,933504874,1700589582,0.14016862139447028,0.0302566741281408,0.04995908311640591,0.03164380652103097,0.03025971704654791,0.14654248277071075
1700589582943802613,body,943571807,1700589582,0.14255686667267475,0.030263632398998496,0.04621850192857993,0.034648129118284285,0.030269822029557195,0.14164830336236572
1700589582953817791,body,953554380,1700589582,0.14237577246307143,0.030004870148175735,0.03016211390009385,0.07462784207842575,0.030005066470260213,0.13756861986535862
1700589582963709350,body,963560240,1700589582,0.10589585422846953,0.03000527201764054,0.07899592396598036,0.030017251379876417,0.03000536856661065,0.11968535149563224
1700589582973681335,body,973510792,1700589582,0.12746564522042786,0.030005450565620727,0.030159820809573606,0.07477808541631226,0.03000558074394649,0.12286968623945876
1700589582983702606,body,983516590,1700589582,0.1363089204238051,0.030284743815709225,0.031541361154719394,0.10617897226300742,0.030305663803107362,0.11921438169003927
1700589582993672940,body,993496200,1700589582,0.15378206929905064,0.0300760665724284,0.031100075056530948,0.03923850303906662,0.030084655309781536,0.13648617369499227
1700589583003750096,body,3566705,1700589583,0.10777409677539954,0.03000566426295532,0.030136901084036005,0.05617026677666241,0.030006203250950166,0.10342012181728331
1700589583013653989,body,13512193,1700589583,0.14678982267710514,0.03000538176031836,0.030128992979772697,0.06064353492395218,0.030006050695992527,0.12951392204411571
1700589583023661817,body,23508113,1700589583,0.10114841227034241,0.030353836899582758,0.0332185337907913,0.04137682855912903,0.030385185275648686,0.11629518516489515
1700589583033806706,body,33568897,1700589583,0.13776793804107426,0.030005482608360397,0.030127124299278423,0.05453901885888118,0.030005808259526645,0.1347925106461384
1700589583043892756,body,43638970,1700589583,0.12704333296201678,0.030315277741929877,0.03941482752346715,0.039334989904166284,0.03032617134947578,0.13830879940199428
1700589583053689252,body,53505353,1700589583,0.10471178003388779,0.030077959805128868,0.07339832547982326,0.03040119972191012,0.03008038474986028,0.1085764386222813
1700589583063601529,body,63471566,1700589583,0.12592299189816586,0.03033069914275468,0.0305877212135344,0.08284363805114876,0.03034868480247556,0.12133961427766986
1700589583073727229,body,73518961,1700589583,0.11714373651457771,0.030040575481263068,0.030361008554676563,0.09706605182122105,0.030045665106630818,0.08592833957579112
1700589583083668442,body,83506436,1700589583,0.09917396577357004,0.030414692320055118,0.05583064262394873,0.030448933567637476,0.030462437092047743,0.11150452291554411
1700589583093652036,body,93503115,1700589583,0.11245740571373632,0.030080059167207303,0.03093059825135004,0.044983728171552675,0.03008145479608555,0.1248168987939625
1700589583103672911,body,103518002,1700589583,0.13092361846966943,0.03000600304240061,0.030141512963787184,0.05354018316708696,0.03000598024340357,0.1407823183221478
1700589583113703970,body,113524193,1700589583,0.09834194455526332,0.03007623054606909,0.031005655578363742,0.04768367931182378,0.030073971069914898,0.11267247696032015
1700589583123823231,body,123609685,1700589583,0.11521080426475497,0.03000659196764674,0.13953698299151493,0.0300155468585493,0.030006260637966464,0.1363020774658679
1700589583133780327,body,133578479,1700589583,0.11895770152901777,0.030549699669910748,0.032074042080799524,0.14339061942256906,0.03086430780746592,0.06419574225316416
1700589583143710165,body,143536645,1700589583,0.08027651836146939,0.0301043574544978,0.03093607771812465,0.03561235581041571,0.030117623238474524,0.06378619925312219
1700589583153689506,body,153503137,1700589583,0.13346010937435626,0.03041184268782253,0.03198430286657583,0.10333294589366267,0.030542515698145634,0.10357396522124718
1700589583163709785,body,163539205,1700589583,0.08998744076099631,0.030049094021748324,0.030342038201209082,0.06993227353375221,0.030055437979742236,0.09262820371343033
1700589583173679540,body,173527800,1700589583,0.12388515596322427,0.03000671758115992,0.0301298696309071,0.05027989904733609,0.03000743416067,0.11806522899747955
1700589583183644884,body,183498990,1700589583,0.03462490240242587,0.030001251267372762,0.030083198275239743,0.03269418733483043,0.03000124754265104,0.05611179659099066
1700589583193645265,body,193498868,1700589583,0.07999317780483235,0.03010778341895853,0.03025131835920544,0.03499418338020838,0.03009855473674023,0.10720441504519704
1700589583203658953,body,203481693,1700589583,0.07520573399441419,0.030086406846762233,0.030753909450503915,0.05357427210295667,0.030077295924198274,0.09329976462862494
1700589583213617605,body,213479070,1700589583,0.13855323740852596,0.03049599047474694,0.031952927878674375,0.0880677470814298,0.030570246983658095,0.10518715750425812
1700589583223691719,body,223532701,1700589583,0.08485670139509008,0.030116763663725815,0.06276700079543077,0.030413937064864557,0.030123762040730105,0.0844796116881347
1700589583233695754,body,233519496,1700589583,0.09701912893032111,0.030087907928633667,0.03083223912861937,0.04893322933159689,0.030088271684781537,0.10620038823754317
1700589583243660189,body,243514200,1700589583,0.07495392933677034,0.03007540034997641,0.030613685976649974,0.05726096150308922,0.03007601057309897,0.07519936924786298
1700589583253682553,body,253507810,1700589583,0.09473704162976974,0.03005528350648256,0.03039176860543513,0.08484510657501244,0.030061706623440244,0.05990358351268865
1700589583263809056,body,263578058,1700589583,0.09779127173561292,0.03005553980280442,0.03038748551718458,0.0747342175402715,0.030063498469814796,0.08149981260199375
1700589583273648110,body,273490933,1700589583,0.08334830166662127,0.030129432471196763,0.05291878007617249,0.03038287455748852,0.030148220708907197,0.08070210090184325
1700589583283650517,body,283487476,1700589583,0.06014109985854946,0.03130597166842372,0.031410840376405146,0.06565142820154975,0.03112519184117473,0.06946815866434006
1700589583293638811,body,293484699,1700589583,0.07214402969572935,0.03007955920303102,0.030522500515809937,0.05593106599184064,0.03008328721783164,0.05973409470342029
1700589583303631307,body,303490494,1700589583,0.0944889013330283,0.030128412638921933,0.06353962182148787,0.030398648370281747,0.030130281338487417,0.1091863556375008
1700589583313662074,body,313463950,1700589583,0.06980008054739065,0.03111097426717902,0.03794363184868977,0.03906234130674793,0.030951717827864697,0.0958584515562874
1700589583323642245,body,323499258,1700589583,0.058480389953781,0.03149766285260852,0.03425830241765105,0.04659614329804615,0.03103845875372091,0.06318090986042506
1700589583333593480,body,333475221,1700589583,0.1062255324737515,0.030057817235187606,0.030386190210442945,0.08932062229818546,0.030063065621108206,0.06470430317276725
1700589583343606985,body,343488265,1700589583,0.06323288936166596,0.030009289396618316,0.03011837613799934,0.08044492075654788,0.030009935903963877,0.05186292438926182
1700589583353675227,body,353494746,1700589583,0.038703634809185365,0.03001200548242822,0.11592831515295036,0.030012779063410405,0.030012256347576753,0.04793304972503789
1700589583363632988,body,363488335,1700589583,0.06027473227398998,0.03124282690994481,0.031778047508849175,0.04062738097223697,0.030962386818079418,0.07892583713511053
1700589583373641086,body,373494854,1700589583,0.05906405151251498,0.030010507665538692,0.030149419533606586,0.07539528872208241,0.0300110958493706,0.038257185271926765
1700589583383624128,body,383502604,1700589583,0.08445432214764168,0.030010648189842403,0.03014751139414857,0.05023798360985297,0.030011673858021372,0.056118024841034765
1700589583393557586,body,393459745,1700589583,0.05812477480365356,0.031285178986849536,0.030666570510041305,0.05103276261579645,0.030622756735330575,0.07149651865748845
1700589583403684703,body,403475175,1700589583,0.07196785524998503,0.031214383222129653,0.03305598690475146,0.09533770477883682,0.032698621390660404,0.03203301131120501
1700589583413631383,body,413499889,1700589583,0.07733941857424811,0.030010182205503246,0.06925978708893248,0.030013607336284883,0.030010670216736847,0.09418487121348397
1700589583423718885,body,423512517,1700589583,0.058325259764361786,0.03001061097703215,0.030142318143138388,0.08152478251475763,0.030010650895868896,0.05464260476545439
1700589583433697514,body,433536813,1700589583,0.051101565747087276,0.03000174877862967,0.034489920119471676,0.03000240026312261,0.030001761913928136,0.05186302982322715
1700589583443664270,body,443499615,1700589583,0.0977000677198859,0.030079764989150833,0.03048633379926245,0.061390097680910166,0.030083354284342195,0.08455907973066834
1700589583453649524,body,453484155,1700589583,0.053901475256478135,0.03125133625366522,0.03215886322832933,0.06685138581029824,0.030675037048911433,0.03549228157754358
1700589583463700368,body,463525533,1700589583,0.06990154040960586,0.030010691338151294,0.030126719330562438,0.04350455422782901,0.030011990253451484,0.05083602680117288
1700589583473653785,body,473490764,1700589583,0.04976267533899098,0.030010907052952767,0.030119181199009307,0.05048063554527636,0.03001225275560807,0.04190541492760078
1700589583483692925,body,483533856,1700589583,0.05074589990695205,0.030168781869370543,0.030804780569462144,0.06992905153457267,0.0378380069191495,0.030349700822127113
1700589583493775541,body,493555117,1700589583,0.055290018305103376,0.030677805846387178,0.045902040065537816,0.03397749831435819,0.030135447825326588,0.041245692339822185
1700589583503725216,body,503523841,1700589583,0.054681636267143396,0.030642144016835956,0.031913751639256006,0.06783515191632218,0.031864530055254706,0.03507273000727823
1700589583513845965,body,513642005,1700589583,0.044029780078440446,0.030013174351555042,0.030126466029710194,0.04198450868631505,0.030014567423841204,0.03876524114112744
1700589583523653267,body,523462259,1700589583,0.6358002365619285,0.9999999994450135,0.8757829072328343,0.9999999992675642,0.03,1.0
1700589583533742619,body,533572787,1700589583,0.999999999960125,0.5933744614439576,0.9999999999968416,0.6993959550852797,0.03,1.0
1700589583543808770,body,543572224,1700589583,0.9999999999977492,0.8576384498739582,0.9999999999989861,0.9654767167727305,0.03,1.0
1700589583553528903,body,553438587,1700589583,0.9999999999701565,0.7117844955354952,0.9999999999962468,0.8282894782619835,0.03,1.0
1700589583563636053,body,563500247,1700589583,0.999999999936986,0.7673534268633747,0.9999999999769423,0.8904867877669091,0.03,1.0
1700589583573649141,body,573491518,1700589583,0.9999999999731067,0.7434084032948028,0.9999999999845587,0.845503217648627,0.03,1.0
1700589583583702803,body,583522027,1700589583,0.9999999999705766,0.754699610500741,0.9999999999492852,0.8504542952237085,0.03,1.0
1700589583593751785,body,593569429,1700589583,0.9999999999597661,0.7560254112281111,0.999999999961581,0.8247021233826123,0.03,1.0
1700589583603629936,body,603499535,1700589583,0.9999999999366228,0.7708382278083737,0.9999999999755129,0.7901854314123944,0.03,1.0
1700589583613703618,body,613508170,1700589583,0.9999999998913727,0.8057747288739597,0.9999999999626175,0.6808783440135538,0.03,1.0
1700589583623788321,body,623531887,1700589583,0.999999999886341,0.8300135353167215,0.9999999999128316,0.6189123924934032,0.03,1.0
1700589583633694607,body,633512114,1700589583,0.9999999995270308,0.8844819532446639,0.9999999994849886,0.48712267199877396,0.03,1.0
1700589583643743395,body,643547949,1700589583,0.9999999998903627,0.9470558268643848,0.9999999998744383,0.26959697813809225,0.030000000009613947,0.9999999999972939
1700589583653683325,body,653502095,1700589583,0.030004518099371182,0.10210408914125318,0.9158357516057902,0.030005514717520713,0.030020834636321603,0.846489123122556
1700589583663610874,body,663468209,1700589583,0.030008294035130324,0.17763192362143432,0.9653713235362443,0.030007034138113335,0.030023200144450184,0.7511674014222903
1700589583673615119,body,673484614,1700589583,0.15046854511702284,0.4241918728226829,0.999999378535561,0.030001070083874898,0.4935030595057743,0.8169964332839703
1700589583683649079,body,683480117,1700589583,0.4772248331427513,0.7972378311734343,0.9999994944684019,0.03000101875474435,0.7613271279371466,0.9539935598350222
1700589583693618538,body,693485287,1700589583,0.07014967293134412,0.492734616951813,0.9999993554548587,0.030001413034174466,0.21705886134708127,0.5087020323081364
1700589583703624599,body,703491186,1700589583,0.03001781846141762,0.5212534946263636,0.8871156118678636,0.03001256980736748,0.0300177874324752,0.2419530745665463
1700589583713734454,body,713515346,1700589583,0.03002238138162222,0.5660090363549515,0.8800054568773505,0.0300141578614424,0.030035240645960422,0.1079723767657559
1700589583723586465,body,723456526,1700589583,0.03002414658172073,0.5222744711077064,0.7653513397617919,0.030014346144739457,0.030071919760839904,0.052371561317804016
1700589583733574381,body,733460078,1700589583,0.030030389062646507,0.5439583133614831,0.7202363709999051,0.030018015108836917,0.3007418397355511,0.030073115842546107
1700589583743646850,body,743509702,1700589583,0.03003389552196098,0.5277236423325958,0.6726199020363623,0.030020280466227373,0.3336446210011867,0.03008562708450132
1700589583753630301,body,753495194,1700589583,0.030036471213060786,0.5247761332069735,0.5819663613239497,0.030023337859316178,0.39693498757323953,0.030081879239534582
1700589583763683314,body,763496240,1700589583,0.030039283026171197,0.49235350268921135,0.48833467674097697,0.030027700091971806,0.5060218408254612,0.030068017360929674
1700589583773690764,body,773520510,1700589583,0.030042769078665356,0.45159102017108405,0.40866093396222564,0.030033721203339837,0.49157740915812376,0.030063116713268973
1700589583783722872,body,783508942,1700589583,0.030045214290898587,0.4520147680565118,0.34166966483691297,0.030041797963985175,0.49674419766051464,0.03006053616834103
1700589583793649899,body,793506450,1700589583,0.030050245630261357,0.3795608793983936,0.2705873456317169,0.03005357150582386,0.5074160115355539,0.030058604524085198
1700589583803649370,body,803500303,1700589583,0.030056524354864042,0.34029507116088653,0.21420233268871602,0.030070461491569313,0.44769910757687187,0.030060953567021667
1700589583813668299,body,813512377,1700589583,0.030061202364122033,0.31533410971389114,0.07595257178869548,0.030109502130734347,0.4964938598065262,0.030058103722532148
1700589583823693421,body,823549065,1700589583,0.030063203654151528,0.3108951092285887,0.08233283187215899,0.030148763462833964,0.4386590639736502,0.030057398833376013
1700589583833724141,body,833572284,1700589583,0.030077189986549836,0.2117902140657862,0.030128725920828284,0.2169451369073605,0.46156644171489275,0.030059371057578055
1700589583843683870,body,843535115,1700589583,0.030090626687033727,0.19257519381733265,0.030179510364395704,0.1792206042581314,0.39938080927558345,0.030062886289966482
1700589583853723433,body,853548570,1700589583,0.030108455578167645,0.1591173850642568,0.03021476655593948,0.2662073207133976,0.4224998604388159,0.03006500411774463
1700589583863656046,body,863500917,1700589583,0.030139808858318188,0.07033609682339884,0.030259302742582036,0.2655052647758604,0.3650609101156209,0.03006489913382006
1700589583873656553,body,873518029,1700589583,0.0667598826479405,0.030018119907970993,0.030134263425425353,0.2912527320329308,0.35036866839542286,0.03001102018817076
1700589583883632560,body,883504692,1700589583,0.1542141816837904,0.030134526851102867,0.030350169718639332,0.3243780340716177,0.32116081133278995,0.03007621719150063
1700589583893663119,body,893524331,1700589583,0.17424414985296477,0.03014117973967031,0.030356742656286427,0.3352073396711676,0.30531239234379204,0.030082302171094682
1700589583903591237,body,903478711,1700589583,0.17581866625573941,0.030145876730327203,0.030364905757457438,0.303596968695841,0.25228966892481064,0.03009230781585676
1700589583913590689,body,913482473,1700589583,0.25649012816415684,0.0301286391025234,0.03034727045810258,0.3721143977902447,0.2776257185018326,0.030097889022518132
1700589583923586263,body,923473298,1700589583,0.2037110376165157,0.03013087777400539,0.030352192635973416,0.31323157729253087,0.15952553118619006,0.03011820554843919
1700589583933626474,body,933487562,1700589583,0.34061031083959253,0.030104809624704517,0.030322518895017275,0.4156883965421662,0.2538535201194417,0.030118064189959003
1700589583943603357,body,943472067,1700589583,0.2798552707142907,0.030099843330168612,0.030305784281684563,0.4072420026904779,0.18569713089696085,0.030129654468757313
1700589583953571947,body,953456571,1700589583,0.29709991737157243,0.030096861306899297,0.03031919196803308,0.33866768118528323,0.11492880811520916,0.03016005341626581
1700589583963643298,body,963491849,1700589583,0.3080138330908533,0.030089268291611588,0.030309824554712442,0.36482113385761067,0.11879371014720082,0.03017677544283378
1700589583973625730,body,973489732,1700589583,0.31783280385850454,0.03008370202037496,0.030306452203268837,0.3581972407336833,0.1099693884485499,0.030196123288251685
1700589583983637790,body,983489581,1700589583,0.3311589562816063,0.03008267385408345,0.030317994471421344,0.3539704079570941,0.07044852506589735,0.030239046512539964
1700589583993657374,body,993514851,1700589583,0.36338331996385803,0.030009812154102748,0.030085233039615144,0.3676101352232392,0.030021542236524618,0.03818593815666139
1700589584003716730,body,3553707,1700589584,0.37482023162142475,0.03001120742111452,0.03009246668329541,0.3461077872312257,0.03002590381436128,0.09162897414248185
1700589584013690671,body,13522446,1700589584,0.37928981354443425,0.030010637378488463,0.030092743005705733,0.3369142147395292,0.03002860227657124,0.09911866829832153
1700589584023706740,body,23517967,1700589584,0.3912551428816111,0.030070091880277327,0.030347245225923625,0.3519032668346855,0.030199277279571647,0.12997102813650213
1700589584033757878,body,33558308,1700589584,0.3887983521539948,0.030009587781701014,0.03009256656213018,0.3233429206574315,0.03002981440610963,0.10710951284291083
1700589584043659432,body,43520194,1700589584,0.4130505511826285,0.030061155358575897,0.030341052728815043,0.34113329707699946,0.030182716239863242,0.1782797859927822
1700589584053644473,body,53492787,1700589584,0.3837260667146554,0.03006130978904179,0.030361778415086766,0.2911106401623182,0.0301860991141351,0.1405673425777713
1700589584063643885,body,63492592,1700589584,0.4151188483747309,0.03005991591146104,0.03038491584459333,0.28378617840132087,0.03016689017127189,0.21620129758141987
1700589584073742259,body,73517322,1700589584,0.39637324413357095,0.030059402562783204,0.030396083299792348,0.2872522978361886,0.030162499316632188,0.1816168559454714
1700589584083650472,body,83508174,1700589584,0.4055355698106187,0.030059534053194458,0.030419818597825884,0.27135702383042604,0.03015039779894487,0.22545258447080305
1700589584093678599,body,93519943,1700589584,0.41138844398078983,0.03005929927398521,0.03044738734971645,0.2566025463637977,0.0301348764909199,0.26364473977795283
1700589584103653036,body,103512123,1700589584,0.40657368637103064,0.03005887741482526,0.03045513758460886,0.27069940981939555,0.03013002325588926,0.2329793290766127
1700589584113740676,body,113532599,1700589584,0.3993526894101699,0.03005962875098045,0.03048593498618636,0.24060164427826222,0.03012118118610809,0.2715441523114855
1700589584123706779,body,123527777,1700589584,0.37180708932543277,0.03006167112683118,0.03051035565736879,0.23547113962441807,0.030117356019509062,0.2595151321106991
1700589584133770017,body,133546517,1700589584,0.3824426687760835,0.03006252133266406,0.030556239214507955,0.2067252928861697,0.030106473830294238,0.3139050791701202
1700589584143781923,body,143543644,1700589584,0.37095831505932575,0.03006392155737665,0.030559166695937234,0.23881608490415143,0.030109093896098907,0.24790651015191364
1700589584153674954,body,153506466,1700589584,0.3533750143032742,0.030066218143960537,0.0305662124675663,0.2336449561655008,0.0301040749833553,0.2935768308655899
1700589584163663532,body,163506255,1700589584,0.3587216526669108,0.030067402098818603,0.03059471403809871,0.21034626793887642,0.030098606228913364,0.30984943195606657
1700589584173678033,body,173529751,1700589584,0.37160107588155794,0.030067450369148156,0.03057668635021496,0.24898172601800186,0.03010015711296456,0.2702863159359254
1700589584183701669,body,183540212,1700589584,0.3352029037281644,0.030070093964190078,0.030595784221873482,0.21483741213542049,0.030098289943018806,0.2923098236311179
1700589584193641495,body,193489462,1700589584,0.35492697134696666,0.030070604995657883,0.030584864241463446,0.24024795452414013,0.03010008331995046,0.26954618355267657
1700589584203598285,body,203500167,1700589584,0.35063505937980205,0.03007121247567712,0.030590145715895772,0.2273103685499229,0.030097839546797015,0.29491860301461964
1700589584213617583,body,213469367,1700589584,0.3515234650042449,0.030071621229721093,0.03059448003144681,0.2269994564336267,0.030096750841643,0.29220468788669773
1700589584223685508,body,223523093,1700589584,0.3234937241045564,0.0300743083736279,0.0305916523096401,0.23048536988998244,0.030098654576987346,0.27243282987226064
1700589584233627545,body,233489008,1700589584,0.3034726008999663,0.030077536335820856,0.030657961451542783,0.1662208427008685,0.03010079671486361,0.2649408654986252
1700589584243625169,body,243489730,1700589584,0.31546023957624736,0.030079992900535365,0.030635408460908824,0.2312167600319337,0.030104817269893037,0.25510815717302643
