log_time_ns,header.frame_id,header.stamp.nanosec,header.stamp.sec,pose.orientation.roll,pose.orientation.pitch,pose.orientation.yaw,pose.orientation.w,pose.orientation.x,pose.orientation.y,pose.orientation.z,pose.position.x,pose.position.y,pose.position.z
1700589580625543639,,624735593,1700589580,0.0008832401546059012,0.010527354180467805,0.012797021546760908,0.9999656677246094,0.00040792557410895824,0.005266369786113501,0.006396052893251181,-0.007939696311950684,0.0009703636169433594,0.0
1700589580632537443,,628902196,1700589580,0.0006974281370309047,0.010065364133602163,0.012211680438344474,0.9999686479568481,0.00031797471456229687,0.005034695845097303,0.006103969644755125,-0.007907629013061523,0.0009937286376953125,0.0
1700589580636037014,,633069038,1700589580,0.0009803286554095835,0.010493172270558796,0.012636715365077888,0.9999661445617676,0.00045699835754930973,0.0052495538257062435,0.0063156564719974995,-0.007960677146911621,0.0010004043579101562,0.0
1700589580638513119,,637235641,1700589580,0.0011935398949760216,0.0084442652358013,0.011760473809481403,0.9999736547470093,0.0005719273467548192,0.004225555341690779,0.005877629853785038,-0.00794064998626709,0.0010547637939453125,0.0
1700589580642873548,,641402244,1700589580,0.0014663791647987557,0.00784265979099678,0.013310850507863651,0.9999699592590332,0.0007070697611197829,0.00392611138522625,0.006652447860687971,-0.007887125015258789,0.00093841552734375,0.0
1700589580649917757,,645568847,1700589580,0.0001292639418112115,0.007564978713963994,0.012605764419755628,0.9999730587005615,4.078985512023792e-05,0.003782812273129821,0.006302550435066223,-0.007908105850219727,0.0010404586791992188,0.0
1700589580651412914,,649735689,1700589580,0.0007936405389510247,0.010712256150546067,0.013359323837964556,0.9999632835388184,0.000361029029591009,0.005358633119612932,0.006677390541881323,-0.007942795753479004,0.0009746551513671875,0.0
1700589580656703700,,653902292,1700589580,0.00023221756434927863,0.010227194347717307,0.01235266303480862,0.9999679327011108,8.452211477560923e-05,0.005114194005727768,0.006175617221742868,-0.00791621208190918,0.0010471343994140625,0.0
1700589580658768521,,658068895,1700589580,0.0009685992749916484,0.011039394665635697,0.012372754888219869,0.9999655485153198,0.0004501364310272038,0.005522558931261301,0.00618356978520751,-0.007961392402648926,0.001049041748046875,0.0
1700589580664657735,,662235736,1700589580,0.0002521016829851796,0.00900800014817084,0.011541699494963281,0.9999731779098511,0.00010005578951677307,0.004504637327045202,0.005770191550254822,-0.00797426700592041,0.0011191368103027344,0.0
1700589580667503410,,666402339,1700589580,0.0010827426702768614,0.010056378092003878,0.011496397183623908,0.9999707937240601,0.0005124527378939092,0.005031195469200611,0.005745370872318745,-0.007975935935974121,0.00109100341796875,0.0
1700589580671488044,,670568943,1700589580,0.0012222308005406103,0.008307129429907249,0.012567698248461419,0.9999715089797974,0.0005849978770129383,0.004157309886068106,0.0062812138348817825,-0.007927775382995605,0.00101470947265625,0.0
1700589580676061806,,674735546,1700589580,0.0007678075056745973,0.009106199434411806,0.012197003925987706,0.9999710321426392,0.00035612579085864127,0.004555339924991131,0.006096652243286371,-0.007934331893920898,0.0010848045349121094,0.0
1700589580681459728,,678902387,1700589580,0.0012332687337602152,0.010497978881605976,0.01287968475412164,0.9999653100967407,0.0005828107823617756,0.005252826493233442,0.006436471361666918,-0.007921814918518066,0.000995635986328125,0.0
1700589580684407695,,683068990,1700589580,0.0008500088945456596,0.010609007031756072,0.012205573699301916,0.9999672174453735,0.0003926186473108828,0.005306973122060299,0.0061004082672297955,-0.00794970989227295,0.0010676383972167969,0.0
1700589580687974612,,687235593,1700589580,0.0010869483970733858,0.011326249084450835,0.012846168467130199,0.9999632835388184,0.0005070799379609525,0.005666466895490885,0.00641985796391964,-0.007931232452392578,0.0010390281677246094,0.0
1700589580695442049,,691402196,1700589580,0.0007135758825133183,0.010563414394512437,0.012378262333037312,0.9999668598175049,0.0003240873047616333,0.0052837892435491085,0.0061871204525232315,-0.00794839859008789,0.0010695457458496094,0.0
1700589580697007569,,695569038,1700589580,0.0011589871997277545,0.0101657723530667,0.01303474147587905,0.9999656677246094,0.0005463471170514822,0.005086532328277826,0.006514294072985649,-0.007912516593933105,0.0010294914245605469,0.0
1700589580701091225,,699735641,1700589580,0.0014100204950237155,0.008636426826842878,0.01240204003591349,0.9999712705612183,0.000678212963975966,0.004322487395256758,0.006197876296937466,-0.0079575777053833,0.001056671142578125,0.0
1700589580704661567,,703902244,1700589580,0.001381057848258308,0.007169490407831057,0.013406013841358365,0.9999709129333496,0.0006664805696345866,0.0035892846062779427,0.00670043658465147,-0.007932424545288086,0.0010395050048828125,0.0
1700589580711272532,,708068847,1700589580,0.0008387722971448381,0.010245529619162624,0.012595081385879807,0.9999669790267944,0.0003871118533425033,0.005125281400978565,0.00629526749253273,-0.007885932922363281,0.0010333061218261719,0.0
1700589580713515166,,712235689,1700589580,0.0004135735953717546,0.01010309613158935,0.013510330442693612,0.9999644756317139,0.00017265579663217068,0.005052807740867138,0.0067539825104177,-0.007955789566040039,0.0010390281677246094,0.0
1700589580717368726,,716402292,1700589580,0.0006905775351341129,0.010474590354607271,0.012564647871305226,0.9999665021896362,0.0003123751957900822,0.005239336751401424,0.006280387751758099,-0.007976531982421875,0.0010895729064941406,0.0
1700589580721350277,,720568895,1700589580,0.00025136553540410715,0.010176259996502781,0.013488867644760164,0.9999643564224243,9.136213338933885e-05,0.005088839679956436,0.006743655540049076,-0.007955670356750488,0.001064300537109375,0.0
1700589580727547356,,724735736,1700589580,0.0004244209611573141,0.009622599450808124,0.012620292601318858,0.9999685287475586,0.00018184410873800516,0.004812524188309908,0.006309010088443756,-0.007960796356201172,0.0011072158813476562,0.0
1700589580730233954,,728902339,1700589580,0.0011348067478657283,0.008368770498483632,0.012518621152831106,0.9999715089797974,0.0005411961465142667,0.004187841899693012,0.0062568397261202335,-0.008031010627746582,0.0011134147644042969,0.0
1700589580734002916,,733068943,1700589580,0.0004541419189596809,0.00793366364699652,0.012305743907941393,0.9999731779098511,0.0002026576839853078,0.003968143370002508,0.006151883862912655,-0.007962465286254883,0.0011010169982910156,0.0
1700589580737773271,,737235546,1700589580,0.0006598217899851561,0.009867374902870119,0.013099215429952366,0.9999663829803467,0.00029758643358945847,0.00493572186678648,0.006547852884978056,-0.007960915565490723,0.0010461807250976562,0.0
1700589580742071272,,741402387,1700589580,0.0011711079423724427,0.007516113205865143,0.01254627602562598,0.9999731779098511,0.0005619636503979564,0.003761646104976535,0.006270850542932749,-0.007941007614135742,0.0011119842529296875,0.0
1700589580746127983,,745568990,1700589580,0.0010180370162530565,0.011073076707840272,0.01377722298879131,0.9999608397483826,0.0004708600463345647,0.005539884325116873,0.006885632406920195,-0.007903695106506348,0.0010118484497070312,0.0
1700589580750294023,,749735593,1700589580,0.0009224526563454153,0.0077613156764250926,0.012386576030104313,0.9999732375144958,0.00043718016240745783,0.0038834295701235533,0.006191411055624485,-0.007959246635437012,0.001117706298828125,0.0
1700589580757390116,,753902196,1700589580,0.0008152865583255504,0.010287213009411307,0.013066814452800503,0.9999654293060303,0.00037402426823973656,0.00514613650739193,0.006531176622956991,-0.00798797607421875,0.0010738372802734375,0.0
1700589580759405499,,758069038,1700589580,0.0007975301115254829,0.010290770309833006,0.012376110263576082,0.9999675750732422,0.0003669125435408205,0.005147730931639671,0.006185881327837706,-0.007958531379699707,0.0011153221130371094,0.0
1700589580763170404,,762235641,1700589580,0.0011197386107435045,0.011072444473160487,0.012640383057871124,0.9999645948410034,0.0005248599336482584,0.005539620760828257,0.00631695194169879,-0.008015275001525879,0.0011258125305175781,0.0
1700589580767170087,,766402244,1700589580,0.0007573817861914437,0.010975534704601027,0.012301676551853886,0.999966025352478,0.00034492401755414903,0.0054899645037949085,0.006148627959191799,-0.00804448127746582,0.0011529922485351562,0.0
1700589580771136386,,770568847,1700589580,0.0001765292713825679,0.008214839356160844,0.012835440511732589,0.9999710321426392,6.19020574958995e-05,0.004107889719307423,0.006417259108275175,-0.007996559143066406,0.0011096000671386719,0.0
1700589580775383774,,774735689,1700589580,0.001162889094361109,0.01303969739114429,0.012518018637995324,0.9999589920043945,0.0005406135460361838,0.006523313000798225,0.006255043670535088,-0.007877945899963379,0.0010952949523925781,0.0
1700589580779505195,,778902292,1700589580,0.0013253942500553216,0.00752459712869955,0.012762220300150673,0.999972403049469,0.0006386714521795511,0.003766440786421299,0.006378526799380779,-0.008034110069274902,0.0011534690856933594,0.0
1700589580787432794,,783068895,1700589580,0.0006432196599442422,0.00874419082366788,0.01219459270240858,0.999971866607666,0.00029494304908439517,0.004373960662633181,0.006095793563872576,-0.007970571517944336,0.0011487007141113281,0.0
1700589580789301276,,787235736,1700589580,0.0013937572528433032,0.012448068013286783,0.011296326793908296,0.9999645352363586,0.0006616999744437635,0.006227828562259674,0.005643684882670641,-0.008015871047973633,0.00119781494140625,0.0
1700589580792692547,,791402339,1700589580,0.0012038461470822608,0.012507971700149936,0.011611764894157677,0.9999634027481079,0.0005655916756950319,0.00625733332708478,0.005801971070468426,-0.008054614067077637,0.0012187957763671875,0.0
1700589580796582476,,795568943,1700589580,0.0007551272829759894,0.010611626417037586,0.011925796077447542,0.9999681711196899,0.00034591389703564346,0.005307944491505623,0.0059607746079564095,-0.008003592491149902,0.0011677742004394531,0.0
1700589580800637105,,799735546,1700589580,0.00037499841217461977,0.007997423752752471,0.01288566187421232,0.9999712705612183,0.00016173103358596563,0.003999826032668352,0.0064419847913086414,-0.007994651794433594,0.0011281967163085938,0.0
1700589580804776008,,803902387,1700589580,0.0017212392544848451,0.00990893299801565,0.012084480788155704,0.9999691247940063,0.0008306574891321361,0.004959553945809603,0.006037863437086344,-0.00802910327911377,0.0011572837829589844,0.0
1700589580808775968,,808068990,1700589580,0.0016269537484629197,0.010175081363346371,0.012450542481656961,0.9999674558639526,0.0007817794685252011,0.005092482082545757,0.0062210094183683395,-0.008008837699890137,0.0011649131774902344,0.0
1700589580813063417,,812235593,1700589580,0.0013029309702678382,0.01056701281793251,0.011281460185442018,0.9999699592590332,0.0006216434412635863,0.0052870712243020535,0.00563717819750309,-0.008029699325561523,0.0011987686157226562,0.0
1700589580819651598,,816402196,1700589580,0.0011611765354571932,0.01066953798977598,0.011314309943969782,0.9999696016311646,0.0005503913853317499,0.0053379419259727,0.005653946194797754,-0.008005142211914062,0.0012226104736328125,0.0
1700589580821675985,,820569038,1700589580,0.0007885230090275987,0.01045969503404292,0.012199601852830595,0.9999676942825317,0.0003623480733949691,0.005232130642980337,0.006097617093473673,-0.008044242858886719,0.00121307373046875,0.0
1700589580825864888,,824735641,1700589580,0.0007859614190420632,0.011011407411886408,0.012964119777353289,0.9999637603759766,0.00035727862268686295,0.005508107133209705,0.006479752250015736,-0.00794517993927002,0.001132965087890625,0.0
1700589580829839498,,828902244,1700589580,0.00016855206436371,0.010453220150750658,0.012673855676553627,0.9999662637710571,5.115291060064919e-05,0.005227015353739262,0.00633635837584734,-0.007916569709777832,0.0011410713195800781,0.0
1700589580833843988,,833068847,1700589580,0.0005599267546470692,0.00944951422220168,0.012607183021056604,0.9999690055847168,0.0002501720446161926,0.004726409912109375,0.0063021560199558735,-0.007978677749633789,0.0011496543884277344,0.0
1700589580838023640,,837235689,1700589580,0.001408284721482335,0.009782137995772773,0.011772244199409861,0.999970555305481,0.0006753324996680021,0.0048951078206300735,0.005882571917027235,-0.008031725883483887,0.0012340545654296875,0.0
1700589580842251132,,841402292,1700589580,0.0012395601086646437,0.008505172746300738,0.011091945202357373,0.9999754428863525,0.0005961803253740072,0.004255944397300482,0.005543257109820843,-0.00807046890258789,0.0012269020080566406,0.0
1700589580850368887,,845568895,1700589580,0.0004322840633182888,0.007593195309198261,0.01216365612636494,0.9999743700027466,0.00019304640591144562,0.0037978324107825756,0.006080925464630127,-0.007962703704833984,0.0012030601501464844,0.0
1700589580851209773,,849735736,1700589580,0.0006490740561603556,0.00953814843175671,0.012274629575400861,0.9999698400497437,0.0002952581853605807,0.00477095739915967,0.006135657895356417,-0.00803685188293457,0.0012111663818359375,0.0
1700589580855657946,,853902339,1700589580,0.0012605372848023084,0.012378713515176122,0.013089753530830257,0.9999592900276184,0.000589734991081059,0.006193308159708977,0.0065408023074269295,-0.007943511009216309,0.0011320114135742188,0.0
1700589580859190448,,858068943,1700589580,0.00019923115279220656,0.007653480335075085,0.012526347345142023,0.9999730587005615,7.564557017758489e-05,0.0038272796664386988,0.006262705661356449,-0.008011698722839355,0.0011854171752929688,0.0
1700589580863326038,,862235546,1700589580,0.0004801501100207301,0.010277613698014665,0.012112555602903302,0.999968409538269,0.00020894577028229833,0.005140143912285566,0.0060549271292984486,-0.007954120635986328,0.00119781494140625,0.0
1700589580867027844,,866402387,1700589580,0.0005887724616626362,0.007975117848301797,0.012543464778965108,0.9999723434448242,0.0002693694259505719,0.0039893160574138165,0.0062704673036932945,-0.008016705513000488,0.0012216567993164062,0.0
1700589580871122344,,870568990,1700589580,0.000826509061962706,0.007773715073868177,0.011630464252339677,0.9999754428863525,0.0003906416241079569,0.0038891849108040333,0.005813548807054758,-0.00802755355834961,0.0012087821960449219,0.0
1700589580876714781,,874735593,1700589580,0.0009248479082063357,0.010550303632306595,0.011044510160894985,0.9999707937240601,0.0004332799871917814,0.005277599673718214,0.005519710015505552,-0.008034825325012207,0.0012865066528320312,0.0
1700589580881254664,,878902196,1700589580,0.0015256892436641258,0.011871440622677355,0.010911959616819593,0.9999672174453735,0.0007304349564947188,0.005939757451415062,0.0054513271898031235,-0.008104801177978516,0.0013036727905273438,0.0
1700589580884204677,,883069038,1700589580,0.00114017631158282,0.011094764633938098,0.011371385975541246,0.9999682903289795,0.0005385297699831426,0.0055505046620965,0.005682411603629589,-0.008031010627746582,0.0012750625610351562,0.0
1700589580888179085,,887235641,1700589580,0.0007622828774209125,0.007746943740422381,0.012067358130529237,0.9999743103981018,0.00035776052391156554,0.003875690745189786,0.00603211997076869,-0.008035063743591309,0.0011916160583496094,0.0
1700589580892164538,,891402244,1700589580,0.0010682111970630327,0.01143931056927454,0.01341554954688764,0.9999610781669617,0.0004957191413268447,0.005723076872527599,0.006704558618366718,-0.007917284965515137,0.0011577606201171875,0.0
1700589580896305538,,895568847,1700589580,0.00021939571223900583,0.007752148406004561,0.012692697153305255,0.999972403049469,8.509612962370738e-05,0.003876682370901108,0.006345832720398903,-0.008022427558898926,0.0011649131774902344,0.0
1700589580900340511,,899735689,1700589580,0.0005373176194349717,0.01083949899582041,0.012126606404828039,0.9999669194221497,0.00023578869877383113,0.005421251989901066,0.006061720661818981,-0.007936716079711914,0.0012254714965820312,0.0
1700589580904408656,,903902292,1700589580,0.0005653038379614413,0.009184655253811283,0.012707867435410051,0.9999692440032959,0.0002534641826059669,0.0045940144918859005,0.006352525670081377,-0.008031010627746582,0.0011916160583496094,0.0
1700589580911402719,,908068895,1700589580,0.00048052051034930455,0.007403024610335156,0.01194626164220972,0.999975323677063,0.00021814487990923226,0.0037028726655989885,0.005972164683043957,-0.00807499885559082,0.0012993812561035156,0.0
1700589580913724142,,912235736,1700589580,0.0017078041439430307,0.010094961322485146,0.012025382642256086,0.9999688267707825,0.0008235270506702363,0.005052500404417515,0.006008266471326351,-0.00806581974029541,0.0012583732604980469,0.0
1700589580917621777,,916402339,1700589580,0.001355295219716176,0.008205716471838894,0.010898040163846226,0.9999765157699585,0.0006552754202857614,0.004106477368623018,0.0054461658000946045,-0.008086323738098145,0.0012969970703125,0.0
1700589580921287058,,920568943,1700589580,0.0012295307276931123,0.011123875936058422,0.01173770666751266,0.9999671578407288,0.0005821033846586943,0.005565420258790255,0.005865308456122875,-0.007982492446899414,0.0012454986572265625,0.0
1700589580925517306,,924735546,1700589580,0.001218974688642447,0.010039033020607994,0.010842426766850592,0.9999725818634033,0.0005822590319439769,0.005022724624723196,0.005418058019131422,-0.008056163787841797,0.0012831687927246094,0.0
1700589580929452871,,928902387,1700589580,0.0012285417016160275,0.009849708006286295,0.01120620440336227,0.9999719858169556,0.000586659531109035,0.0049281977117061615,0.005599978845566511,-0.008080244064331055,0.0013012886047363281,0.0
1700589580933651510,,933068990,1700589580,0.00101226836531704,0.00861393559487353,0.010873669936841038,0.9999758005142212,0.0004827059165108949,0.004309642128646374,0.005434577353298664,-0.008126258850097656,0.0013179779052734375,0.0
1700589580941831210,,937235593,1700589580,0.0007165114100075751,0.008130119867176086,0.010829068773208972,0.9999771118164062,0.000336237222654745,0.004066928289830685,0.00541300605982542,-0.008032441139221191,0.0013031959533691406,0.0
1700589580942918275,,941402196,1700589580,0.000620624213853683,0.00842516330205748,0.012501612641252931,0.9999716281890869,0.0002839714870788157,0.004214426036924124,0.006249402184039354,-0.008014798164367676,0.0011887550354003906,0.0
1700589580947361562,,945569038,1700589580,0.0007763920374056521,0.009855221530489212,0.011303690451151555,0.999971866607666,0.0003603352524805814,0.004929705522954464,0.005649833008646965,-0.008057951927185059,0.0012717247009277344,0.0
1700589580950674427,,949735641,1700589580,0.0007450253144527453,0.008974629273423126,0.010689605337400107,0.9999755620956421,0.0003485199704300612,0.004489226266741753,0.005343051627278328,-0.008089542388916016,0.0013260841369628906,0.0
1700589580954974359,,953902244,1700589580,0.0009502569703659622,0.00977318978358765,0.01118398213174275,0.9999723434448242,0.0004477898182813078,0.004889155272394419,0.005589572712779045,-0.00808095932006836,0.0012941360473632812,0.0
1700589580958909777,,958068847,1700589580,0.0010504221215316286,0.01058295870024831,0.010585196080900064,0.999971866607666,0.0004971909220330417,0.005294159520417452,0.0052897194400429726,-0.008076310157775879,0.00130462646484375,0.0
1700589580963105179,,962235689,1700589580,0.0014879709642526353,0.01318835825075997,0.011890319043585238,0.9999603629112244,0.0007047531544230878,0.0065984358079731464,0.005940087605267763,-0.007989287376403809,0.0012121200561523438,0.0
1700589580967376276,,966402292,1700589580,0.0011398475409682774,0.011073120572620315,0.010666441065834087,0.9999703168869019,0.0005403794930316508,0.005539491772651672,0.005329957231879234,-0.008113384246826172,0.0012946128845214844,0.0
1700589580973680946,,970568895,1700589580,0.0011214480281750952,0.010646214163771666,0.010855288882082327,0.9999710321426392,0.0005318160983733833,0.005326045677065849,0.00542455492541194,-0.00807344913482666,0.0013298988342285156,0.0
1700589580976137157,,974735736,1700589580,0.0008501585186319083,0.010222767899469043,0.011874986442401796,0.9999692440032959,0.0003947177028749138,0.005113794934004545,0.005935207474976778,-0.008051156997680664,0.0012526512145996094,0.0
1700589580979825843,,978902339,1700589580,0.0011345654302958319,0.01008003301673318,0.010649839271279448,0.9999730587005615,0.0005404299590736628,0.005042943172156811,0.0053219664841890335,-0.008064866065979004,0.0012998580932617188,0.0
1700589580984041218,,983068943,1700589580,0.0010619251291560316,0.012441661227265071,0.01160247758582138,0.9999637603759766,0.000494855223223567,0.006223764736205339,0.0057977898977696896,-0.007989168167114258,0.0012049674987792969,0.0
1700589580988206539,,987235546,1700589580,0.0006778933002595971,0.00799986031267764,0.010945865898534092,0.9999769926071167,0.00031704767025075853,0.004001714289188385,0.00547150569036603,-0.008071422576904297,0.0012907981872558594,0.0
1700589580992253235,,991402387,1700589580,0.0006951386635169288,0.009200277832212443,0.01062256020487282,0.999975323677063,0.00032312830444425344,0.004601903259754181,0.005309599451720715,-0.008075594902038574,0.0013031959533691406,0.0
1700589580996199326,,995568990,1700589580,0.0005168021936080623,0.008408946219221149,0.011470474628955259,0.9999747276306152,0.0002342811058042571,0.0042058732360601425,0.005734068341553211,-0.008049726486206055,0.0012679100036621094,0.0
1700589581003522244,,999735593,1700589580,0.0007143246400454075,0.009495469715572491,0.010528270248606052,0.9999748468399048,0.00033216082374565303,0.004749530926346779,0.005262355320155621,-0.008053183555603027,0.0012764930725097656,0.0
1700589581005338953,,3902196,1700589581,0.0009739644612426354,0.010926230985375372,0.01033994725031474,0.9999716281890869,0.00045872453483752906,0.005465532187372446,0.005167212337255478,-0.008077502250671387,0.0013284683227539062,0.0
1700589581009186078,,8069038,1700589581,0.0010483770884028591,0.01151757155743599,0.009656070704561405,0.9999716281890869,0.0004963703686371446,0.00576121686026454,0.004824917297810316,-0.008151054382324219,0.0013442039489746094,0.0
1700589581012895231,,12235641,1700589581,0.0008204256731984922,0.010624655343684961,0.011275893155110515,0.9999699592590332,0.0003802501887548715,0.005314530339092016,0.005635657347738743,-0.007998943328857422,0.0012664794921875,0.0
1700589581017151140,,16402244,1700589581,0.0007261744968765202,0.009862015012499083,0.01043325131292227,0.999974250793457,0.00033735486795194447,0.004932813812047243,0.005214747507125139,-0.008074045181274414,0.001285552978515625,0.0
1700589581021057414,,20568847,1700589581,0.0008825178254095333,0.006902152864545139,0.010024017758038605,0.9999814629554749,0.0004239539848640561,0.003453237237408757,0.005010434426367283,-0.008067965507507324,0.0013027191162109375,0.0
1700589581025282371,,24735689,1700589581,0.0006393915985879955,0.0072008907068936345,0.010480695164840957,0.9999797344207764,0.0003008218773175031,0.0036020632833242416,0.005239138379693031,-0.00808417797088623,0.0012826919555664062,0.0
1700589581032182440,,28902292,1700589581,0.00046437649578478195,0.007661781078681582,0.01048079637340184,0.9999788999557495,0.00021210810518823564,0.003832045244053006,0.005239446181803942,-0.008021354675292969,0.0012917518615722656,0.0
1700589581034906173,,33068895,1700589581,0.000628974235572539,0.009688325254231238,0.010971172081492076,0.9999731779098511,0.0002879058592952788,0.004845795687288046,0.005483970511704683,-0.008084535598754883,0.0012927055358886719,0.0
1700589581038439682,,37235736,1700589581,0.0006745011261069187,0.00825943522907275,0.010346241317482078,0.9999780654907227,0.0003158797917421907,0.004131394904106855,0.005171660333871841,-0.008099913597106934,0.0013489723205566406,0.0
1700589581042020396,,41402339,1700589581,0.0006884476743526888,0.009662922915895666,0.010887417159183746,0.9999735355377197,0.00031791385845281184,0.004833244252949953,0.005441954359412193,-0.008084893226623535,0.0012907981872558594,0.0
1700589581046138236,,45568943,1700589581,0.0011650796884478056,0.007972637385391014,0.009883207827849119,0.9999797344207764,0.0005628293729387224,0.00398913724347949,0.004939221311360598,-0.008047342300415039,0.0013022422790527344,0.0
1700589581050445014,,49735546,1700589581,0.0008467693632953809,0.0074247292389049944,0.010995200367579432,0.9999779462814331,0.00040296639781445265,0.003714627120643854,0.005495962221175432,-0.008049607276916504,0.0012669563293457031,0.0
1700589581054588494,,53902387,1700589581,0.0015667681591875564,0.007353411614601095,0.009716457870496877,0.999981164932251,0.0007655072840861976,0.0036804587580263615,0.004855295177549124,-0.008079290390014648,0.001346588134765625,0.0
1700589581058659726,,58068990,1700589581,0.0009391921519135307,0.009634410998509733,0.010526907520748427,0.9999744892120361,0.00044422916835173965,0.00481959106400609,0.005261105485260487,-0.008071422576904297,0.0013017654418945312,0.0
1700589581065086135,,62235593,1700589581,0.0010452447295533841,0.009597237704368315,0.00981616456875365,0.999976396560669,0.0004990581655874848,0.0048011066392064095,0.0049054971896111965,-0.00794970989227295,0.0012965202331542969,0.0
1700589581067306164,,66402196,1700589581,0.0008515557436574186,0.00982904861612102,0.010349641284514037,0.9999744892120361,0.0004003354406449944,0.004916641395539045,0.005172641947865486,-0.008102178573608398,0.0013113021850585938,0.0
1700589581071233812,,70569038,1700589581,0.0010155410771435004,0.008588517017044916,0.009496286545681954,0.9999793767929077,0.00048737050383351743,0.0042966073378920555,0.004745900630950928,-0.008051872253417969,0.0013275146484375,0.0
1700589581075349774,,74735641,1700589581,0.0008231412981967463,0.009836579676404672,0.009636884146157855,0.9999762773513794,0.0003878625575453043,0.004920195322483778,0.004816340282559395,-0.008073210716247559,0.0013051033020019531,0.0
1700589581079363695,,78902244,1700589581,0.0008548351167885307,0.008417641773337719,0.009328314414787,0.9999802112579346,0.0004077786288689822,0.004210755694657564,0.004662299528717995,-0.008051037788391113,0.0013346672058105469,0.0
1700589581083758890,,83068847,1700589581,0.0007941392741363072,0.010061706011292006,0.009124961270290244,0.9999768733978271,0.00037410747609101236,0.005032590590417385,0.004560409113764763,-0.008104920387268066,0.0013413429260253906,0.0
1700589581087919719,,87235689,1700589581,0.0011499978987927265,0.010924527738310383,0.00842021735141721,0.9999760389328003,0.0005519887199625373,0.0054646083153784275,0.004206892102956772,-0.008057832717895508,0.0013575553894042969,0.0
1700589581095633095,,91402292,1700589581,0.0012460578707601147,0.009226748708827715,0.008113114593521051,0.9999809265136719,0.0006043028552085161,0.0046158465556800365,0.004053628072142601,-0.0081406831741333,0.0013675689697265625,0.0
1700589581097366049,,95568895,1700589581,0.0020469111681935743,0.011837442933967397,0.00986540080295506,0.9999698400497437,0.000994230038486421,0.005923660006374121,0.004926533903926611,-0.0079728364944458,0.0012836456298828125,0.0
1700589581101174277,,99735736,1700589581,0.001183593158135582,0.010011653619255287,0.008531409884831464,0.9999781847000122,0.0005704305367544293,0.005008284002542496,0.004262675531208515,-0.008066177368164062,0.0013427734375,0.0
1700589581104615638,,103902339,1700589581,0.0014095580329947528,0.012756676042278156,0.009213172622065549,0.9999688863754272,0.0006753750494681299,0.006381471641361713,0.004601979628205299,-0.008063197135925293,0.0013003349304199219,0.0
1700589581108894704,,108068943,1700589581,0.000981527208101996,0.011496450682591414,0.008300617994737665,0.9999748468399048,0.00046689450391568244,0.005750179756432772,0.004147406667470932,-0.00812840461730957,0.0013480186462402344,0.0
1700589581112962555,,112235546,1700589581,0.001294928966867243,0.012536345147075963,0.009162637858975342,0.9999697208404541,0.0006187286926433444,0.00627103028818965,0.004577153362333775,-0.008086085319519043,0.0013303756713867188,0.0
1700589581117268213,,116402387,1700589581,0.0006120842520747823,0.008745144865748167,0.008483049514276728,0.9999814629554749,0.00028749016928486526,0.0043738167732954025,0.0042401328682899475,-0.008085250854492188,0.0013403892517089844,0.0
1700589581122637232,,120568990,1700589581,0.0010150936564123395,0.011501616916178882,0.009332209753633148,0.9999725222587585,0.00048069923650473356,0.005753081291913986,0.004663091152906418,-0.00807952880859375,0.0013108253479003906,0.0
1700589581127445763,,124735593,1700589581,0.0012224135735449458,0.007622773141608033,0.008251913415597037,0.9999840259552002,0.0005954715888947248,0.0038138660602271557,0.00412358483299613,-0.008116364479064941,0.0013523101806640625,0.0
1700589581130250788,,128902196,1700589581,0.0017114859641050638,0.00946743329012727,0.008434169159229078,0.9999796152114868,0.0008357632905244827,0.004737263545393944,0.004212972242385149,-0.008102059364318848,0.0013260841369628906,0.0
1700589581134045682,,133069038,1700589581,0.001051103206213931,0.009580029040981266,0.008565547091783263,0.9999792575836182,0.0005050263134762645,0.004792202264070511,0.004280193243175745,-0.00798797607421875,0.0012989044189453125,0.0
1700589581138045744,,137235641,1700589581,0.0005347537651887781,0.01033880582406724,0.010053616608485687,0.9999740123748779,0.00024138455046340823,0.005170658230781555,0.00502533745020628,-0.008020997047424316,0.0012631416320800781,0.0
1700589581142184934,,141402244,1700589581,0.0007971174330019025,0.010376856583270274,0.008374211156404349,0.999977707862854,0.0003768255119211972,0.005190027877688408,0.0041849687695503235,-0.008082032203674316,0.0013098716735839844,0.0
1700589581146232374,,145568847,1700589581,0.0006967175243759737,0.013449479063526653,0.008797772765593032,0.9999676942825317,0.00031876645516604185,0.006726155523210764,0.004396429751068354,-0.008068323135375977,0.0013227462768554688,0.0
1700589581150539895,,149735689,1700589581,0.0010583386689815234,0.011242819191326078,0.007887922047580256,0.9999762773513794,0.0005069863982498646,0.005623422563076019,0.003940913360565901,-0.008087754249572754,0.0013728141784667969,0.0
1700589581157977511,,153902292,1700589581,0.0005401052752629351,0.008471171475372831,0.008967347148825208,0.9999809861183167,0.00025105662643909454,0.004236740991473198,0.00448247417807579,-0.008066058158874512,0.0012979507446289062,0.0
1700589581159764493,,158068895,1700589581,0.0007744964358834014,0.009815665289136284,0.008194382851779399,0.9999794960021973,0.0003671321028377861,0.004909357987344265,0.004095229785889387,-0.0080643892288208,0.0013508796691894531,0.0
1700589581163565383,,162235736,1700589581,0.0018893611611860187,0.009107510100331496,0.008318179748177498,0.9999805688858032,0.0009257231140509248,0.004557626787573099,0.0041547310538589954,-0.00804746150970459,0.0013308525085449219,0.0
1700589581167219262,,166402339,1700589581,0.0012811804152309996,0.009640626821414134,0.008033220608953806,0.9999802112579346,0.0006212163134478033,0.004822827409952879,0.004013463854789734,-0.007941126823425293,0.0013332366943359375,0.0
1700589581171310935,,170568943,1700589581,0.00101285016567312,0.009337673518829978,0.008202879017025856,0.9999805688858032,0.0004872664576396346,0.004670856986194849,0.004099018406122923,-0.008070588111877441,0.0013065338134765625,0.0
1700589581175700407,,174735546,1700589581,0.0008963455866523902,0.010304414841517551,0.007912153541496231,0.9999788999557495,0.00042778090573847294,0.00515391631051898,0.00395370414480567,-0.00806879997253418,0.0013728141784667969,0.0
1700589581179860410,,178902387,1700589581,0.0006960066911261587,0.008759402507892191,0.008340225807802748,0.9999816417694092,0.0003297332441434264,0.004381100181490183,0.004168536514043808,-0.008026719093322754,0.0012788772583007812,0.0
1700589581187562138,,183068990,1700589581,0.0006212043209952732,0.009811149882993335,0.008593473293695513,0.99997878074646,0.00028951771673746407,0.0049068438820540905,0.004295147489756346,-0.00798952579498291,0.0013036727905273438,0.0
1700589581189171396,,187235593,1700589581,0.0005804169296042478,0.01132412642450855,0.008474057696678998,0.9999749660491943,0.00026621107826940715,0.005663211457431316,0.004235304892063141,-0.008095979690551758,0.0013070106506347656,0.0
1700589581192840658,,191402196,1700589581,0.001345617897003175,0.012324260265028765,0.008867343720206014,0.9999710321426392,0.0006454688846133649,0.006165011785924435,0.004429426044225693,-0.00800025463104248,0.00127410888671875,0.0
1700589581196435397,,195569038,1700589581,0.0013255130264403045,0.01257435038614046,0.0075054621942206,0.9999730587005615,0.0006391447968780994,0.006289574783295393,0.0037484802305698395,-0.008105993270874023,0.0013647079467773438,0.0
1700589581200612734,,199735641,1700589581,0.00159301081001337,0.013833526782967856,0.007376176245663557,0.9999690055847168,0.0007709714700467885,0.006919596344232559,0.003682481124997139,-0.00809478759765625,0.0013484954833984375,0.0
1700589581204760026,,203902244,1700589581,0.001533278354460832,0.013108497851229101,0.005856341392630513,0.9999740123748779,0.0007474275189451873,0.006556416396051645,0.002923077903687954,-0.008016228675842285,0.0014286041259765625,0.0
1700589581208769025,,208068847,1700589581,0.002070320784478287,0.009991848470109643,0.006733664813274273,0.9999814033508301,0.001018321025185287,0.004999357275664806,0.0033616104628890753,-0.008075237274169922,0.0013570785522460938,0.0
1700589581212792859,,212235689,1700589581,0.0009086345159939406,0.008370872840759809,0.007201243913741836,0.9999847412109375,0.00043924018973484635,0.004187032114714384,0.0035986804869025946,-0.008049845695495605,0.0013666152954101562,0.0
1700589581219098053,,216402292,1700589581,0.0007241881327393171,0.008984844810590838,0.007397353659167244,0.9999830722808838,0.0003454719844739884,0.004493715241551399,0.003697003936395049,-0.00796973705291748,0.0013012886047363281,0.0
1700589581222112437,,220568895,1700589581,0.0008561622664710701,0.010226953004876251,0.006951212029437107,0.9999808073043823,0.00041030062129721045,0.0051149106584489346,0.003473364282399416,-0.008027911186218262,0.0013628005981445312,0.0
1700589581225676248,,224735736,1700589581,0.0008830118281057538,0.00895468629714023,0.006751005281517243,0.9999842643737793,0.00042638572631403804,0.004478792194277048,0.0033734850585460663,-0.008066892623901367,0.0013451576232910156,0.0
1700589581229783001,,228902339,1700589581,0.0008267673726019186,0.010942172599783147,0.00695532999473069,0.9999788999557495,0.00039434852078557014,0.0054724630899727345,0.003475344041362405,-0.007973909378051758,0.0013628005981445312,0.0
1700589581233975356,,233068943,1700589581,0.0008514788803531182,0.008762051625853917,0.006871097263186378,0.9999845027923584,0.00041068164864555,0.0043824478052556515,0.003433643141761422,-0.008052229881286621,0.0013890266418457031,0.0
1700589581238186914,,237235546,1700589581,0.0008585480504955028,0.010309196963558295,0.007851897720705202,0.9999788999557495,0.00040902846376411617,0.005156220868229866,0.003923673648387194,-0.00798344612121582,0.0013031959533691406,0.0
1700589581242353463,,241402387,1700589581,0.0008066633372168996,0.008700135189490121,0.0070183647153991245,0.9999843835830688,0.00038806023076176643,0.004351441748440266,0.0035073868930339813,-0.008063912391662598,0.0013585090637207031,0.0
1700589581250379411,,245568990,1700589581,0.0007276770813497928,0.00901509093848464,0.007393642494729479,0.9999829530715942,0.0003471688542049378,0.00450884411111474,0.0036951350048184395,-0.007993221282958984,0.0013184547424316406,0.0
1700589581251979764,,249735593,1700589581,0.0013818824223888772,0.008776255527171758,0.006878337971667649,0.9999842643737793,0.0006758389645256102,0.004390462767332792,0.0034360962454229593,-0.007963180541992188,0.0013685226440429688,0.0
1700589581255458849,,253902196,1700589581,0.001130987082093979,0.0073282539640751624,0.006138541621479149,0.9999884366989136,0.0005542408907786012,0.003665836527943611,0.0030671728309243917,-0.008027911186218262,0.0013532638549804688,0.0
1700589581259128296,,258069038,1700589581,0.001216122730077343,0.010946864685028278,0.00728194614137461,0.9999783039093018,0.0005881196702830493,0.005475581157952547,0.003637581365182996,-0.007952213287353516,0.0013256072998046875,0.0
1700589581262975400,,262235641,1700589581,0.0005753682218180434,0.008340322811768747,0.006613876093745546,0.9999858140945435,0.0002738896291702986,0.004171077627688646,0.0033057034015655518,-0.00802314281463623,0.0013480186462402344,0.0
1700589581267265473,,266402244,1700589581,0.0009808996305082974,0.011389949027525808,0.00591860881514052,0.9999793171882629,0.0004735866386909038,0.005696369335055351,0.0029564586002379656,-0.00805521011352539,0.0013899803161621094,0.0
1700589581271220835,,270568847,1700589581,0.001050677992340047,0.012713269693184995,0.0057942054972737,0.9999754428863525,0.0005069104954600334,0.006358086597174406,0.002893700497224927,-0.008087158203125,0.0014286041259765625,0.0
1700589581276740256,,274735689,1700589581,0.0009553169231112454,0.011682384086846721,0.005629881370579124,0.9999788999557495,0.0004612058983184397,0.005842479411512613,0.002812098478898406,-0.008070945739746094,0.0014019012451171875,0.0
1700589581281139842,,278902292,1700589581,0.0010966895250004753,0.011660227632985713,0.006530842109512112,0.9999775886535645,0.0005292948335409164,0.0058318390510976315,0.003262162208557129,-0.007951140403747559,0.0013508796691894531,0.0
1700589581284503917,,283068895,1700589581,0.0010779571926786617,0.008242605242712427,0.005714640472153835,0.9999873638153076,0.0005271959234960377,0.004122813232243061,0.0028550701681524515,-0.008053064346313477,0.0013856887817382812,0.0
1700589581288073784,,287235736,1700589581,0.0007630099221225436,0.008161622362675376,0.006799255560003693,0.9999858140945435,0.00036762640229426324,0.004082072991877794,0.0033980358857661486,-0.007993459701538086,0.0013561248779296875,0.0
1700589581292379714,,291402339,1700589581,0.0007174705509743372,0.009950499641156529,0.006110295636694297,0.9999829530715942,0.00034352910006418824,0.004976301454007626,0.0030533201061189175,-0.00802147388458252,0.0013685226440429688,0.0
1700589581296257504,,295568943,1700589581,0.00024081265573964634,0.009338468058065354,0.006856617848749522,0.9999831914901733,0.00010439682228025049,0.004669602494686842,0.0034277027007192373,-0.008009791374206543,0.0013670921325683594,0.0
1700589581300403027,,299735546,1700589581,0.00048286226391799886,0.010060994477107569,0.005955775833405782,0.9999829530715942,0.0002264468203065917,0.005031172186136246,0.002976631047204137,-0.008014082908630371,0.0014033317565917969,0.0
1700589581304749455,,303902387,1700589581,0.0008568523566203209,0.010233533472792402,0.005197648745646379,0.9999834299087524,0.0004151216126047075,0.0051178401336073875,0.0025965950917452574,-0.008055806159973145,0.0014481544494628906,0.0
1700589581311383415,,308068990,1700589581,0.0014467416617683125,0.010399395870055483,0.005730246135363314,0.9999821186065674,0.0007084603421390057,0.005201724357903004,0.0028613184113055468,-0.008018732070922852,0.0014295578002929688,0.0
1700589581313841852,,312235593,1700589581,0.0010057874916440715,0.0075440905478927935,0.005486248049629217,0.9999889731407166,0.0004925411194562912,0.0037734012585133314,0.0027412038762122393,-0.008039236068725586,0.0014004707336425781,0.0
1700589581317678324,,316402196,1700589581,0.001715968532207243,0.009567770000393055,0.00571329213588589,0.9999841451644897,0.0008443050319328904,0.004786296281963587,0.0028525039087980986,-0.008015036582946777,0.0014014244079589844,0.0
1700589581321253688,,320569038,1700589581,0.00047056590334149687,0.00787469004048086,0.005624302776032085,0.999988317489624,0.00022420781897380948,0.003937980625778437,0.002811199286952615,-0.008046627044677734,0.0014052391052246094,0.0
1700589581325577316,,324735641,1700589581,0.0004264313318078278,0.0100179003838274,0.0064253174675419,0.9999823570251465,0.00019711992354132235,0.005009587854146957,0.003211544593796134,-0.007986664772033691,0.0013751983642578125,0.0
1700589581329675580,,328902244,1700589581,0.000248765178414057,0.009089112814468833,0.00566545420085282,0.9999856948852539,0.00011150737554999068,0.004544874653220177,0.0028321286663413048,-0.00802624225616455,0.0013980865478515625,0.0
1700589581333897824,,333068847,1700589581,0.0005879740325005518,0.010823692099574216,0.005222840917323314,0.9999818801879883,0.0002798491914290935,0.005412568803876638,0.0026097882073372602,-0.008018851280212402,0.0014271736145019531,0.0
1700589581341092758,,337235689,1700589581,0.0005479683667470252,0.009095750885480614,0.005435252199724791,0.999985933303833,0.0002616209676489234,0.004548587370663881,0.0027163485065102577,-0.008024334907531738,0.0014357566833496094,0.0
1700589581343107701,,341402292,1700589581,0.0006753974880259685,0.010183768386278266,0.005461158766732145,0.9999833106994629,0.0003237893688492477,0.005092764738947153,0.002728820778429508,-0.007988691329956055,0.0013990402221679688,0.0
1700589581347155530,,345568895,1700589581,0.00042583227306378346,0.008154129402116279,0.006430915379666451,0.9999865293502808,0.00019980368961114436,0.00407771673053503,0.0032145571894943714,-0.007983207702636719,0.0013680458068847656,0.0
1700589581350530624,,349735736,1700589581,0.0011748227269622318,0.009000623540218862,0.005467135593878052,0.9999860525131226,0.0005751012940891087,0.004501884337514639,0.0027308925054967403,-0.007913947105407715,0.001392364501953125,0.0
1700589581357677231,,353902339,1700589581,0.0019936545093842423,0.010193042709567824,0.005421289591569126,0.9999828338623047,0.0009829957270994782,0.005099180154502392,0.0027055246755480766,-0.008029580116271973,0.0013990402221679688,0.0
1700589581359479791,,358068943,1700589581,0.0007569748171293171,0.00876075009773061,0.005012240471529888,0.9999872446060181,0.0003675048646982759,0.004381295293569565,0.0025044353678822517,-0.008029699325561523,0.0014100074768066406,0.0
1700589581363575131,,362235546,1700589581,0.0007382874863536739,0.010039630884539536,0.0051045548766650815,0.9999841451644897,0.0003563259670045227,0.005020719487220049,0.002550389152020216,-0.008013725280761719,0.0014414787292480469,0.0
1700589581367143804,,366402387,1700589581,0.0006954258229440635,0.011280333240255484,0.00496524254860388,0.9999810457229614,0.00033370396704412997,0.0056409817188978195,0.0024806177243590355,-0.008018732070922852,0.0014581680297851562,0.0
1700589581371329386,,370568990,1700589581,0.0012038193190056024,0.01137467016263754,0.004442034902384384,0.999981164932251,0.000589266826864332,0.005688626319169998,0.0022175561171025038,-0.008012890815734863,0.0014653205871582031,0.0
1700589581375565381,,374735593,1700589581,0.0008837078057946737,0.011470457486411166,0.0052169409231870734,0.999980092048645,0.00042688503162935376,0.005736329592764378,0.002605890156701207,-0.008031606674194336,0.0014486312866210938,0.0
1700589581379718763,,378902196,1700589581,0.0009059526375566129,0.008570423949680881,0.004986958561437818,0.9999876618385315,0.0004422856727614999,0.004286314360797405,0.0024915123358368874,-0.008005261421203613,0.0014309883117675781,0.0
1700589581387540886,,383069038,1700589581,0.0008882891058222787,0.007155460170493418,0.005312437397961297,0.9999899864196777,0.00043463692418299615,0.0035788891837000847,0.0026546092703938484,-0.007990360260009766,0.0014014244079589844,0.0
1700589581389228854,,387235641,1700589581,0.0007420837613048853,0.010036305023240566,0.0052908704201735735,0.9999839067459106,0.0003577607567422092,0.005019094794988632,0.0026435365434736013,-0.007994294166564941,0.0014071464538574219,0.0
1700589581392641258,,391402244,1700589581,0.0007841028042584515,0.01327787627669386,0.004699177590998311,0.9999752044677734,0.0003764430002775043,0.006639791186898947,0.0023469317238777876,-0.008022904396057129,0.0014653205871582031,0.0
1700589581396464327,,395568847,1700589581,0.0013390344054572411,0.012394059965265535,0.004002565122831434,0.9999786615371704,0.0006571009871549904,0.006198315881192684,0.001997093204408884,-0.008052945137023926,0.0014767646789550781,0.0
1700589581403606500,,399735689,1700589581,0.0011216252300014894,0.011643688824805149,0.0045912129352407086,0.9999803304672241,0.000547436997294426,0.005823082290589809,0.0022923001088202,-0.008008003234863281,0.0014810562133789062,0.0
1700589581405360177,,403902292,1700589581,0.0010592083507912056,0.010265326672774043,0.005623160931265193,0.9999827146530151,0.0005151642835699022,0.005134108942002058,0.002808821154758334,-0.007964015007019043,0.0013799667358398438,0.0
1700589581409149772,,408068895,1700589581,0.0007411355997496932,0.011446352569362626,0.005465591212493819,0.9999798536300659,0.0003549201646819711,0.005724135786294937,0.002730626380071044,-0.007858633995056152,0.0013947486877441406,0.0
1700589581413235603,,412235736,1700589581,0.001006369739307448,0.008284036480023205,0.005747898878207596,0.9999872446060181,0.0004912745207548141,0.004143434576690197,0.002871836069971323,-0.007947087287902832,0.0013647079467773438,0.0
1700589581419699580,,416402339,1700589581,0.0011081706095093888,0.007320524741367835,0.005487558017641219,0.99998939037323,0.0005440365639515221,0.003661760129034519,0.002741728676483035,-0.008033990859985352,0.0014462471008300781,0.0
1700589581422057571,,420568943,1700589581,0.0017730882219569488,0.00911016073326933,0.00521175949172795,0.999985933303833,0.0008746617822907865,0.004557357169687748,0.0026018102653324604,-0.00793910026550293,0.001415252685546875,0.0
1700589581425570507,,424735546,1700589581,0.0011046694479424535,0.011720438689527395,0.005419405989734939,0.9999790191650391,0.0005364438402466476,0.005861659999936819,0.0027064159512519836,-0.007995247840881348,0.0013880729675292969,0.0
1700589581431117123,,428902387,1700589581,0.0011230970109295769,0.011774421114314806,0.00463874088793206,0.9999798536300659,0.0005478826933540404,0.005888462066650391,0.002316021826118231,-0.00799572467803955,0.0014510154724121094,0.0
1700589581435451040,,433068990,1700589581,0.0008188858355600481,0.011799600866130428,0.004289210332281677,0.9999802112579346,0.0003967821830883622,0.005900630261749029,0.0021421504206955433,-0.008003950119018555,0.0014681816101074219,0.0
1700589581438845203,,437235593,1700589581,0.001122678473645574,0.011529368446362905,0.00487628713385641,0.9999803304672241,0.0005472731427289546,0.005766002461314201,0.0024348641745746136,-0.00799560546875,0.0014543533325195312,0.0
1700589581442452104,,441402196,1700589581,0.0007950584171422501,0.010936205585256065,0.0046250846700782375,0.9999823570251465,0.00038487702840939164,0.005468979477882385,0.002310331678017974,-0.008008599281311035,0.0014567375183105469,0.0
1700589581450135139,,445569038,1700589581,0.00048616711418087376,0.010291031468225085,0.004576223110005843,0.9999841451644897,0.00023130624322220683,0.005146035458892584,0.0022868283558636904,-0.008011221885681152,0.0014958381652832031,0.0
1700589581451221340,,449735641,1700589581,0.0005635031377463988,0.010506339119376512,0.005013079677904891,0.9999830722808838,0.0002685795770958066,0.0052538346499204636,0.002505022333934903,-0.007996559143066406,0.0014176368713378906,0.0
1700589581455183712,,453902244,1700589581,0.0006173488976517664,0.010743647822503786,0.004904678290955859,0.9999825954437256,0.00029549558530561626,0.005372538231313229,0.0024506428744643927,-0.007971048355102539,0.0014529228210449219,0.0
1700589581458887546,,458068847,1700589581,0.0011192502519804905,0.010940662507346209,0.005686496966016024,0.9999809265136719,0.0005440610111691058,0.005471871700137854,0.0028401401359587908,-0.007924675941467285,0.0013866424560546875,0.0
1700589581465646738,,462235689,1700589581,0.0005718163280270406,0.007357763032055375,0.006005911307904788,0.9999887347221375,0.0002748574479483068,0.0036797148641198874,0.003001878736540675,-0.007950544357299805,0.0013976097106933594,0.0
1700589581467792971,,466402292,1700589581,0.0005424848733427721,0.006872551552046453,0.005377106299897193,0.9999904632568359,0.00026200126740150154,0.003436985658481717,0.002687601838260889,-0.007955312728881836,0.0014014244079589844,0.0
1700589581471928675,,470568895,1700589581,0.0008650615028567237,0.008150758741379435,0.004813670401063151,0.9999887943267822,0.00042271713027730584,0.004076396580785513,0.0024050497449934483,-0.007989168167114258,0.0014662742614746094,0.0
1700589581476751968,,474735736,1700589581,0.0009537453561752981,0.007511252631223682,0.0050480426214099105,0.9999896287918091,0.0004673885414376855,0.003756808815523982,0.002522209659218788,-0.008025765419006348,0.0014181137084960938,0.0
1700589581481563197,,478902339,1700589581,0.000726746541179774,0.008292195848883273,0.0047357121646561355,0.9999885559082031,0.0003535517898853868,0.004146934486925602,0.0023663267493247986,-0.007974505424499512,0.0014333724975585938,0.0
1700589581484329196,,483068943,1700589581,0.0014577012074393034,0.012288213430690031,0.0052290056665881685,0.9999774694442749,0.0007127706194296479,0.006145950872451067,0.0026099716778844595,-0.007932782173156738,0.0013828277587890625,0.0
1700589581488090059,,487235546,1700589581,0.0016668930323795064,0.009982056890720622,0.005596632427187991,0.9999833106994629,0.000819466367829591,0.004993318580091,0.0027941169682890177,-0.007960915565490723,0.0014009475708007812,0.0
1700589581495237692,,491402387,1700589581,0.0010778034747910238,0.008065894009876489,0.004579905388816645,0.9999891519546509,0.0005296606686897576,0.0040341587737202644,0.002287758281454444,-0.008008360862731934,0.0014290809631347656,0.0
1700589581497041956,,495568990,1700589581,0.0006660211951127527,0.007356842395565893,0.004787155574273154,0.9999903440475464,0.00032420281786471605,0.003679199144244194,0.0023923341650515795,-0.007997989654541016,0.001438140869140625,0.0
1700589581501196352,,499735593,1700589581,0.0006512343727615789,0.008293347597642525,0.00482723249902829,0.9999884366989136,0.00031560499337501824,0.004147435538470745,0.002412242814898491,-0.007986307144165039,0.0014367103576660156,0.0
1700589581504618208,,503902196,1700589581,0.0010221412254992652,0.012600353316683573,0.005384634613235088,0.999976396560669,0.0004940966609865427,0.0063014873303473,0.0026890404988080263,-0.00800478458404541,0.0014276504516601562,0.0
1700589581511632293,,508069038,1700589581,0.0002858742259990042,0.00953852347891678,0.004319052799452987,0.9999863505363464,0.00013263584696687758,0.00476954085752368,0.0021588183008134365,-0.0079803466796875,0.0014743804931640625,0.0
1700589581513867575,,512235641,1700589581,0.0008671574354014737,0.012546641956290714,0.005115907294725219,0.9999770522117615,0.00041752198012545705,0.006274367216974497,0.0025551801081746817,-0.007998108863830566,0.0014138221740722656,0.0
1700589581517469801,,516402244,1700589581,0.0009538414702752508,0.011664999395313192,0.004228235481097111,0.9999806880950928,0.0004645810113288462,0.005833460949361324,0.0021112982649356127,-0.008006572723388672,0.0014705657958984375,0.0
1700589581521193850,,520568847,1700589581,0.0012919894697427541,0.012425045776322554,0.003609154498958946,0.9999788999557495,0.0006347702583298087,0.006213637068867683,0.0018005277961492538,-0.008031964302062988,0.0014820098876953125,0.0
1700589581527299896,,524735689,1700589581,0.000888837570549469,0.012048411517807276,0.004077518341296243,0.9999797344207764,0.00043212794116698205,0.006025061942636967,0.0020360432099550962,-0.008034110069274902,0.0014810562133789062,0.0
1700589581530147130,,528902292,1700589581,0.0013285203413994815,0.008719401251928932,0.003852788688691486,0.9999884963035583,0.0006558540626429021,0.004360957071185112,0.0019234783248975873,-0.008039116859436035,0.0014677047729492188,0.0
1700589581534171898,,533068895,1700589581,0.0011978514206892952,0.009399380749245902,0.004858328678119499,0.9999858140945435,0.000587501039262861,0.004701113328337669,0.0024263199884444475,-0.00795137882232666,0.0013985633850097656,0.0
1700589581541185181,,537235736,1700589581,0.0002558229114375443,0.008239895995575513,0.004687166053319936,0.9999887943267822,0.00011825461115222424,0.004120224621146917,0.002343033906072378,-0.00801396369934082,0.00142669677734375,0.0
1700589581542623779,,541402339,1700589581,0.0005217547521856886,0.01025905521753427,0.005403293233826941,0.9999831914901733,0.00024701489019207656,0.005130190867930651,0.002700269455090165,-0.007976293563842773,0.0014176368713378906,0.0
1700589581546714926,,545568943,1700589581,0.0009697785357966883,0.010585395642150398,0.004205363612621154,0.9999836683273315,0.0004737525887321681,0.005293680354952812,0.0021000842098146677,-0.00800788402557373,0.0014238357543945312,0.0
1700589581551129353,,549735546,1700589581,0.0007535379805418485,0.00835757236214409,0.004297803461729767,0.9999889135360718,0.0003677850472740829,0.004179573617875576,0.002147306688129902,-0.00802457332611084,0.0014410018920898438,0.0
1700589581557756238,,553902387,1700589581,0.0011922364757387541,0.009393257131861961,0.00484169650532592,0.999985933303833,0.0005847400752827525,0.004698039498180151,0.002418018877506256,-0.00799870491027832,0.0014147758483886719,0.0
1700589581559383129,,558068990,1700589581,0.0025414401976710126,0.009980899064928871,0.005404107337325825,0.9999831914901733,0.001257214811630547,0.004993839655071497,0.0026956729125231504,-0.007944226264953613,0.0013384819030761719,0.0
1700589581563334689,,562235593,1700589581,0.0029196865082782545,0.0074697489836694705,0.004900772239501181,0.9999890327453613,0.0014506762381643057,0.00373842753469944,0.002444911515340209,-0.007981300354003906,0.0013699531555175781,0.0
1700589581567369157,,566402196,1700589581,0.0037498321450273515,0.010476065823417868,0.004926658759499271,0.9999815821647644,0.001861980534158647,0.005242601968348026,0.002453467808663845,-0.007981657981872559,0.001415252685546875,0.0
1700589581574345710,,570569038,1700589581,0.003399650999751943,0.013007810010192054,0.005059321774288226,0.999974250793457,0.0016833307454362512,0.006508128717541695,0.002518545603379607,-0.007930159568786621,0.0013990402221679688,0.0
1700589581576065268,,574735641,1700589581,0.0038550488050627762,0.014361353659280318,0.006228318461681948,0.9999675750732422,0.001905102632008493,0.007186569273471832,0.0031002273317426443,-0.007811903953552246,0.0013737678527832031,0.0
1700589581580055008,,578902244,1700589581,0.0030393095714910793,0.014586264061709013,0.007632773438010547,0.9999650716781616,0.0014917695662006736,0.007298804819583893,0.003805188462138176,-0.007700085639953613,0.0013780593872070312,0.0
1700589581587220873,,583068847,1700589581,0.0025297458284708418,0.013945446033874074,0.008943050087052672,0.9999649524688721,0.0012336508370935917,0.006978246849030256,0.00446257833391428,-0.007537126541137695,0.00139617919921875,0.0
1700589581588769366,,587235689,1700589581,0.002293886769120875,0.014027663006324336,0.011520184232741001,0.9999582767486572,0.0011064960854128003,0.0070202588103711605,0.005751870106905699,-0.007274508476257324,0.001323699951171875,0.0
1700589581592642881,,591402292,1700589581,0.002114032812768838,0.011347829082346005,0.012902664589154804,0.9999626278877258,0.001020373310893774,0.00568058155477047,0.006445182487368584,-0.006978392601013184,0.001331329345703125,0.0
1700589581596357296,,595568895,1700589581,0.0020673582205725373,0.011673581320344541,0.015299721421655286,0.9999532699584961,0.0009889811044558883,0.005844490602612495,0.007643618155270815,-0.006670594215393066,0.0013446807861328125,0.0
1700589581603262461,,599735736,1700589581,0.001681019074496486,0.01310993898397092,0.018125449290358787,0.9999371767044067,0.0007810522220097482,0.006562267895787954,0.009056893177330494,-0.006093621253967285,0.0013828277587890625,0.0
1700589581605153961,,603902339,1700589581,0.0023334611875886965,0.016248400496719592,0.019654854743976633,0.9999181628227234,0.0010867976816371083,0.008135178126394749,0.009817459620535374,-0.005591869354248047,0.0014538764953613281,0.0
1700589581609245079,,608068943,1700589581,0.0016558641009795576,0.016436760921541588,0.02145046210255084,0.999908447265625,0.0007397150620818138,0.008226691745221615,0.010717855766415596,-0.00496673583984375,0.001476287841796875,0.0
1700589581612994752,,612235546,1700589581,0.001676753341978124,0.014753321922386365,0.02365053422342371,0.999902606010437,0.0007510670111514628,0.007385989185422659,0.011818481609225273,-0.004257559776306152,0.0015625953674316406,0.0
1700589581619100559,,616402387,1700589581,0.0016159778779961348,0.011648505507806025,0.02737153001954354,0.9998891353607178,0.0007281930884346366,0.005834729876369238,0.013680395670235157,-0.003441333770751953,0.0015940666198730469,0.0
1700589581621699851,,620568990,1700589581,0.001242655759329694,0.012435386656088633,0.029655308664899762,0.9998706579208374,0.000529057695530355,0.006226180586963892,0.014822958037257195,-0.0024956464767456055,0.0018029212951660156,0.0
1700589581625766782,,624735593,1700589581,0.0010138992839812796,0.015774839574000516,0.03228803965443941,0.9998385310173035,0.00037953999708406627,0.007894492708146572,0.016138816252350807,-0.0013699531555175781,0.0019779205322265625,0.0
1700589581632278403,,628902196,1700589581,0.0016241091687844837,0.01232840337694568,0.03613536494101272,0.9998175501823425,0.0007005404913797975,0.006177825387567282,0.01806134544312954,-0.00026404857635498047,0.00212860107421875,0.0
1700589581635498665,,633069038,1700589581,0.0019704918461441448,0.013042598951166055,0.03797495358625913,0.9997981190681458,0.0008612325764261186,0.006538780406117439,0.018979499116539955,0.0008980035781860352,0.002383708953857422,0.0
1700589581638516519,,637235641,1700589581,0.0013513338041800647,0.014345520501528538,0.0410790260214689,0.9997632503509521,0.0005281936028040946,0.007185060530900955,0.02053268998861313,0.0021942853927612305,0.0027260780334472656,0.0
1700589581642493345,,641402244,1700589581,0.0011324258128937008,0.014323607271492629,0.04488169654998632,0.9997225999832153,0.0004053537268191576,0.007172642275691032,0.022434329614043236,0.0037134885787963867,0.002963542938232422,0.0
1700589581649581376,,645568847,1700589581,0.0021912830288208923,0.015100917854045215,0.04957894367607045,0.9996639490127563,0.0009081225725822151,0.00757521903142333,0.024777939543128014,0.005388498306274414,0.0032281875610351562,0.0
1700589581651300077,,649735689,1700589581,0.0029995548192282176,0.014911613504517723,0.0533670914088603,0.999615490436554,0.0013002795167267323,0.007493088021874428,0.026668427512049675,0.0069817304611206055,0.0036191940307617188,0.0
1700589581655190644,,653902292,1700589581,0.0025254096907257107,0.015342597998907961,0.05805566003666132,0.9995487928390503,0.001039487891830504,0.007704633288085461,0.029013194143772125,0.008936762809753418,0.0039386749267578125,0.0
1700589581658967629,,658068895,1700589581,0.002339594406627645,0.014815424894223184,0.06389945880403988,0.999461829662323,0.0009325360297225416,0.00744122639298439,0.03193473443388939,0.010883569717407227,0.004292964935302734,0.0
1700589581665347665,,662235736,1700589581,0.002425242468347284,0.01575601699044217,0.06897992814194734,0.9993738532066345,0.000940206809900701,0.00791504979133606,0.03447248414158821,0.012945175170898438,0.004721641540527344,0.0
1700589581668242019,,666402339,1700589581,0.0009219943566174428,0.013071514526364481,0.07411978596745475,0.9992920756340027,0.00021851352357771248,0.006548302248120308,0.037047602236270905,0.01512765884399414,0.005251884460449219,0.0
1700589581671625102,,670568943,1700589581,0.0014736938512891515,0.013546185679556238,0.08050398532705283,0.9991670250892639,0.00046367841423489153,0.006797203794121742,0.04023520275950432,0.017470598220825195,0.005794525146484375,0.0
