log_time_ns,header.frame_id,header.stamp.nanosec,header.stamp.sec,motor_a_1,motor_a_2,motor_b_1,motor_b_2,motor_c_1,motor_c_2
1709652644831538741,body,831455393,1709652644,0.12845838069915771,0.03,0.03,0.24436134099960327,0.189601331949234,0.03
1709652644841521462,body,841450669,1709652644,0.12370119988918304,0.03,0.03,0.23372837901115417,0.1710338443517685,0.03
1709652644851923543,body,851596298,1709652644,0.12778340280056,0.03,0.03,0.2263118475675583,0.16032931208610535,0.03
1709652644861522253,body,861435311,1709652644,0.12624894082546234,0.03,0.03,0.22519966959953308,0.16200804710388184,0.03
1709652644871515989,body,871449104,1709652644,0.12463908642530441,0.03,0.03,0.2304457724094391,0.1650697886943817,0.03
1709652644881538737,body,881461580,1709652644,0.1275537759065628,0.03,0.03,0.23527438938617706,0.1667613834142685,0.03
1709652644891535566,body,891448626,1709652644,0.13286030292510986,0.03,0.03,0.2450234293937683,0.17741450667381287,0.03
1709652644901513291,body,901453967,1709652644,0.13533920049667358,0.03,0.03,0.2520137131214142,0.1785036027431488,0.03
1709652644911556520,body,911469805,1709652644,0.1356322467327118,0.03,0.03,0.24923920631408691,0.17259053885936737,0.03
1709652644921550841,body,921460842,1709652644,0.13754341006278992,0.03,0.03,0.24865476787090302,0.1746300309896469,0.03
1709652644931553912,body,931456768,1709652644,0.13822458684444427,0.03,0.03,0.24915039539337158,0.17609380185604095,0.03
1709652644941618994,body,941464736,1709652644,0.136769101023674,0.03,0.03,0.24812151491641998,0.17866398394107819,0.03
1709652644951560773,body,951461004,1709652644,0.1420576125383377,0.03,0.03,0.25021207332611084,0.18351241946220398,0.03
1709652644961638720,body,961501282,1709652644,0.13798099756240845,0.03,0.03,0.24634577333927155,0.17956924438476562,0.03
1709652644971618720,body,971488675,1709652644,0.13947856426239014,0.03,0.03,0.24417999386787415,0.17547816038131714,0.03
1709652644981600806,body,981484625,1709652644,0.1418292075395584,0.03,0.03,0.24834920465946198,0.1765729933977127,0.03
1709652644991555872,body,991463339,1709652644,0.14299267530441284,0.03,0.03,0.2542842626571655,0.18339893221855164,0.03
1709652645001565981,body,1479090,1709652645,0.14355920255184174,0.03,0.03,0.25628867745399475,0.18625900149345398,0.03
1709652645011631905,body,11500199,1709652645,0.6892715096473694,0.03,0.03,0.4306107759475708,0.6447690725326538,0.03
1709652645021590879,body,21495049,1709652645,0.6844866871833801,0.03,0.03,0.4248005747795105,0.6434872150421143,0.03
1709652645031613415,body,31488124,1709652645,0.6877540349960327,0.03,0.03,0.4208778142929077,0.6386508941650391,0.03
1709652645041701445,body,41534628,1709652645,0.689419150352478,0.03,0.03,0.42088913917541504,0.634773850440979,0.03
1709652645051680668,body,51525928,1709652645,0.6846145987510681,0.03,0.03,0.41909557580947876,0.6317507028579712,0.03
1709652645061644938,body,61496435,1709652645,0.687350332736969,0.03,0.03,0.42222684621810913,0.633601188659668,0.03
1709652645071655011,body,71509307,1709652645,0.680390477180481,0.03,0.03,0.4146677255630493,0.629273533821106,0.03
1709652645081660025,body,81530084,1709652645,0.6667785048484802,0.03,0.03,0.38943278789520264,0.6228966116905212,0.03
1709652645091775523,body,91499125,1709652645,0.6388227343559265,0.03,0.03,0.36771512031555176,0.6261235475540161,0.03
1709652645101836259,body,101570258,1709652645,0.6053037643432617,0.03,0.03,0.34687426686286926,0.618719220161438,0.03
1709652645111687042,body,111489582,1709652645,0.5427529215812683,0.03,0.03,0.31013768911361694,0.6056458950042725,0.03
1709652645121727948,body,121564243,1709652645,0.45758897066116333,0.03,0.03,0.2779681980609894,0.5907742977142334,0.03
1709652645131775888,body,131572380,1709652645,0.39448487758636475,0.03,0.03,0.24997085332870483,0.5492067933082581,0.03
1709652645141639549,body,141506886,1709652645,0.3442802429199219,0.03,0.03,0.18743747472763062,0.46486085653305054,0.03
1709652645151608819,body,151489774,1709652645,0.2865358591079712,0.03,0.03,0.09317919611930847,0.36934661865234375,0.03
1709652645161864618,body,161546943,1709652645,0.24611082673072815,0.03,0.03,0.06951844692230225,0.2859831750392914,0.03
1709652645171551733,body,171464658,1709652645,0.21165814995765686,0.03,0.03,0.056279994547367096,0.2103693038225174,0.03
1709652645181635237,body,181471500,1709652645,0.19477054476737976,0.03,0.03,0.06198427826166153,0.16170650720596313,0.03
1709652645191555259,body,191461179,1709652645,0.16556403040885925,0.03,0.03,0.07467663288116455,0.12804865837097168,0.03
1709652645201638501,body,201509334,1709652645,0.14852958917617798,0.03,0.03,0.07133450359106064,0.07956826686859131,0.03
1709652645211624443,body,211494690,1709652645,0.13872554898262024,0.03,0.03,0.078451007604599,0.034499526023864746,0.03
1709652645221642715,body,221484765,1709652645,0.06333494186401367,0.03,0.6900866627693176,0.03,0.03,0.9161465167999268
1709652645231678995,body,231510856,1709652645,0.06959599256515503,0.03,0.6606984734535217,0.03,0.03,0.9590587615966797
1709652645241768963,body,241583711,1709652645,0.06742799282073975,0.03,0.6183786988258362,0.03,0.03,0.9778438210487366
1709652645251623322,body,251492033,1709652645,0.06553399562835693,0.03,0.6177241802215576,0.03,0.03,0.9705057144165039
1709652645261637791,body,261498779,1709652645,0.06568485498428345,0.03,0.6026509404182434,0.03,0.03,0.9885789155960083
1709652645271637851,body,271502108,1709652645,0.08263513445854187,0.03,0.5788556933403015,0.03,0.03,0.9960134029388428
1709652645281597890,body,281485382,1709652645,0.08189204335212708,0.03,0.566935658454895,0.03,0.03,1.0
1709652645291771208,body,291534745,1709652645,0.09449741244316101,0.03,0.5258756279945374,0.03,0.03,0.9927555322647095
1709652645301615722,body,301482589,1709652645,0.10038915276527405,0.03,0.4936637878417969,0.03,0.03,0.9257820844650269
1709652645311619788,body,311494418,1709652645,0.09052634239196777,0.03,0.4640212655067444,0.03,0.03,0.869818925857544
1709652645321653721,body,321505323,1709652645,0.07820689678192139,0.03,0.43629372119903564,0.03,0.03,0.8001079559326172
1709652645331667390,body,331536688,1709652645,0.08113428950309753,0.03,0.4098508358001709,0.03,0.03,0.6990929841995239
1709652645341597603,body,341492392,1709652645,0.07425254583358765,0.03,0.4003438353538513,0.03,0.03,0.588448166847229
1709652645351675425,body,351517594,1709652645,0.07612749934196472,0.03,0.3926684260368347,0.03,0.03,0.40549522638320923
1709652645361659900,body,361507780,1709652645,0.0802510678768158,0.03,0.39072731137275696,0.03,0.03,0.302791953086853
1709652645371629493,body,371502877,1709652645,0.09157317876815796,0.03,0.3866095244884491,0.03,0.03,0.22507056593894958
1709652645381671138,body,381528075,1709652645,0.09136822819709778,0.03,0.37687018513679504,0.03,0.03,0.157960444688797
1709652645391728619,body,391563850,1709652645,0.09962871670722961,0.03,0.3577788472175598,0.03,0.03,0.09954702854156494
1709652645401698973,body,401528168,1709652645,0.1035815179347992,0.03,0.344133198261261,0.03,0.03,0.060738325119018555
1709652645411662206,body,411517737,1709652645,0.10267478227615356,0.03,0.33363333344459534,0.03,0.03,0.03628256916999817
1709652645421682168,body,421553476,1709652645,0.03,0.639129638671875,0.09281504154205322,0.03,0.08328890800476074,0.03
1709652645431654422,body,431509958,1709652645,0.03,0.6365694999694824,0.07570779323577881,0.03,0.09144207835197449,0.03
1709652645441596379,body,441471889,1709652645,0.03,0.6419808864593506,0.05631685256958008,0.03,0.10260117053985596,0.03
1709652645451708484,body,451536970,1709652645,0.03,0.6563730835914612,0.03885266184806824,0.03,0.09685379266738892,0.03
1709652645461744931,body,461559689,1709652645,0.03,0.6519356966018677,0.03,0.03,0.09954065084457397,0.03
1709652645471692540,body,471537277,1709652645,0.03,0.6668025255203247,0.03,0.03,0.09127497673034668,0.03
1709652645481679460,body,481507523,1709652645,0.03,0.6751762628555298,0.03,0.03,0.08732616901397705,0.03
1709652645491707578,body,491538066,1709652645,0.03,0.6770493388175964,0.03,0.03,0.09382736682891846,0.03
1709652645501724997,body,501538848,1709652645,0.03,0.6474087238311768,0.03,0.03,0.08796119689941406,0.03
1709652645511689571,body,511512860,1709652645,0.03,0.6216198205947876,0.03,0.03,0.08774203062057495,0.03
1709652645521711746,body,521532640,1709652645,0.03,0.5816539525985718,0.03,0.03,0.09223461151123047,0.03
1709652645531807478,body,531590674,1709652645,0.03,0.5426044464111328,0.03,0.03,0.08841070532798767,0.03
1709652645541785369,body,541605859,1709652645,0.03,0.47872400283813477,0.03,0.03390905261039734,0.08856147527694702,0.03
1709652645551922612,body,551549736,1709652645,0.03,0.37148308753967285,0.03,0.03310135006904602,0.09633266925811768,0.03
1709652645561718279,body,561562917,1709652645,0.03,0.2130865603685379,0.03,0.046460866928100586,0.09332692623138428,0.03
1709652645571699533,body,571528429,1709652645,0.03,0.11178494989871979,0.03,0.04432210326194763,0.10151407122612,0.03
1709652645581842390,body,581595172,1709652645,0.03,0.035947203636169434,0.03,0.046907901763916016,0.10090139508247375,0.03
1709652645591664686,body,591518825,1709652645,0.03531143069267273,0.03,0.03,0.05440071225166321,0.1059732735157013,0.03
1709652645601781707,body,601573535,1709652645,0.1017056405544281,0.03,0.03,0.05470806360244751,0.10915437340736389,0.03
1709652645611722953,body,611542456,1709652645,0.16167104244232178,0.03,0.03,0.0492110550403595,0.10906079411506653,0.03
1709652645621732914,body,621573818,1709652645,0.5891339778900146,0.03,0.03,0.50252366065979,0.6422337889671326,0.03
1709652645631770165,body,631568419,1709652645,0.6599493026733398,0.03,0.03,0.4992550015449524,0.6141917705535889,0.03
1709652645641708771,body,641527386,1709652645,0.7260872721672058,0.03,0.03,0.49240076541900635,0.5912540555000305,0.03
1709652645651850237,body,651629523,1709652645,0.7837537527084351,0.03,0.03,0.48883354663848877,0.5678874254226685,0.03
1709652645661754788,body,661576438,1709652645,0.8396123647689819,0.03,0.03,0.4768902659416199,0.5457420349121094,0.03
1709652645671691505,body,671523922,1709652645,0.8831202983856201,0.03,0.03,0.45587092638015747,0.4989054203033447,0.03
1709652645681711221,body,681547306,1709652645,0.9036904573440552,0.03,0.03,0.4160724878311157,0.463100403547287,0.03
1709652645691731913,body,691548744,1709652645,0.9213029146194458,0.03,0.03,0.3794412612915039,0.40209388732910156,0.03
1709652645701682043,body,701535011,1709652645,0.9030404686927795,0.03,0.03,0.34398216009140015,0.3120621144771576,0.03
1709652645711778113,body,711598945,1709652645,0.8803237676620483,0.03,0.03,0.30310696363449097,0.23303604125976562,0.03
1709652645721737868,body,721553445,1709652645,0.8343294262886047,0.03,0.03,0.2564550042152405,0.1571309119462967,0.03
1709652645731750266,body,731552551,1709652645,0.7592828869819641,0.03,0.03,0.2310781627893448,0.09389194846153259,0.03
1709652645741743322,body,741551929,1709652645,0.6997647881507874,0.03,0.03,0.17700238525867462,0.03,0.03
1709652645751776473,body,751558315,1709652645,0.6256322860717773,0.03,0.03,0.1581738293170929,0.03,0.03
1709652645761630501,body,761511661,1709652645,0.5612459182739258,0.03,0.03,0.14531508088111877,0.03,0.03786477446556091
1709652645771727484,body,771528266,1709652645,0.4924972355365753,0.03,0.03,0.1723082959651947,0.03,0.04925096035003662
1709652645781667088,body,781520241,1709652645,0.4387240707874298,0.03,0.03,0.17761386930942535,0.03,0.07157140970230103
1709652645791682973,body,791510467,1709652645,0.38083571195602417,0.03,0.03,0.17788340151309967,0.03,0.09203511476516724
1709652645801706115,body,801545573,1709652645,0.3126247227191925,0.03,0.03,0.18100571632385254,0.03,0.11533835530281067
1709652645811725695,body,811556384,1709652645,0.25411760807037354,0.03,0.03,0.18320713937282562,0.03,0.12707722187042236
1709652645821677221,body,821528475,1709652645,0.22909608483314514,0.03,0.03,0.21042701601982117,0.03,0.13164818286895752
1709652645831786469,body,831600265,1709652645,0.03,0.1440153419971466,0.03,0.15476851165294647,0.3786100149154663,0.03
1709652645841830780,body,841605106,1709652645,0.03,0.20001322031021118,0.03,0.16756819188594818,0.3846196234226227,0.03
1709652645851685436,body,851523929,1709652645,0.03,0.2634466588497162,0.03,0.16202744841575623,0.3921404480934143,0.03
1709652645861681621,body,861536519,1709652645,0.03,0.2893287241458893,0.03,0.15450049936771393,0.3836230933666229,0.03
1709652645871729433,body,871538697,1709652645,0.03,0.30090081691741943,0.03,0.14601880311965942,0.3673376441001892,0.03
1709652645881713451,body,881490660,1709652645,0.03,0.24821646511554718,0.03,0.1473255306482315,0.3626330494880676,0.03
1709652645891659486,body,891505880,1709652645,0.03,0.20263798534870148,0.03,0.14009466767311096,0.3507668972015381,0.03
1709652645901722892,body,901545634,1709652645,0.03,0.16260027885437012,0.03,0.14767180383205414,0.33637720346450806,0.03
1709652645911736984,body,911562284,1709652645,0.03,0.14462368190288544,0.03,0.14723001420497894,0.347286581993103,0.03
1709652645921784008,body,921573725,1709652645,0.03,0.13384276628494263,0.03,0.11496683955192566,0.3342836797237396,0.03
1709652645931675389,body,931527562,1709652645,0.03,0.1266995668411255,0.03,0.12974421679973602,0.3279186189174652,0.03
1709652645941741903,body,941550048,1709652645,0.03,0.08539697527885437,0.03,0.12174105644226074,0.30287981033325195,0.03
1709652645951818686,body,951598727,1709652645,0.03,0.04959245026111603,0.03,0.13522078096866608,0.2807512581348419,0.03
1709652645961791432,body,961595349,1709652645,0.03,0.03,0.03,0.1671379655599594,0.2592352628707886,0.03
1709652645971876647,body,971673448,1709652645,0.03,0.03,0.03,0.1810522824525833,0.23799806833267212,0.03
1709652645981675302,body,981517716,1709652645,0.03,0.03,0.03,0.17475935816764832,0.2372249960899353,0.03
1709652645991657982,body,991521774,1709652645,0.03,0.03,0.03,0.1843603253364563,0.23048537969589233,0.03
1709652646001641192,body,1499668,1709652646,0.03,0.03,0.03,0.19434362649917603,0.21378403902053833,0.03
1709652646011683517,body,11546949,1709652646,0.03,0.03,0.03,0.2103605717420578,0.19156336784362793,0.03
1709652646021700036,body,21532668,1709652646,0.03,0.03,0.03,0.2206040918827057,0.18943512439727783,0.03
1709652646031648429,body,31522187,1709652646,0.03,0.03,0.03,0.23165708780288696,0.19070857763290405,0.03
1709652646041668075,body,41527014,1709652646,0.9028319120407104,0.03,0.03,0.047704458236694336,0.03,0.1812530755996704
1709652646051705361,body,51541266,1709652646,0.9088582992553711,0.03,0.03,0.06727874279022217,0.03,0.1899164915084839
1709652646061652331,body,61513006,1709652646,0.9365611672401428,0.03,0.03,0.08938595652580261,0.03,0.20552927255630493
1709652646071647147,body,71512305,1709652646,0.9383612275123596,0.03,0.03,0.10378432273864746,0.03,0.20983320474624634
1709652646081636634,body,81491701,1709652646,0.9454678893089294,0.03,0.03,0.10605838894844055,0.03,0.22298943996429443
1709652646091698959,body,91531866,1709652646,0.9430136680603027,0.03,0.03,0.12086910009384155,0.03,0.22067230939865112
1709652646101742054,body,101528861,1709652646,0.8985045552253723,0.03,0.03,0.1252630054950714,0.03,0.20343619585037231
1709652646111637782,body,111511759,1709652646,0.8667507171630859,0.03,0.03,0.14537641406059265,0.03,0.20584821701049805
1709652646121622995,body,121497643,1709652646,0.7741753458976746,0.03,0.03,0.15313532948493958,0.03,0.1870337724685669
1709652646131743262,body,131572323,1709652646,0.6384620666503906,0.03,0.03,0.16591954231262207,0.03,0.17361992597579956
1709652646141647412,body,141505767,1709652646,0.5090421438217163,0.03,0.03,0.16924956440925598,0.03,0.16773033142089844
1709652646151642206,body,151492104,1709652646,0.4041248857975006,0.03,0.03,0.1853407919406891,0.03,0.1709916591644287
1709652646161606627,body,161498952,1709652646,0.3225400745868683,0.03,0.03,0.18006494641304016,0.03,0.17475658655166626
1709652646171633569,body,171489376,1709652646,0.2544887661933899,0.03,0.03,0.1808461844921112,0.03,0.17736011743545532
1709652646181595705,body,181489482,1709652646,0.20983165502548218,0.03,0.03,0.19138401746749878,0.03,0.1920345425605774
1709652646191744777,body,191579955,1709652646,0.17399266362190247,0.03,0.03,0.203579843044281,0.03,0.20194172859191895
1709652646201689236,body,201526145,1709652646,0.16161954402923584,0.03,0.03,0.23493465781211853,0.03,0.20555830001831055
1709652646211653843,body,211517376,1709652646,0.14896094799041748,0.03,0.03,0.24334755539894104,0.03,0.21291708946228027
1709652646221692641,body,221528273,1709652646,0.13643258810043335,0.03,0.03,0.25954362750053406,0.03,0.20803338289260864
1709652646231665153,body,231516149,1709652646,0.1262805461883545,0.03,0.03,0.2652130424976349,0.03,0.21101129055023193
1709652646241673853,body,241520738,1709652646,0.13288456201553345,0.03,0.03,0.26633501052856445,0.03,0.2173011302947998
1709652646251762461,body,251549254,1709652646,0.03,1.0,0.03,0.32797330617904663,0.03,1.0
1709652646261646038,body,261499531,1709652646,0.03,1.0,0.03,0.32738468050956726,0.03,1.0
1709652646271699263,body,271546442,1709652646,0.03,1.0,0.03,0.31101593375205994,0.03,1.0
1709652646281680279,body,281529517,1709652646,0.03,1.0,0.03,0.29117539525032043,0.03,1.0
1709652646291626019,body,291498279,1709652646,0.03,1.0,0.03,0.2767117917537689,0.03,1.0
1709652646301635653,body,301510184,1709652646,0.03,1.0,0.03,0.2545223832130432,0.03,1.0
1709652646311622402,body,311485123,1709652646,0.03,1.0,0.03,0.23377221822738647,0.03,1.0
1709652646321721245,body,321553908,1709652646,0.03,1.0,0.03,0.2030147910118103,0.03,1.0
1709652646331739628,body,331571775,1709652646,0.03,1.0,0.03,0.18594855070114136,0.03,1.0
1709652646341715852,body,341544138,1709652646,0.03,0.9451812505722046,0.03,0.17743301391601562,0.03,0.9873395562171936
1709652646351874016,body,351634450,1709652646,0.03,0.837166428565979,0.03,0.17031413316726685,0.03,0.8213998675346375
1709652646361710571,body,361551925,1709652646,0.03,0.6945363283157349,0.03,0.16832050681114197,0.03,0.6311526298522949
1709652646371671565,body,371519957,1709652646,0.03,0.42294842004776,0.03,0.1591433584690094,0.03,0.5042937397956848
1709652646381589781,body,381462162,1709652646,0.03,0.2836281657218933,0.03,0.13647937774658203,0.03,0.41609641909599304
1709652646391662988,body,391509416,1709652646,0.03,0.15570738911628723,0.03,0.11973616480827332,0.03,0.3494310975074768
1709652646401638823,body,401494040,1709652646,0.03,0.04250919818878174,0.03,0.08439275622367859,0.03,0.2942916452884674
1709652646411638135,body,411505723,1709652646,0.03218197822570801,0.03,0.03,0.03,0.03,0.2587704062461853
1709652646421644021,body,421514714,1709652646,0.0884280800819397,0.03,0.06875982880592346,0.03,0.03,0.2364535927772522
1709652646431627300,body,431510552,1709652646,0.15135937929153442,0.03,0.17500457167625427,0.03,0.03,0.22265028953552246
1709652646441645887,body,441512952,1709652646,0.17677581310272217,0.03,0.28812602162361145,0.03,0.03,0.2275105118751526
1709652646451699961,body,451528933,1709652646,0.2206457257270813,0.03,0.3383789658546448,0.03,0.03,0.23599880933761597
1709652646461615275,body,461494083,1709652646,0.4289664328098297,0.03,0.03,0.37347930669784546,1.0,0.03
1709652646471627201,body,471491704,1709652646,0.4531111419200897,0.03,0.03,0.34404265880584717,0.9595398902893066,0.03
1709652646481841123,body,481634927,1709652646,0.48048505187034607,0.03,0.03,0.2992161512374878,0.916724443435669,0.03
1709652646491730351,body,491569437,1709652646,0.4854603707790375,0.03,0.03,0.25363898277282715,0.8850110769271851,0.03
1709652646501786306,body,501572403,1709652646,0.4691922962665558,0.03,0.03,0.21442633867263794,0.8375153541564941,0.03
1709652646511729973,body,511525045,1709652646,0.4563505947589874,0.03,0.03,0.1598081886768341,0.7898334264755249,0.03
1709652646521782319,body,521590480,1709652646,0.40669378638267517,0.03,0.03,0.10375902056694031,0.7264235019683838,0.03
1709652646531684120,body,531518032,1709652646,0.38054266571998596,0.03,0.03,0.04829144477844238,0.6597148776054382,0.03
1709652646541714784,body,541542579,1709652646,0.3417387306690216,0.03,0.03,0.03,0.5820605158805847,0.03
1709652646551721674,body,551548167,1709652646,0.2991364300251007,0.03,0.03791683912277222,0.03,0.37723809480667114,0.03
1709652646561693767,body,561532490,1709652646,0.25193431973457336,0.03,0.08561521768569946,0.03,0.3025124669075012,0.03
1709652646571686114,body,571527667,1709652646,0.1922827661037445,0.03,0.11911362409591675,0.03,0.24010887742042542,0.03
1709652646581787279,body,581585306,1709652646,0.13716229796409607,0.03,0.1532609462738037,0.03,0.18327349424362183,0.03
1709652646591858439,body,591613350,1709652646,0.08718836307525635,0.03,0.17494440078735352,0.03,0.13883963227272034,0.03
1709652646601810101,body,601596320,1709652646,0.03,0.03,0.18699777126312256,0.03,0.12421861290931702,0.03
1709652646611760067,body,611562113,1709652646,0.03,0.03943958878517151,0.20534884929656982,0.03,0.10637906193733215,0.03
1709652646621717944,body,621535696,1709652646,0.03,0.08428803086280823,0.21309351921081543,0.03,0.10324355959892273,0.03
1709652646631667443,body,631510749,1709652646,0.03,0.12503719329833984,0.2272127866744995,0.03,0.0867777168750763,0.03
1709652646641713081,body,641542708,1709652646,0.03,0.16401471197605133,0.24518895149230957,0.03,0.0785486102104187,0.03
1709652646651765845,body,651577414,1709652646,0.03,0.2148565798997879,0.254464328289032,0.03,0.10747173428535461,0.03
1709652646661810239,body,661611546,1709652646,0.03,0.403300940990448,0.6776382327079773,0.03,0.03,0.9489308595657349
1709652646671830716,body,671639186,1709652646,0.03,0.4614928364753723,0.6874798536300659,0.03,0.03,0.9309486746788025
1709652646681734951,body,681542043,1709652646,0.03,0.5359636545181274,0.7120401263237,0.03,0.03,0.9133259057998657
1709652646691854519,body,691566511,1709652646,0.03,0.6262871623039246,0.7201482653617859,0.03,0.03,0.877808690071106
1709652646701744555,body,701544941,1709652646,0.03,0.6568626165390015,0.6963368654251099,0.03,0.03,0.839033842086792
1709652646711663544,body,711528812,1709652646,0.03,0.6743900179862976,0.6731982231140137,0.03,0.03,0.7965099811553955
1709652646721682180,body,721529647,1709652646,0.03,0.6774737238883972,0.6312388777732849,0.03,0.03,0.7310217618942261
1709652646731774118,body,731550473,1709652646,0.03,0.6779251098632812,0.5911527872085571,0.03,0.03,0.646253228187561
1709652646741707296,body,741514863,1709652646,0.03,0.6393905878067017,0.5449937582015991,0.03,0.03,0.5225281715393066
1709652646751694165,body,751541693,1709652646,0.03,0.5691131353378296,0.49333077669143677,0.03,0.03,0.42159831523895264
1709652646761670128,body,761529608,1709652646,0.03,0.4911937415599823,0.4477420449256897,0.03,0.03,0.3143976926803589
1709652646771664212,body,771516369,1709652646,0.03,0.4650438725948334,0.4045094847679138,0.03,0.03,0.23416024446487427
1709652646781735704,body,781560577,1709652646,0.03,0.386562705039978,0.3605238199234009,0.03,0.03,0.1652698516845703
1709652646791718911,body,791552740,1709652646,0.03,0.3090643286705017,0.3130471706390381,0.03,0.03,0.12003457546234131
1709652646801728102,body,801545335,1709652646,0.03,0.2407151162624359,0.2796894311904907,0.03,0.03,0.07705038785934448
1709652646811672828,body,811506950,1709652646,0.03,0.1881873607635498,0.2526280879974365,0.03,0.03,0.05531436204910278
1709652646821707201,body,821537672,1709652646,0.03,0.16208603978157043,0.24285034835338593,0.03,0.03,0.03278172016143799
1709652646831836144,body,831600547,1709652646,0.03,0.13044846057891846,0.22250638902187347,0.03,0.03,0.03
1709652646841796843,body,841584657,1709652646,0.03,0.1151210367679596,0.20825813710689545,0.03,0.03,0.03
1709652646851665716,body,851519130,1709652646,0.03,0.09575328230857849,0.19454608857631683,0.03,0.03,0.03
1709652646861696336,body,861527052,1709652646,0.03,0.06261482834815979,0.17254464328289032,0.03,0.03,0.03
1709652646871926833,body,871661048,1709652646,0.03,0.1119430661201477,1.0,0.03,0.14096739888191223,0.03
1709652646881831792,body,881618239,1709652646,0.03,0.08689498901367188,1.0,0.03,0.13338616490364075,0.03
1709652646891742218,body,891565199,1709652646,0.03,0.060537517070770264,1.0,0.03,0.12114724516868591,0.03
1709652646901762518,body,901553598,1709652646,0.03,0.05393093824386597,1.0,0.03,0.11492738127708435,0.03
1709652646911755518,body,911559071,1709652646,0.03,0.03,1.0,0.03,0.10537222027778625,0.03
1709652646921770978,body,921592954,1709652646,0.03,0.03,0.9667003154754639,0.03,0.09806814789772034,0.03
1709652646931787399,body,931578702,1709652646,0.03,0.03,0.8792912364006042,0.03,0.08178314566612244,0.03
1709652646941751584,body,941558449,1709652646,0.03,0.03,0.7018061876296997,0.03,0.06422403454780579,0.03
1709652646951714099,body,951526182,1709652646,0.04761284589767456,0.03,0.5766964554786682,0.03,0.03,0.03
1709652646961728577,body,961552119,1709652646,0.056084394454956055,0.03,0.4951574504375458,0.03,0.03,0.03
1709652646971716436,body,971537840,1709652646,0.0646446943283081,0.03,0.39919647574424744,0.03,0.03,0.03
1709652646981826677,body,981522080,1709652646,0.09699732065200806,0.03,0.33018749952316284,0.03,0.03,0.03775542974472046
1709652646991755659,body,991568529,1709652646,0.09617847204208374,0.03,0.2655126452445984,0.03,0.03,0.06009158492088318
1709652647001749746,body,1516132,1709652647,0.061248838901519775,0.03,0.21358537673950195,0.03,0.03,0.048175275325775146
1709652647011755388,body,11548854,1709652647,0.07514834403991699,0.03,0.19771820306777954,0.03,0.03,0.07007765769958496
1709652647021732191,body,21512368,1709652647,0.076587975025177,0.03,0.17493629455566406,0.03,0.03,0.09527894854545593
1709652647031778419,body,31582606,1709652647,0.08778154850006104,0.03,0.15623825788497925,0.03,0.03,0.11572238802909851
1709652647041780243,body,41565503,1709652647,0.08948749303817749,0.03,0.1524972915649414,0.03,0.03,0.13113880157470703
1709652647051766611,body,51560885,1709652647,0.10162109136581421,0.03,0.14206993579864502,0.03,0.03,0.14525765180587769
1709652647061895854,body,61665847,1709652647,0.11612832546234131,0.03,0.14185607433319092,0.03,0.03,0.16632327437400818
1709652647071656923,body,71516442,1709652647,0.12819409370422363,0.03,0.13470780849456787,0.03,0.03,0.16451796889305115
1709652647081695689,body,81526364,1709652647,0.7842892408370972,0.03,0.03,0.12264740467071533,0.45609715580940247,0.03
1709652647091680066,body,91527887,1709652647,0.7969663739204407,0.03,0.03,0.11988204717636108,0.4430544078350067,0.03
1709652647101830897,body,101610997,1709652647,0.8115889430046082,0.03,0.03,0.11277717351913452,0.4331897497177124,0.03
1709652647111653539,body,111518395,1709652647,0.821017861366272,0.03,0.03,0.10977882146835327,0.42397308349609375,0.03
1709652647121751891,body,121560942,1709652647,0.8177664875984192,0.03,0.03,0.10246652364730835,0.41896548867225647,0.03
1709652647131657723,body,131515150,1709652647,0.8022781014442444,0.03,0.03,0.09974038600921631,0.4207802712917328,0.03
1709652647141677068,body,141514517,1709652647,0.7823957800865173,0.03,0.03,0.09980732202529907,0.41913092136383057,0.03
1709652647151738377,body,151548772,1709652647,0.7515276074409485,0.03,0.03,0.09233289957046509,0.4059329628944397,0.03
1709652647161753515,body,161547121,1709652647,0.7167919874191284,0.03,0.03,0.09108668565750122,0.3928902745246887,0.03
1709652647171796782,body,171583700,1709652647,0.6565693616867065,0.03,0.03,0.0963711142539978,0.38494011759757996,0.03
1709652647181759174,body,181528631,1709652647,0.6009901762008667,0.03,0.03,0.10305047035217285,0.3779314160346985,0.03
1709652647191691698,body,191527252,1709652647,0.5416010618209839,0.03,0.03,0.1075858473777771,0.3702000081539154,0.03
1709652647201797117,body,201558649,1709652647,0.4693150520324707,0.03,0.03,0.12442725896835327,0.3548138737678528,0.03
1709652647211669509,body,211501347,1709652647,0.39714181423187256,0.03,0.03,0.12496012449264526,0.33250629901885986,0.03
1709652647221738444,body,221547132,1709652647,0.33455154299736023,0.03,0.03,0.1416056752204895,0.31606248021125793,0.03
1709652647231745073,body,231565956,1709652647,0.24179671704769135,0.03,0.03,0.14933711290359497,0.3137100338935852,0.03
1709652647241852999,body,241634277,1709652647,0.15333756804466248,0.03,0.03,0.1510431170463562,0.28886502981185913,0.03
1709652647251761963,body,251538758,1709652647,0.05412151291966438,0.03,0.03,0.1688799262046814,0.2972753942012787,0.03
1709652647261659914,body,261511453,1709652647,0.03,0.12908874452114105,0.03,0.17378246784210205,0.3030860424041748,0.03
1709652647271650576,body,271518491,1709652647,0.03,0.19994805753231049,0.03,0.17079764604568481,0.30122679471969604,0.03
1709652647281834806,body,281600474,1709652647,0.03,0.5855627059936523,0.03,0.4931020438671112,0.1548210233449936,0.03
1709652647291730033,body,291551238,1709652647,0.03,0.6358281373977661,0.03,0.4897402226924896,0.1528608798980713,0.03
1709652647301683107,body,301530923,1709652647,0.03,0.6701874732971191,0.03,0.48533764481544495,0.15887676179409027,0.03
1709652647311667349,body,311521913,1709652647,0.03,0.7008200883865356,0.03,0.46337196230888367,0.1575729101896286,0.03
1709652647321786601,body,321602709,1709652647,0.03,0.7205277681350708,0.03,0.43690308928489685,0.17638389766216278,0.03
1709652647331883226,body,331589483,1709652647,0.03,0.7296358346939087,0.03,0.43142572045326233,0.19006824493408203,0.03
1709652647341722545,body,341535857,1709652647,0.03,0.7400267124176025,0.03,0.40421751141548157,0.19258886575698853,0.03
1709652647351799046,body,351600467,1709652647,0.03,0.7333600521087646,0.03,0.3532833755016327,0.18776260316371918,0.03
1709652647361756302,body,361561648,1709652647,0.03,0.7207525968551636,0.03,0.31829771399497986,0.1912536919116974,0.03
1709652647371756856,body,371563529,1709652647,0.03,0.6763564348220825,0.03,0.2887144386768341,0.2167062610387802,0.03
1709652647381687945,body,381544102,1709652647,0.03,0.6375490427017212,0.03,0.2628929913043976,0.21185600757598877,0.03
1709652647391713196,body,391543620,1709652647,0.03,0.5828306674957275,0.03,0.24090176820755005,0.2181451916694641,0.03
1709652647401658483,body,401514476,1709652647,0.03,0.48617130517959595,0.03,0.21560323238372803,0.2362457513809204,0.03
1709652647411679995,body,411532804,1709652647,0.03,0.38879767060279846,0.03,0.19527211785316467,0.2497088611125946,0.03
1709652647421672904,body,421508256,1709652647,0.03,0.26866868138313293,0.03,0.16688373684883118,0.2575669586658478,0.03
1709652647431741553,body,431512631,1709652647,0.03,0.18368065357208252,0.03,0.1440790593624115,0.2722780704498291,0.03
1709652647441671083,body,441530818,1709652647,0.03,0.12985654175281525,0.03,0.12028765678405762,0.2730793058872223,0.03
1709652647451632644,body,451497879,1709652647,0.03,0.09079146385192871,0.03,0.09793457388877869,0.2729792594909668,0.03
1709652647461609149,body,461495382,1709652647,0.03,0.04803714156150818,0.03,0.09522727131843567,0.27310341596603394,0.03
1709652647471860122,body,471620534,1709652647,0.03,0.03424534201622009,0.03,0.09428101778030396,0.2772428095340729,0.03
1709652647481767958,body,481584174,1709652647,0.03,0.03,0.03,0.07778570055961609,0.27313312888145447,0.03
1709652647491835593,body,491594498,1709652647,0.30722883343696594,0.03,0.46598362922668457,0.03,0.03,0.10657812654972076
1709652647501717113,body,501526858,1709652647,0.3039450943470001,0.03,0.4669547379016876,0.03,0.03,0.12233816087245941
1709652647511668892,body,511520407,1709652647,0.315843790769577,0.03,0.45792704820632935,0.03,0.03,0.12962287664413452
1709652647521645805,body,521504749,1709652647,0.3063788414001465,0.03,0.4588395953178406,0.03,0.03,0.14578543603420258
1709652647531723556,body,531540729,1709652647,0.2972100079059601,0.03,0.4492839574813843,0.03,0.03,0.14608794450759888
1709652647541737345,body,541544681,1709652647,0.28898051381111145,0.03,0.4404245615005493,0.03,0.03,0.15150786936283112
1709652647551767037,body,551557135,1709652647,0.27587828040122986,0.03,0.42981305718421936,0.03,0.03,0.15934185683727264
1709652647561710553,body,561550978,1709652647,0.26356732845306396,0.03,0.4187195301055908,0.03,0.03,0.16849467158317566
1709652647571717993,body,571509055,1709652647,0.24405157566070557,0.03,0.39847567677497864,0.03,0.03,0.1536649465560913
1709652647581770250,body,581531561,1709652647,0.22827360033988953,0.03,0.3809826374053955,0.03,0.03,0.15460684895515442
1709652647591766436,body,591565985,1709652647,0.21980851888656616,0.03,0.354104220867157,0.03,0.03,0.13906782865524292
1709652647601743080,body,601512398,1709652647,0.179792582988739,0.03,0.33542484045028687,0.03,0.03,0.12689431011676788
1709652647611784953,body,611566952,1709652647,0.1585344672203064,0.03,0.32048463821411133,0.03,0.03,0.12134306132793427
1709652647621693109,body,621535610,1709652647,0.1276703178882599,0.03,0.3001914620399475,0.03,0.03,0.11649958789348602
1709652647631690074,body,631528392,1709652647,0.11596720665693283,0.03,0.2786554992198944,0.03,0.03,0.0986035019159317
1709652647641714055,body,641549048,1709652647,0.0925791934132576,0.03,0.25118786096572876,0.03,0.03,0.08738075196743011
1709652647651698969,body,651517980,1709652647,0.0703415498137474,0.03,0.23877155780792236,0.03,0.03,0.09461241960525513
1709652647661659175,body,661506431,1709652647,0.031253963708877563,0.03,0.23286807537078857,0.03,0.03,0.09678363800048828
1709652647671724183,body,671533058,1709652647,0.03,0.03,0.21745580434799194,0.03,0.03,0.08734272420406342
1709652647681664241,body,681521338,1709652647,0.03,0.03,0.1929035186767578,0.03,0.03,0.06809413433074951
1709652647691759429,body,691555986,1709652647,0.03,0.0395083948969841,0.16789740324020386,0.03,0.03,0.048317670822143555
1709652647701679049,body,701540613,1709652647,0.3577340245246887,0.03,0.03,0.5547674894332886,0.729625403881073,0.03
1709652647711626088,body,711503859,1709652647,0.30992308259010315,0.03,0.03,0.5467029213905334,0.726814866065979,0.03
1709652647721711412,body,721556883,1709652647,0.2723372280597687,0.03,0.03,0.5436331629753113,0.7404563426971436,0.03
1709652647731832754,body,731601510,1709652647,0.2470257431268692,0.03,0.03,0.5501848459243774,0.7563769817352295,0.03
1709652647741707998,body,741538246,1709652647,0.2235203981399536,0.03,0.03,0.555597722530365,0.765979528427124,0.03
1709652647751642575,body,751494829,1709652647,0.21062402427196503,0.03,0.03,0.5560426115989685,0.7583008408546448,0.03
1709652647761706066,body,761548851,1709652647,0.19699148833751678,0.03,0.03,0.5564568638801575,0.7609718441963196,0.03
1709652647771816512,body,771584655,1709652647,0.17688757181167603,0.03,0.03,0.5496465563774109,0.7425963282585144,0.03
1709652647781710017,body,781541764,1709652647,0.17238011956214905,0.03,0.03,0.530491828918457,0.6882402896881104,0.03
1709652647791790412,body,791585644,1709652647,0.15528276562690735,0.03,0.03,0.512869119644165,0.6370992660522461,0.03
1709652647801749787,body,801547288,1709652647,0.11500623822212219,0.03,0.03,0.47006720304489136,0.5621446967124939,0.03
1709652647811768766,body,811569348,1709652647,0.09550678730010986,0.03,0.03,0.4488637149333954,0.4882967472076416,0.03
1709652647821785733,body,821567568,1709652647,0.06253772974014282,0.03,0.03,0.39485108852386475,0.3474639654159546,0.03
1709652647831843396,body,831631078,1709652647,0.04387873411178589,0.03,0.03,0.3591238558292389,0.2714778482913971,0.03
1709652647841701231,body,841520773,1709652647,0.042379558086395264,0.03,0.03,0.34282052516937256,0.20423243939876556,0.03
1709652647851609389,body,851491011,1709652647,0.030725985765457153,0.03,0.03,0.3160746097564697,0.16664257645606995,0.03
1709652647861715587,body,861558325,1709652647,0.03,0.03,0.03,0.2908540964126587,0.12077921628952026,0.03
1709652647871660626,body,871489024,1709652647,0.031686604022979736,0.03,0.03,0.270541787147522,0.08692687749862671,0.03
1709652647881718815,body,881562133,1709652647,0.03,0.03,0.03,0.2605636417865753,0.07247889041900635,0.03
1709652647891739872,body,891560448,1709652647,0.03375595808029175,0.03,0.03,0.24733063578605652,0.04458799958229065,0.03
1709652647901700470,body,901532523,1709652647,0.03,0.03,0.03,0.21871334314346313,0.056352972984313965,0.03
1709652647911708539,body,911536057,1709652647,0.03,0.5798302292823792,0.3884640038013458,0.03,0.03,0.7177026271820068
1709652647921784090,body,921576113,1709652647,0.03,0.5684739351272583,0.39224308729171753,0.03,0.03,0.730694055557251
1709652647931831786,body,931559878,1709652647,0.03,0.5726083517074585,0.4135996997356415,0.03,0.03,0.7405328154563904
1709652647941565557,body,941437289,1709652647,0.03,0.5552806854248047,0.4282902479171753,0.03,0.03,0.7615748643875122
1709652647951636786,body,951505573,1709652647,0.03,0.5390703678131104,0.4297020435333252,0.03,0.03,0.7569633722305298
1709652647961695752,body,961555070,1709652647,0.03,0.5277625322341919,0.4290543794631958,0.03,0.03,0.7446553707122803
1709652647971517329,body,971447962,1709652647,0.03,0.5219405889511108,0.4136379659175873,0.03,0.03,0.7301315069198608
1709652647981616266,body,981465917,1709652647,0.03,0.5096670985221863,0.3995882272720337,0.03,0.03,0.7039341926574707
1709652647991559066,body,991462002,1709652647,0.03,0.4949389398097992,0.38660120964050293,0.03,0.03,0.6771863698959351
1709652648001538376,body,1459823,1709652648,0.03,0.46762555837631226,0.372025728225708,0.03,0.03,0.6475231647491455
1709652648011535697,body,11449708,1709652648,0.03,0.4384866952896118,0.3420192301273346,0.03,0.03,0.592668354511261
1709652648021557290,body,21470370,1709652648,0.03,0.3932431936264038,0.3079867660999298,0.03,0.03,0.5257132053375244
1709652648031517658,body,31452805,1709652648,0.03,0.36316388845443726,0.2916205823421478,0.03,0.03,0.457570880651474
1709652648041602477,body,41500437,1709652648,0.03,0.31558364629745483,0.2823747396469116,0.03,0.03,0.34327223896980286
1709652648051593900,body,51484319,1709652648,0.03,0.2570945620536804,0.26397019624710083,0.03,0.03,0.2291879802942276
1709652648061546661,body,61460042,1709652648,0.03,0.19966824352741241,0.25334930419921875,0.03,0.03,0.14642374217510223
1709652648071578467,body,71475741,1709652648,0.03,0.08650033921003342,0.23703932762145996,0.03,0.03,0.09179720282554626
1709652648081583760,body,81482329,1709652648,0.03,0.040635980665683746,0.23222345113754272,0.03,0.03,0.04829126596450806
1709652648091569530,body,91472929,1709652648,0.03,0.03,0.22756341099739075,0.03,0.03,0.03
1709652648101639060,body,101510587,1709652648,0.03763763606548309,0.03,0.21505963802337646,0.03,0.03,0.03
1709652648111656540,body,111511232,1709652648,0.058643460273742676,0.03,0.2122826874256134,0.03,0.03,0.03
1709652648121717988,body,121543711,1709652648,0.03,0.03,0.0627295970916748,0.03,1.0,0.03
1709652648131689564,body,131542235,1709652648,0.03,0.03,0.051689863204956055,0.03,1.0,0.03
1709652648141761382,body,141582219,1709652648,0.03,0.03,0.04220178723335266,0.03,1.0,0.03
1709652648151693641,body,151529597,1709652648,0.03,0.03,0.03,0.03,1.0,0.03
1709652648161690685,body,161529022,1709652648,0.03,0.03,0.03,0.03,1.0,0.03
1709652648171790966,body,171565491,1709652648,0.03,0.03,0.03,0.03,1.0,0.03
1709652648181770740,body,181599246,1709652648,0.03,0.03,0.03,0.03,0.9861555695533752,0.03
1709652648191698622,body,191533526,1709652648,0.03,0.03,0.03,0.03,0.9407857656478882,0.03
1709652648201746576,body,201575561,1709652648,0.03,0.03,0.03,0.03283894062042236,0.8646622896194458,0.03
1709652648211688075,body,211527408,1709652648,0.03,0.03,0.03,0.04307609796524048,0.7780404686927795,0.03
1709652648221650394,body,221514988,1709652648,0.03,0.03,0.03,0.05723029375076294,0.5732925534248352,0.03
1709652648231611541,body,231503042,1709652648,0.03,0.03,0.03,0.07729369401931763,0.4694267213344574,0.03
1709652648241622384,body,241489329,1709652648,0.03,0.03,0.03,0.09819084405899048,0.38648903369903564,0.03
1709652648251643095,body,251505990,1709652648,0.03,0.03,0.03,0.14086085557937622,0.3294626772403717,0.03
1709652648261642716,body,261520313,1709652648,0.03,0.03729026019573212,0.03,0.1818750500679016,0.28650957345962524,0.03
1709652648271677228,body,271515670,1709652648,0.03,0.07403446733951569,0.03,0.21782523393630981,0.26218992471694946,0.03
1709652648281737130,body,281558874,1709652648,0.03,0.10202844440937042,0.03,0.24479007720947266,0.23798885941505432,0.03
1709652648291739772,body,291549931,1709652648,0.03,0.12756504118442535,0.03,0.29406797885894775,0.22925522923469543,0.03
1709652648301956173,body,301606850,1709652648,0.03,0.1786280870437622,0.03,0.31068122386932373,0.23532435297966003,0.03
1709652648311750075,body,311574264,1709652648,0.03,0.2521805167198181,0.03,0.33342665433883667,0.2373965084552765,0.03
1709652648321623294,body,321495866,1709652648,0.03,0.324571430683136,0.03,0.3509964346885681,0.24172371625900269,0.03
1709652648331660012,body,331515751,1709652648,0.03,0.8047395944595337,0.03,0.14613771438598633,0.03,0.3588590919971466
1709652648341721418,body,341548420,1709652648,0.03,0.8339141607284546,0.03,0.1584385633468628,0.03,0.3351256549358368
1709652648351683884,body,351520462,1709652648,0.03,0.8609026670455933,0.03,0.15761488676071167,0.03,0.314358115196228
1709652648361674138,body,361518972,1709652648,0.03,0.8795540928840637,0.03,0.16819149255752563,0.03,0.29074761271476746
1709652648371638129,body,371498720,1709652648,0.03,0.8672412633895874,0.03,0.16593509912490845,0.03,0.2606244385242462
1709652648381800358,body,381599437,1709652648,0.03,0.8593964576721191,0.03,0.16002041101455688,0.03,0.23196062445640564
1709652648391814008,body,391563359,1709652648,0.03,0.8168032169342041,0.03,0.17019861936569214,0.03,0.20697227120399475
1709652648401779870,body,401591637,1709652648,0.03,0.7043389081954956,0.03,0.17310655117034912,0.03,0.16224566102027893
1709652648411681464,body,411499012,1709652648,0.03,0.577235996723175,0.03,0.1801658272743225,0.03,0.12334249168634415
1709652648421632159,body,421499949,1709652648,0.03,0.479802668094635,0.03,0.21451711654663086,0.03,0.05215118080377579
1709652648431729174,body,431551247,1709652648,0.03,0.41819486021995544,0.03,0.22432714700698853,0.03,0.03
1709652648441659763,body,441532253,1709652648,0.03,0.35541266202926636,0.03,0.21380549669265747,0.08369746804237366,0.03
1709652648451655551,body,451516811,1709652648,0.03,0.29145798087120056,0.03,0.18217498064041138,0.1133333370089531,0.03
1709652648461740551,body,461570829,1709652648,0.03,0.24412572383880615,0.03,0.1668456792831421,0.13949790596961975,0.03
1709652648471697657,body,471560389,1709652648,0.03,0.20941537618637085,0.03,0.16529518365859985,0.17526274919509888,0.03
1709652648481742574,body,481546953,1709652648,0.03,0.1624961495399475,0.03,0.13781988620758057,0.18193379044532776,0.03
1709652648491707831,body,491526922,1709652648,0.03,0.11887693405151367,0.03,0.13460159301757812,0.18708351254463196,0.03
1709652648501715376,body,501554893,1709652648,0.03,0.10392260551452637,0.03,0.13499194383621216,0.2014884650707245,0.03
1709652648511657781,body,511527847,1709652648,0.03,0.0955197811126709,0.03,0.11910438537597656,0.19750693440437317,0.03
1709652648521649387,body,521499224,1709652648,0.03,0.08736151456832886,0.03,0.10107529163360596,0.18772560358047485,0.03
1709652648531810965,body,531607528,1709652648,0.03,0.046375572681427,0.03,1.0,0.3985869288444519,0.03
1709652648541778516,body,541604955,1709652648,0.03,0.03219550848007202,0.03,1.0,0.3840039372444153,0.03
1709652648551683729,body,551531808,1709652648,0.03,0.03,0.03,1.0,0.366729199886322,0.03
1709652648561744392,body,561555908,1709652648,0.03,0.03,0.03,1.0,0.33619093894958496,0.03
1709652648571619824,body,571503656,1709652648,0.03,0.03,0.03,1.0,0.2707335352897644,0.03
1709652648581616430,body,581501237,1709652648,0.03,0.03,0.03,1.0,0.19817516207695007,0.03
1709652648591637941,body,591501294,1709652648,0.03,0.03,0.03,1.0,0.13670092821121216,0.03
1709652648601696293,body,601519232,1709652648,0.03,0.03,0.03,1.0,0.10309447348117828,0.03
1709652648611659358,body,611512190,1709652648,0.03,0.03,0.03,0.966143012046814,0.06946289539337158,0.03
1709652648621624486,body,621506712,1709652648,0.03,0.03,0.03,0.8672029376029968,0.03753317892551422,0.03
1709652648631655538,body,631511834,1709652648,0.03,0.03,0.03,0.7229443788528442,0.03,0.03
1709652648641724898,body,641536562,1709652648,0.03,0.03278243541717529,0.03,0.4506087005138397,0.03,0.03
1709652648651777417,body,651582482,1709652648,0.03,0.0400463342666626,0.03,0.23230311274528503,0.03,0.03
1709652648661751921,body,661561751,1709652648,0.03,0.05065262317657471,0.03,0.12257245182991028,0.03,0.03
1709652648671711141,body,671574637,1709652648,0.03,0.060670435428619385,0.03,0.03,0.03,0.03
1709652648681703794,body,681544684,1709652648,0.03,0.07731860876083374,0.05462828278541565,0.03,0.03,0.03
1709652648691644185,body,691495410,1709652648,0.03,0.10296499729156494,0.12837091088294983,0.03,0.03,0.03
1709652648701813487,body,701580071,1709652648,0.03,0.12342774868011475,0.181939035654068,0.03,0.03,0.03
1709652648711707187,body,711533177,1709652648,0.03,0.15012025833129883,0.23506715893745422,0.03,0.04061092436313629,0.03
1709652648721719821,body,721530641,1709652648,0.03,0.17714980244636536,0.2689448297023773,0.03,0.04323829710483551,0.03
1709652648731794801,body,731585064,1709652648,0.03,0.2072092592716217,0.31808456778526306,0.03,0.06015574932098389,0.03
1709652648741816898,body,741561543,1709652648,1.0,0.03,0.611203670501709,0.03,0.03,0.8893021941184998
1709652648751781457,body,751585359,1709652648,1.0,0.03,0.6408627033233643,0.03,0.03,0.8549025058746338
1709652648761649764,body,761516701,1709652648,0.9636513590812683,0.03,0.6517698764801025,0.03,0.03,0.7979216575622559
1709652648771683339,body,771517228,1709652648,0.9118577241897583,0.03,0.6574445962905884,0.03,0.03,0.7699234485626221
1709652648781665588,body,781512007,1709652648,0.8579332828521729,0.03,0.6687928438186646,0.03,0.03,0.7036105394363403
1709652648791717437,body,791552132,1709652648,0.7965524196624756,0.03,0.6593359708786011,0.03,0.03,0.6032440066337585
1709652648801755536,body,801545413,1709652648,0.7111170887947083,0.03,0.6106938123703003,0.03,0.03,0.5171833038330078
1709652648811804204,body,811592854,1709652648,0.5721360445022583,0.03,0.55499267578125,0.03,0.03,0.45158472657203674
1709652648821740290,body,821547264,1709652648,0.4529063403606415,0.03,0.4939830005168915,0.03,0.03,0.4015107750892639
1709652648831635938,body,831491476,1709652648,0.361097127199173,0.03,0.44263342022895813,0.03,0.03,0.33706751465797424
1709652648841677831,body,841540117,1709652648,0.278072714805603,0.03,0.3888659179210663,0.03,0.03,0.27612221240997314
1709652648851843887,body,851586807,1709652648,0.20958393812179565,0.03,0.32516440749168396,0.03,0.03,0.22462230920791626
1709652648861750679,body,861568618,1709652648,0.17029264569282532,0.03,0.2655715048313141,0.03,0.03,0.19005173444747925
1709652648871784704,body,871590300,1709652648,0.14035168290138245,0.03,0.2120424509048462,0.03,0.03,0.17166823148727417
1709652648881749650,body,881559953,1709652648,0.12350869178771973,0.03,0.17669302225112915,0.03,0.03,0.17459911108016968
1709652648891769121,body,891567011,1709652648,0.1137927770614624,0.03,0.12877389788627625,0.03,0.03,0.15765899419784546
1709652648901710020,body,901545074,1709652648,0.09831684827804565,0.03,0.10570871829986572,0.03,0.03,0.1474195122718811
1709652648911760083,body,911545028,1709652648,0.08724910020828247,0.03,0.0751771330833435,0.03,0.03,0.12763798236846924
1709652648921738116,body,921554348,1709652648,0.08331131935119629,0.03,0.05526912212371826,0.03,0.03,0.12490648031234741
1709652648931709943,body,931537477,1709652648,0.08449703454971313,0.03,0.03,0.03,0.03,0.10900282859802246
1709652648941739220,body,941556329,1709652648,0.0868942141532898,0.03,0.03,0.03,0.03,0.10060238838195801
1709652648951648719,body,951523800,1709652648,0.03,1.0,0.14257028698921204,0.03,0.03,0.09035307168960571
1709652648961695058,body,961530308,1709652648,0.03,1.0,0.12189390510320663,0.03,0.03,0.08055758476257324
1709652648971727830,body,971504354,1709652648,0.03,1.0,0.11105497926473618,0.03,0.03,0.05377227067947388
1709652648981799061,body,981596560,1709652648,0.03,1.0,0.09938570111989975,0.03,0.03,0.04326146841049194
1709652648991779402,body,991586500,1709652648,0.03,1.0,0.10006999224424362,0.03,0.03,0.04385560750961304
1709652649001809979,body,1596800,1709652649,0.03,1.0,0.04929666221141815,0.03,0.03,0.03
1709652649011862243,body,11616859,1709652649,0.03,1.0,0.03,0.03,0.03,0.03
1709652649021782946,body,21595018,1709652649,0.03,1.0,0.03,0.1190180778503418,0.03,0.03
1709652649031844668,body,31576555,1709652649,0.03,1.0,0.03,0.18512338399887085,0.03,0.03
1709652649041781515,body,41567991,1709652649,0.03,0.9618465900421143,0.03,0.21842250227928162,0.03,0.03
1709652649052016551,body,51567817,1709652649,0.03,0.7118982672691345,0.03,0.25389954447746277,0.03,0.03
1709652649061775126,body,61597736,1709652649,0.03,0.5432982444763184,0.03,0.2871902883052826,0.03,0.03
1709652649071838074,body,71622643,1709652649,0.03,0.40774810314178467,0.03,0.3287765681743622,0.03,0.03
1709652649081880067,body,81660062,1709652649,0.03,0.27918702363967896,0.03,0.35164308547973633,0.03,0.03
1709652649091665355,body,91527967,1709652649,0.03,0.18808788061141968,0.03,0.3458453118801117,0.03,0.03
1709652649101691847,body,101519910,1709652649,0.03,0.09726589918136597,0.03,0.33674705028533936,0.03,0.03932321071624756
1709652649111677146,body,111530395,1709652649,0.03,0.03,0.03,0.30443257093429565,0.03,0.06823611259460449
1709652649121760547,body,121569854,1709652649,0.05366182327270508,0.03,0.03,0.25121140480041504,0.03,0.09763461351394653
1709652649131742871,body,131568040,1709652649,0.10617697238922119,0.03,0.03,0.18553361296653748,0.03,0.12723428010940552
1709652649141729191,body,141551850,1709652649,0.14485925436019897,0.03,0.03,0.05375472828745842,0.03,0.15362852811813354
1709652649151850356,body,151598018,1709652649,0.5114277601242065,0.03,0.879625678062439,0.03,1.0,0.03
1709652649161702510,body,161527168,1709652649,0.546366810798645,0.03,0.9422751069068909,0.03,1.0,0.03
1709652649171695809,body,171528660,1709652649,0.5512479543685913,0.03,1.0,0.03,1.0,0.03
1709652649181662449,body,181498842,1709652649,0.5512479543685913,0.03,1.0,0.03,1.0,0.03
1709652649191682517,body,191536807,1709652649,0.5512479543685913,0.03,1.0,0.03,0.9610834121704102,0.03
1709652649201761638,body,201576250,1709652649,0.5512479543685913,0.03,1.0,0.03,0.9104174375534058,0.03
1709652649211746139,body,211585424,1709652649,0.5512479543685913,0.03,1.0,0.03,0.8384768962860107,0.03
1709652649221766215,body,221545939,1709652649,0.5436111092567444,0.03,1.0,0.03,0.7335767149925232,0.03
1709652649231844612,body,231637333,1709652649,0.5181447863578796,0.03,1.0,0.03,0.5521683096885681,0.03
1709652649241779348,body,241575383,1709652649,0.4898630976676941,0.03,1.0,0.03,0.44607481360435486,0.03
1709652649251779511,body,251565075,1709652649,0.45074260234832764,0.03,1.0,0.03,0.34996306896209717,0.03
1709652649261733989,body,261549216,1709652649,0.4215180277824402,0.03,1.0,0.03,0.27655109763145447,0.03
1709652649271710503,body,271535350,1709652649,0.3908960819244385,0.03,0.8668964505195618,0.03,0.2049676775932312,0.03
1709652649281720087,body,281557961,1709652649,0.3588593006134033,0.03,0.6048727631568909,0.03,0.15252557396888733,0.03
1709652649291758340,body,291572916,1709652649,0.3288998007774353,0.03,0.44034820795059204,0.03,0.11600959300994873,0.03
1709652649301829237,body,301624589,1709652649,0.290777325630188,0.03,0.2834433615207672,0.03,0.10056298971176147,0.03
1709652649311654269,body,311522254,1709652649,0.2555784583091736,0.03,0.16058647632598877,0.03,0.09425455331802368,0.03
1709652649321679186,body,321522306,1709652649,0.2258736491203308,0.03,0.03720897436141968,0.03,0.09968596696853638,0.03
1709652649331657539,body,331519569,1709652649,0.18436598777770996,0.03,0.03,0.07057499885559082,0.12028813362121582,0.03
1709652649341775885,body,341566912,1709652649,0.14585375785827637,0.03,0.03,0.1714872121810913,0.14977937936782837,0.03
1709652649351693237,body,351516979,1709652649,0.09300553798675537,0.03,0.03,0.21698343753814697,0.19682341814041138,0.03
1709652649361660819,body,361511322,1709652649,0.9938048720359802,0.03,0.03,1.0,0.03,0.3314540684223175
1709652649371689422,body,371517616,1709652649,0.9430128335952759,0.03,0.03,1.0,0.03,0.28135448694229126
1709652649381627448,body,381512171,1709652649,0.8942428231239319,0.03,0.03,1.0,0.03,0.23466753959655762
1709652649391635664,body,391493551,1709652649,0.8684489727020264,0.03,0.03,1.0,0.03,0.19154199957847595
1709652649401683001,body,401530253,1709652649,0.8133336901664734,0.03,0.03,1.0,0.03,0.13245506584644318
1709652649411637097,body,411508825,1709652649,0.7351410388946533,0.03,0.03,1.0,0.03,0.06707035005092621
1709652649421672873,body,421516886,1709652649,0.6816151738166809,0.03,0.03,1.0,0.03625965118408203,0.03
1709652649431701853,body,431541819,1709652649,0.5509586334228516,0.03,0.03,1.0,0.15246284008026123,0.03
1709652649441741959,body,441582631,1709652649,0.3722270131111145,0.03,0.03,1.0,0.19938217103481293,0.03
1709652649451705495,body,451512454,1709652649,0.2782442271709442,0.03,0.03,1.0,0.23926186561584473,0.03
1709652649461686881,body,461540966,1709652649,0.20600438117980957,0.03,0.03,1.0,0.26818275451660156,0.03
1709652649471662582,body,471498819,1709652649,0.15198463201522827,0.03,0.03,0.9128918647766113,0.26644468307495117,0.03
1709652649481649458,body,481517403,1709652649,0.10365426540374756,0.03,0.03,0.8063718676567078,0.2682701051235199,0.03
1709652649491685656,body,491538570,1709652649,0.08708864450454712,0.03,0.03,0.6946772933006287,0.2850033640861511,0.03
1709652649501759084,body,501567336,1709652649,0.06656932830810547,0.03,0.03,0.5572888255119324,0.28225088119506836,0.03
1709652649511733932,body,511548201,1709652649,0.061691224575042725,0.03,0.03,0.3228953182697296,0.27119529247283936,0.03
1709652649521792582,body,521565231,1709652649,0.07894444465637207,0.03,0.03,0.16583894193172455,0.2650618851184845,0.03
1709652649531762981,body,531607395,1709652649,0.08966663479804993,0.03,0.03,0.0766163170337677,0.2571095824241638,0.03
1709652649541803046,body,541610508,1709652649,0.1080944836139679,0.03,0.03,0.03,0.258659690618515,0.03
1709652649551794641,body,551618552,1709652649,0.09793737530708313,0.03,0.035033583641052246,0.03,0.2620246410369873,0.03
1709652649561767443,body,561566875,1709652649,0.03,0.6495531797409058,0.8535999655723572,0.03,0.21259844303131104,0.03
1709652649571807232,body,571594137,1709652649,0.03,0.6436776518821716,0.8638194799423218,0.03,0.20760783553123474,0.03
1709652649581782447,body,581559882,1709652649,0.03,0.6415995359420776,0.878954291343689,0.03,0.19740921258926392,0.03
1709652649591804694,body,591594479,1709652649,0.03,0.6404665112495422,0.8904546499252319,0.03,0.1866530179977417,0.03
1709652649601791066,body,601578561,1709652649,0.03,0.6424594521522522,0.8847097158432007,0.03,0.1444278359413147,0.03
1709652649611684664,body,611530293,1709652649,0.03,0.6334277391433716,0.8809901475906372,0.03,0.11401975154876709,0.03
1709652649621673275,body,621512722,1709652649,0.03,0.6278979182243347,0.8765854835510254,0.03,0.07954636216163635,0.03
1709652649631651166,body,631501571,1709652649,0.03,0.6170275807380676,0.8320566415786743,0.03,0.050355397164821625,0.03
1709652649641644801,body,641502391,1709652649,0.03,0.6068799495697021,0.7981067895889282,0.03,0.03,0.03
1709652649651652552,body,651511609,1709652649,0.03,0.5854116082191467,0.7383332848548889,0.03,0.03,0.03
1709652649661648243,body,661507312,1709652649,0.03,0.5627577304840088,0.6821678280830383,0.03,0.03,0.04021867737174034
1709652649671803179,body,671559812,1709652649,0.03,0.5249927639961243,0.5874109268188477,0.03,0.03,0.06474858522415161
1709652649681766859,body,681544195,1709652649,0.03,0.4856157898902893,0.4413124620914459,0.03,0.03,0.07794348150491714
1709652649691734496,body,691557582,1709652649,0.03,0.43504273891448975,0.25421658158302307,0.03,0.03,0.10049214959144592
1709652649701749703,body,701569622,1709652649,0.03,0.3909394443035126,0.16193696856498718,0.03,0.03,0.10825201123952866
1709652649711763860,body,711549589,1709652649,0.03,0.36025524139404297,0.10578832030296326,0.03,0.03,0.1109413430094719
1709652649721752238,body,721573903,1709652649,0.03,0.3260325789451599,0.05958837270736694,0.03,0.03,0.09442133456468582
1709652649731712582,body,731547169,1709652649,0.03,0.2644678056240082,0.03,0.03,0.03,0.11904550343751907
1709652649741916794,body,741637815,1709652649,0.03,0.17697773873806,0.03,0.03,0.03,0.1276879608631134
1709652649751890318,body,751653638,1709652649,0.03,0.13552838563919067,0.03,0.03,0.03,0.1243288591504097
1709652649761763543,body,761604745,1709652649,0.3535095155239105,0.03,0.03,0.3801940679550171,0.03,0.8767587542533875
1709652649771725912,body,771569355,1709652649,0.36695221066474915,0.03,0.03,0.3772655129432678,0.03,0.8601340651512146
1709652649781748057,body,781558880,1709652649,0.39845508337020874,0.03,0.03,0.3899763822555542,0.03,0.849852979183197
1709652649791701574,body,791527892,1709652649,0.43586403131484985,0.03,0.03,0.40417540073394775,0.03,0.8356527090072632
1709652649801839806,body,801598405,1709652649,0.42826443910598755,0.03,0.03,0.38666921854019165,0.03,0.7830440402030945
1709652649811812728,body,811600617,1709652649,0.40830740332603455,0.03,0.03,0.37436193227767944,0.03,0.7027241587638855
1709652649821693721,body,821525264,1709652649,0.391156405210495,0.03,0.03,0.36262261867523193,0.03,0.6182754039764404
1709652649831643062,body,831487750,1709652649,0.38298872113227844,0.03,0.03,0.3455759286880493,0.03,0.5410288572311401
1709652649841698339,body,841532847,1709652649,0.37279096245765686,0.03,0.03,0.33483749628067017,0.03,0.47783783078193665
1709652649851628216,body,851505758,1709652649,0.32790839672088623,0.03,0.03,0.30253487825393677,0.03,0.40652719140052795
1709652649861630761,body,861498319,1709652649,0.29141199588775635,0.03,0.03,0.2716960906982422,0.03,0.34703007340431213
1709652649871675688,body,871517133,1709652649,0.3024629056453705,0.03,0.03,0.2568432688713074,0.03,0.2853148877620697
1709652649881664738,body,881504341,1709652649,0.29373064637184143,0.03,0.03,0.23916883766651154,0.03,0.2491726577281952
1709652649891723388,body,891541065,1709652649,0.32523584365844727,0.03,0.03,0.22317339479923248,0.03,0.21530282497406006
1709652649901850868,body,901595805,1709652649,0.31813153624534607,0.03,0.03,0.18666890263557434,0.03,0.182750403881073
1709652649911675677,body,911517538,1709652649,0.30393582582473755,0.03,0.03,0.14816108345985413,0.03,0.15751320123672485
1709652649921656856,body,921515979,1709652649,0.3328964412212372,0.03,0.03,0.1512974500656128,0.03,0.14090031385421753
1709652649931643702,body,931507798,1709652649,0.3520631790161133,0.03,0.03,0.15117283165454865,0.03,0.12393414974212646
1709652649941757714,body,941562595,1709652649,0.3775175213813782,0.03,0.03,0.16152708232402802,0.03,0.09624218940734863
1709652649951899867,body,951550454,1709652649,0.3656219244003296,0.03,0.03,0.1763523519039154,0.03,0.08474516868591309
1709652649961703743,body,961531844,1709652649,0.3514154553413391,0.03,0.03,0.16895169019699097,0.03,0.08412790298461914
1709652649971725154,body,971563317,1709652649,0.03,0.03,0.46664732694625854,0.03,1.0,0.03
1709652649981678672,body,981524647,1709652649,0.03,0.03,0.4558417499065399,0.03,1.0,0.03
1709652649991700878,body,991523957,1709652649,0.03,0.03,0.43515917658805847,0.03,1.0,0.03
1709652650001654862,body,1509107,1709652650,0.03,0.03,0.43359553813934326,0.03,1.0,0.03
1709652650011633366,body,11512184,1709652650,0.03,0.03,0.41825854778289795,0.03,1.0,0.03
1709652650021642033,body,21486443,1709652650,0.030473142862319946,0.03,0.38208529353141785,0.03,1.0,0.03
1709652650031747546,body,31543650,1709652650,0.051677852869033813,0.03,0.3630169630050659,0.03,1.0,0.03
1709652650041657896,body,41481990,1709652650,0.06404249370098114,0.03,0.34412771463394165,0.03,1.0,0.03
1709652650051623852,body,51504209,1709652650,0.06109176576137543,0.03,0.3384338617324829,0.03,1.0,0.03
1709652650061659911,body,61512930,1709652650,0.06419681012630463,0.03,0.3316485285758972,0.03,1.0,0.03
1709652650071640491,body,71508085,1709652650,0.06202206015586853,0.03,0.29429712891578674,0.03,1.0,0.03
